[{"type":"DISRUPTION","id":"6051985","title":"Zwolle - Groningen.","isActive":true,"topic":"disruption_6051985_nl","local":false,"titleSections":[[{"type":"STATION","value":"Zwolle"},{"type":"STATION","value":"Europapark"},{"type":"ICON","value":"DISRUPTION"},{"type":"STATION","value":"Groningen"}]],"registrationTime":"2024-11-25T07:05:56+0100","releaseTime":"2024-11-25T07:05:56+0100","start":"2024-11-24T05:13:00+0100","end":"2024-11-28T15:00:00+0100","phase":{"id":"3","label":"Vervangend vervoer"},"impact":{"value":3},"expectedDuration":{"description":"Dit duurt ten minste tot donderdag 28 november 15:00 uur.","endTime":"2024-11-28T15:00:00+0100"},"publicationSections":[{"section":{"stations":[{"coordinate":{"lat":52.5047225952148,"lng":6.09194421768188},"countryCode":"NL","name":"Zwolle","stationCode":"ZL","uicCode":"8400747"},{"coordinate":{"lat":52.6908340454102,"lng":6.19750022888184},"countryCode":"NL","name":"Meppel","stationCode":"MP","uicCode":"8400435"},{"coordinate":{"lat":52.7338905334473,"lng":6.47361087799072},"countryCode":"NL","name":"Hoogeveen","stationCode":"HGV","uicCode":"8400330"},{"coordinate":{"lat":52.8547210693359,"lng":6.52111101150513},"countryCode":"NL","name":"Beilen","stationCode":"BL","uicCode":"8400100"},{"coordinate":{"lat":52.9916648864746,"lng":6.57083320617676},"countryCode":"NL","name":"Assen","stationCode":"ASN","uicCode":"8400073"},{"coordinate":{"lat":53.1761093139648,"lng":6.61722230911255},"countryCode":"NL","name":"Haren","stationCode":"HRN","uicCode":"8400297"},{"coordinate":{"lat":53.20480027,"lng":6.5854178},"countryCode":"NL","name":"Groningen Europapark","stationCode":"GERP","uicCode":"8400238"},{"coordinate":{"lat":53.2105560302734,"lng":6.56472206115723},"countryCode":"NL","name":"Groningen","stationCode":"GN","uicCode":"8400263"}],"direction":"BOTH"},"consequence":{"section":{"stations":[{"coordinate":{"lat":53.20480027,"lng":6.5854178},"countryCode":"NL","name":"Groningen Europapark","stationCode":"GERP","uicCode":"8400238"},{"coordinate":{"lat":53.2105560302734,"lng":6.56472206115723},"countryCode":"NL","name":"Groningen","stationCode":"GN","uicCode":"8400263"}],"direction":"BOTH"},"description":"geen treinen","level":"LESS_TRAINS"},"sectionType":"NL"}],"timespans":[{"start":"2024-11-24T05:13:00+0100","end":"2024-11-28T15:00:00+0100","period":"Zondag 24 november 5:13 uur t/m donderdag 28 november 15:00 uur.","situation":{"label":"Door een defect spoor: tussen Groningen Europapark en Groningen rijden er geen treinen."},"cause":{"label":"defect spoor"},"alternativeTransport":{"label":"er rijden bussen","shortLabel":"er rijden bussen"},"advices":["Er rijden in de spits minder treinen Groningen Europapark-Assen. Plan uw reis één dag van tevoren."]}],"alternativeTransportTimespans":[{"start":"2024-11-24T05:13:00+0100","end":"2024-11-28T15:00:00+0100","alternativeTransport":{"location":[{"station":{"coordinate":{"lat":53.2105560302734,"lng":6.56472206115723},"countryCode":"NL","name":"Groningen","stationCode":"GN","uicCode":"8400263"},"description":"vanaf het busstation"},{"station":{"coordinate":{"lat":53.20480027,"lng":6.5854178},"countryCode":"NL","name":"Groningen Europapark","stationCode":"GERP","uicCode":"8400238"},"description":"vanaf de bushalte"}],"label":"Er rijden bussen tussen Groningen en Groningen Europapark.","shortLabel":"Er rijden bussen Groningen - Europapark."}}]},{"type":"DISRUPTION","id":"6051986","title":"Groningen - Veendam; Groningen - Leer.","isActive":true,"topic":"disruption_6051986_nl","local":false,"titleSections":[[{"type":"STATION","value":"Groningen"},{"type":"ICON","value":"DISRUPTION"},{"type":"STATION","value":"Europapark"},{"type":"STATION","value":"Leer (Ostfr.)"}],[{"type":"STATION","value":"Groningen"},{"type":"ICON","value":"DISRUPTION"},{"type":"STATION","value":"Europapark"},{"type":"STATION","value":"Veendam"}]],"registrationTime":"2024-11-25T17:37:39+0100","releaseTime":"2024-11-25T17:37:39+0100","start":"2024-11-24T05:13:00+0100","end":"2024-11-28T15:00:00+0100","phase":{"id":"3","label":"Vervangend vervoer"},"impact":{"value":3},"expectedDuration":{"description":"Dit duurt ten minste tot donderdag 28 november 15:00 uur.","endTime":"2024-11-28T15:00:00+0100"},"publicationSections":[{"section":{"stations":[{"coordinate":{"lat":53.2105560302734,"lng":6.56472206115723},"countryCode":"NL","name":"Groningen","stationCode":"GN","uicCode":"8400263"},{"coordinate":{"lat":53.20480027,"lng":6.5854178},"countryCode":"NL","name":"Groningen Europapark","stationCode":"GERP","uicCode":"8400238"},{"coordinate":{"lat":53.1617362,"lng":6.7220882},"countryCode":"NL","name":"Kropswolde","stationCode":"KW","uicCode":"8400369"},{"coordinate":{"lat":53.1607232,"lng":6.7402989},"countryCode":"NL","name":"Martenshoek","stationCode":"MTH","uicCode":"8400430"},{"coordinate":{"lat":53.1598181316756,"lng":6.77075386047363},"countryCode":"NL","name":"Hoogezand-Sappemeer","stationCode":"HGZ","uicCode":"8400331"},{"coordinate":{"lat":53.1596122800056,"lng":6.8679141998291},"countryCode":"NL","name":"Zuidbroek","stationCode":"ZB","uicCode":"8400742"},{"coordinate":{"lat":53.1655362,"lng":6.9777775},"countryCode":"NL","name":"Scheemda","stationCode":"SDA","uicCode":"8400551"},{"coordinate":{"lat":53.1392377,"lng":7.035101},"countryCode":"NL","name":"Winschoten","stationCode":"WS","uicCode":"8400696"},{"coordinate":{"lat":53.1844,"lng":7.19937},"countryCode":"NL","name":"Bad Nieuweschans","stationCode":"NSCH","uicCode":"8400457"},{"coordinate":{"lat":53.16311,"lng":7.3442},"countryCode":"D","name":"Weener","stationCode":"WR","uicCode":"8021239"},{"coordinate":{"lat":53.23165,"lng":7.465283},"countryCode":"D","name":"Leer (Ostfriesl)","stationCode":"LEER","uicCode":"8021091"}],"direction":"BOTH"},"consequence":{"section":{"stations":[{"coordinate":{"lat":53.2105560302734,"lng":6.56472206115723},"countryCode":"NL","name":"Groningen","stationCode":"GN","uicCode":"8400263"},{"coordinate":{"lat":53.20480027,"lng":6.5854178},"countryCode":"NL","name":"Groningen Europapark","stationCode":"GERP","uicCode":"8400238"}],"direction":"BOTH"},"description":"geen treinen","level":"LESS_TRAINS"},"sectionType":"NEIGHBORING_COUNTRY"},{"section":{"stations":[{"coordinate":{"lat":53.2105560302734,"lng":6.56472206115723},"countryCode":"NL","name":"Groningen","stationCode":"GN","uicCode":"8400263"},{"coordinate":{"lat":53.20480027,"lng":6.5854178},"countryCode":"NL","name":"Groningen Europapark","stationCode":"GERP","uicCode":"8400238"},{"coordinate":{"lat":53.1617362,"lng":6.7220882},"countryCode":"NL","name":"Kropswolde","stationCode":"KW","uicCode":"8400369"},{"coordinate":{"lat":53.1607232,"lng":6.7402989},"countryCode":"NL","name":"Martenshoek","stationCode":"MTH","uicCode":"8400430"},{"coordinate":{"lat":53.1598181316756,"lng":6.77075386047363},"countryCode":"NL","name":"Hoogezand-Sappemeer","stationCode":"HGZ","uicCode":"8400331"},{"coordinate":{"lat":53.1596122800056,"lng":6.8679141998291},"countryCode":"NL","name":"Zuidbroek","stationCode":"ZB","uicCode":"8400742"},{"coordinate":{"lat":53.10324,"lng":6.88475},"countryCode":"NL","name":"Veendam","stationCode":"VDM","uicCode":"8400636"}],"direction":"BOTH"},"consequence":{"section":{"stations":[{"coordinate":{"lat":53.2105560302734,"lng":6.56472206115723},"countryCode":"NL","name":"Groningen","stationCode":"GN","uicCode":"8400263"},{"coordinate":{"lat":53.20480027,"lng":6.5854178},"countryCode":"NL","name":"Groningen Europapark","stationCode":"GERP","uicCode":"8400238"}],"direction":"BOTH"},"description":"geen treinen","level":"LESS_TRAINS"},"sectionType":"NEIGHBORING_COUNTRY"}],"timespans":[{"start":"2024-11-24T05:13:00+0100","end":"2024-11-28T15:00:00+0100","period":"Zondag 24 november 5:13 uur t/m donderdag 28 november 15:00 uur.","situation":{"label":"Door een defect spoor: tussen Groningen en Groningen Europapark rijden er geen treinen."},"cause":{"label":"defect spoor"},"alternativeTransport":{"label":"er rijden bussen","shortLabel":"er rijden bussen"},"advices":[]}],"alternativeTransportTimespans":[{"start":"2024-11-24T05:13:00+0100","end":"2024-11-28T15:00:00+0100","alternativeTransport":{"location":[{"station":{"coordinate":{"lat":53.2105560302734,"lng":6.56472206115723},"countryCode":"NL","name":"Groningen","stationCode":"GN","uicCode":"8400263"},"description":"vanaf het busstation"},{"station":{"coordinate":{"lat":53.20480027,"lng":6.5854178},"countryCode":"NL","name":"Groningen Europapark","stationCode":"GERP","uicCode":"8400238"},"description":"vanaf de bushalte"}],"label":"Er rijden bussen tussen Groningen en Groningen Europapark.","shortLabel":"Er rijden bussen Groningen - Europapark."}}]},{"type":"DISRUPTION","id":"6052064","title":"Nijmegen - 's-Hertogenbosch.","isActive":true,"topic":"disruption_6052064_nl","local":false,"titleSections":[[{"type":"STATION","value":"Nijmegen"},{"type":"STATION","value":"Wijchen"},{"type":"ICON","value":"DISRUPTION"},{"type":"STATION","value":"Oss"},{"type":"STATION","value":"'s-Hertogenbosch"}]],"registrationTime":"2024-11-26T06:22:09+0100","releaseTime":"2024-11-26T06:22:09+0100","start":"2024-11-26T03:41:08+0100","end":"2024-11-26T11:15:00+0100","phase":{"id":"3","label":"Vervangend vervoer"},"impact":{"value":4},"expectedDuration":{"description":"Dit duurt tot ongeveer 11:15 uur.","endTime":"2024-11-26T11:15:00+0100"},"publicationSections":[{"section":{"stations":[{"coordinate":{"lat":51.8436126708984,"lng":5.85222244262695},"countryCode":"NL","name":"Nijmegen","stationCode":"NM","uicCode":"8400470"},{"coordinate":{"lat":51.8273,"lng":5.822722},"countryCode":"NL","name":"Nijmegen Goffert","stationCode":"NMGO","uicCode":"8400477"},{"coordinate":{"lat":51.8241653442383,"lng":5.79555559158325},"countryCode":"NL","name":"Nijmegen Dukenburg","stationCode":"NMD","uicCode":"8400475"},{"coordinate":{"lat":51.8116683959961,"lng":5.73083353042603},"countryCode":"NL","name":"Wijchen","stationCode":"WC","uicCode":"8400710"},{"coordinate":{"lat":51.7941665649414,"lng":5.63583326339722},"countryCode":"NL","name":"Ravenstein","stationCode":"RVS","uicCode":"8400515"},{"coordinate":{"lat":51.7655563354492,"lng":5.53222227096558},"countryCode":"NL","name":"Oss","stationCode":"O","uicCode":"8400495"},{"coordinate":{"lat":51.758056640625,"lng":5.50555562973022},"countryCode":"NL","name":"Oss West","stationCode":"OW","uicCode":"8400496"},{"coordinate":{"lat":51.7147216796875,"lng":5.36805534362793},"countryCode":"NL","name":"Rosmalen","stationCode":"RS","uicCode":"8400524"},{"coordinate":{"lat":51.700553894043,"lng":5.3183331489563},"countryCode":"NL","name":"'s-Hertogenbosch Oost","stationCode":"HTO","uicCode":"8400320"},{"coordinate":{"lat":51.69048,"lng":5.29362},"countryCode":"NL","name":"'s-Hertogenbosch","stationCode":"HT","uicCode":"8400319"}],"direction":"BOTH"},"consequence":{"section":{"stations":[{"coordinate":{"lat":51.8116683959961,"lng":5.73083353042603},"countryCode":"NL","name":"Wijchen","stationCode":"WC","uicCode":"8400710"},{"coordinate":{"lat":51.7941665649414,"lng":5.63583326339722},"countryCode":"NL","name":"Ravenstein","stationCode":"RVS","uicCode":"8400515"},{"coordinate":{"lat":51.7655563354492,"lng":5.53222227096558},"countryCode":"NL","name":"Oss","stationCode":"O","uicCode":"8400495"}],"direction":"BOTH"},"description":"geen treinen","level":"LESS_TRAINS"},"sectionType":"NL"}],"timespans":[{"start":"2024-11-26T03:41:08+0100","end":"2024-11-26T11:15:00+0100","period":"Dinsdag 26 november 3:41 uur t/m dinsdag 26 november 11:15 uur.","situation":{"label":"Door inzet van hulpdiensten: tussen Wijchen en Oss rijden er geen treinen."},"cause":{"label":"hulpdiensten"},"alternativeTransport":{"label":"er rijden stop- en snelbussen","shortLabel":"er rijden stop- en snelbussen"},"advices":[]}],"alternativeTransportTimespans":[{"start":"2024-11-26T03:41:08+0100","end":"2024-11-26T11:15:00+0100","alternativeTransport":{"location":[{"station":{"coordinate":{"lat":51.8116683959961,"lng":5.73083353042603},"countryCode":"NL","name":"Wijchen","stationCode":"WC","uicCode":"8400710"},"description":"vanaf de NS Bushalte"},{"station":{"coordinate":{"lat":51.7941665649414,"lng":5.63583326339722},"countryCode":"NL","name":"Ravenstein","stationCode":"RVS","uicCode":"8400515"},"description":"vanaf de voorzijde van het station"},{"station":{"coordinate":{"lat":51.7655563354492,"lng":5.53222227096558},"countryCode":"NL","name":"Oss","stationCode":"O","uicCode":"8400495"},"description":"vanaf de voorzijde van het station"}],"label":"Er rijden stopbussen tussen Wijchen, Ravenstein en Oss.","shortLabel":"Er rijden stopbussen Wijchen - Ravenstein - Oss."}},{"start":"2024-11-26T03:41:08+0100","end":"2024-11-26T11:15:00+0100","alternativeTransport":{"location":[{"station":{"coordinate":{"lat":51.8436126708984,"lng":5.85222244262695},"countryCode":"NL","name":"Nijmegen","stationCode":"NM","uicCode":"8400470"},"description":"vanaf het busstation"},{"station":{"coordinate":{"lat":51.7655563354492,"lng":5.53222227096558},"countryCode":"NL","name":"Oss","stationCode":"O","uicCode":"8400495"},"description":"vanaf de voorzijde van het station"}],"label":"Er rijden zeer beperkt bussen tussen Nijmegen en Oss.","shortLabel":"Er rijden zeer beperkt bussen Nijmegen - Oss."}}]},{"type":"DISRUPTION","id":"6052066","title":"Amsterdam - Schiphol - Rotterdam.","isActive":true,"topic":"disruption_6052066_nl","local":false,"titleSections":[[{"type":"STATION","value":"Amsterdam C."},{"type":"ICON","value":"DISRUPTION"},{"type":"STATION","value":"Rotterdam C."}]],"registrationTime":"2024-11-26T07:03:44+0100","releaseTime":"2024-11-26T07:03:44+0100","start":"2024-11-26T06:39:06+0100","end":"2024-11-26T08:00:00+0100","phase":{"id":"1b","label":"Gevolgen bekend"},"impact":{"value":3},"expectedDuration":{"description":"Dit duurt tot ongeveer 8:00 uur.","endTime":"2024-11-26T08:00:00+0100"},"publicationSections":[{"section":{"stations":[{"coordinate":{"lat":52.3788871765137,"lng":4.90027761459351},"countryCode":"NL","name":"Amsterdam Centraal","stationCode":"ASD","uicCode":"8400058"},{"coordinate":{"lat":52.3888893127441,"lng":4.83777761459351},"countryCode":"NL","name":"Amsterdam Sloterdijk","stationCode":"ASS","uicCode":"8400059"},{"coordinate":{"lat":52.3577766418457,"lng":4.83388900756836},"countryCode":"NL","name":"Amsterdam Lelylaan","stationCode":"ASDL","uicCode":"8400079"},{"coordinate":{"lat":52.3094444274902,"lng":4.76194429397583},"countryCode":"NL","name":"Schiphol Airport","stationCode":"SHL","uicCode":"8400561"},{"coordinate":{"lat":52.2933349609375,"lng":4.70055532455444},"countryCode":"NL","name":"Hoofddorp","stationCode":"HFD","uicCode":"8400332"},{"coordinate":{"lat":51.9249992370605,"lng":4.46888875961304},"countryCode":"NL","name":"Rotterdam Centraal","stationCode":"RTD","uicCode":"8400530"}],"direction":"BOTH"},"consequence":{"section":{"stations":[{"coordinate":{"lat":52.3788871765137,"lng":4.90027761459351},"countryCode":"NL","name":"Amsterdam Centraal","stationCode":"ASD","uicCode":"8400058"},{"coordinate":{"lat":52.3888893127441,"lng":4.83777761459351},"countryCode":"NL","name":"Amsterdam Sloterdijk","stationCode":"ASS","uicCode":"8400059"},{"coordinate":{"lat":52.3577766418457,"lng":4.83388900756836},"countryCode":"NL","name":"Amsterdam Lelylaan","stationCode":"ASDL","uicCode":"8400079"},{"coordinate":{"lat":52.3094444274902,"lng":4.76194429397583},"countryCode":"NL","name":"Schiphol Airport","stationCode":"SHL","uicCode":"8400561"},{"coordinate":{"lat":52.2933349609375,"lng":4.70055532455444},"countryCode":"NL","name":"Hoofddorp","stationCode":"HFD","uicCode":"8400332"},{"coordinate":{"lat":51.9249992370605,"lng":4.46888875961304},"countryCode":"NL","name":"Rotterdam Centraal","stationCode":"RTD","uicCode":"8400530"}],"direction":"BOTH"},"description":"geen treinen op de HSL","level":"LESS_TRAINS"},"sectionType":"HSL"}],"timespans":[{"start":"2024-11-26T06:39:06+0100","end":"2024-11-26T08:00:00+0100","period":"Dinsdag 26 november 6:39 uur t/m dinsdag 26 november 8:00 uur.","situation":{"label":"Door een gestrande trein: tussen Amsterdam Centraal en Rotterdam Centraal rijden er op de hogesnelheidslijn geen treinen."},"cause":{"label":"gestrande trein"},"advices":[]}],"alternativeTransportTimespans":[]},{"type":"MAINTENANCE","id":"7004492","title":"Groningen - Leer.","isActive":true,"local":false,"titleSections":[[{"type":"STATION","value":"Groningen"},{"type":"STATION","value":"Bad Nieuweschans"},{"type":"ICON","value":"MAINTENANCE"},{"type":"STATION","value":"Weener"},{"type":"STATION","value":"Leer (Ostfr.)"}]],"registrationTime":"2024-10-15T09:08:18+0200","start":"2024-02-01T04:00:00+0100","releaseTime":"2024-10-15T09:08:18+0200","end":"2025-08-24T23:59:00+0200","period":"Donderdag 1 februari 4:00 uur t/m zondag 24 augustus 23:59 uur.","impact":{"value":3},"publicationSections":[{"section":{"stations":[{"coordinate":{"lat":53.2105560302734,"lng":6.56472206115723},"countryCode":"NL","name":"Groningen","stationCode":"GN","uicCode":"8400263"},{"coordinate":{"lat":53.20480027,"lng":6.5854178},"countryCode":"NL","name":"Groningen Europapark","stationCode":"GERP","uicCode":"8400238"},{"coordinate":{"lat":53.1617362,"lng":6.7220882},"countryCode":"NL","name":"Kropswolde","stationCode":"KW","uicCode":"8400369"},{"coordinate":{"lat":53.1607232,"lng":6.7402989},"countryCode":"NL","name":"Martenshoek","stationCode":"MTH","uicCode":"8400430"},{"coordinate":{"lat":53.1598181316756,"lng":6.77075386047363},"countryCode":"NL","name":"Hoogezand-Sappemeer","stationCode":"HGZ","uicCode":"8400331"},{"coordinate":{"lat":53.1596122800056,"lng":6.8679141998291},"countryCode":"NL","name":"Zuidbroek","stationCode":"ZB","uicCode":"8400742"},{"coordinate":{"lat":53.1655362,"lng":6.9777775},"countryCode":"NL","name":"Scheemda","stationCode":"SDA","uicCode":"8400551"},{"coordinate":{"lat":53.1392377,"lng":7.035101},"countryCode":"NL","name":"Winschoten","stationCode":"WS","uicCode":"8400696"},{"coordinate":{"lat":53.1844,"lng":7.19937},"countryCode":"NL","name":"Bad Nieuweschans","stationCode":"NSCH","uicCode":"8400457"},{"coordinate":{"lat":53.16311,"lng":7.3442},"countryCode":"D","name":"Weener","stationCode":"WR","uicCode":"8021239"},{"coordinate":{"lat":53.23165,"lng":7.465283},"countryCode":"D","name":"Leer (Ostfriesl)","stationCode":"LEER","uicCode":"8021091"}],"direction":"BOTH"},"consequence":{"section":{"stations":[{"coordinate":{"lat":53.1844,"lng":7.19937},"countryCode":"NL","name":"Bad Nieuweschans","stationCode":"NSCH","uicCode":"8400457"},{"coordinate":{"lat":53.16311,"lng":7.3442},"countryCode":"D","name":"Weener","stationCode":"WR","uicCode":"8021239"}],"direction":"BOTH"},"description":"rijden bussen","level":"LESS_TRAINS"},"sectionType":"NEIGHBORING_COUNTRY"}],"summaryAdditionalTravelTime":{"label":"De extra reistijd kan oplopen tot 30 minuten.","shortLabel":"Extra reistijd tot 30 min.","maximumDurationInMinutes":30},"timespans":[{"start":"2024-02-01T04:00:00+0100","end":"2025-08-24T23:59:00+0200","period":"Donderdag 1 februari 4:00 uur t/m zondag 24 augustus 23:59 uur.","situation":{"label":"Door een aangepaste dienstregeling: tussen Bad Nieuweschans en Weener rijden er bussen."},"cause":{"label":"aangepaste dienstregeling"},"additionalTravelTime":{"label":"De extra reistijd kan oplopen tot 30 minuten.","shortLabel":"Extra reistijd tot 30 min.","maximumDurationInMinutes":30},"alternativeTransport":{"label":"er rijden stopbussen","shortLabel":"er rijden stopbussen"},"advices":["Op dit moment is er nog geen exacte einddatum bekend."]}],"alternativeTransportTimespans":[{"start":"2024-02-01T04:00:00+0100","end":"2025-08-24T23:59:00+0200","alternativeTransport":{"location":[{"station":{"coordinate":{"lat":53.1844,"lng":7.19937},"countryCode":"NL","name":"Bad Nieuweschans","stationCode":"NSCH","uicCode":"8400457"},"description":"vanaf de voorzijde van het station"},{"station":{"coordinate":{"lat":53.16311,"lng":7.3442},"countryCode":"D","name":"Weener","stationCode":"WR","uicCode":"8021239"},"description":"vanaf de voorzijde van het station"},{"station":{"coordinate":{"lat":53.23165,"lng":7.465283},"countryCode":"D","name":"Leer (Ostfriesl)","stationCode":"LEER","uicCode":"8021091"},"description":"vanaf het busstation"}],"label":"Er rijden stopbussen tussen Bad Nieuweschans, Weener en Leer (Ostfriesl).","shortLabel":"Er rijden stopbussen Bad Nieuweschans - Weener - Leer (Ostfr.)."}}]},{"type":"MAINTENANCE","id":"7005584","title":"Heerlen - Maastricht.","isActive":true,"local":false,"titleSections":[[{"type":"STATION","value":"Heerlen"},{"type":"ICON","value":"MAINTENANCE"},{"type":"STATION","value":"Maastricht"}]],"registrationTime":"2024-11-05T15:51:21+0100","start":"2024-11-04T14:15:00+0100","releaseTime":"2024-11-05T15:51:21+0100","end":"2024-11-30T19:30:00+0100","period":"Maandag 4 november 14:15 uur t/m zaterdag 30 november 19:30 uur.","impact":{"value":2},"publicationSections":[{"section":{"stations":[{"coordinate":{"lat":50.8908348083496,"lng":5.97499990463257},"countryCode":"NL","name":"Heerlen","stationCode":"HRL","uicCode":"8400307"},{"coordinate":{"lat":50.896667,"lng":5.952222},"countryCode":"NL","name":"Heerlen Woonboulevard","stationCode":"HRLW","uicCode":"8400404"},{"coordinate":{"lat":50.8872222900391,"lng":5.93027782440186},"countryCode":"NL","name":"Voerendaal","stationCode":"VDL","uicCode":"8400656"},{"coordinate":{"lat":50.8663902282715,"lng":5.8905553817749},"countryCode":"NL","name":"Klimmen-Ransdaal","stationCode":"KMR","uicCode":"8400362"},{"coordinate":{"lat":50.856388092041,"lng":5.87222242355347},"countryCode":"NL","name":"Schin op Geul","stationCode":"SOG","uicCode":"8400555"},{"coordinate":{"lat":50.8697204589844,"lng":5.83222198486328},"countryCode":"NL","name":"Valkenburg","stationCode":"VK","uicCode":"8400632"},{"coordinate":{"lat":50.8733329772949,"lng":5.79722213745117},"countryCode":"NL","name":"Houthem-St. Gerlach","stationCode":"SGL","uicCode":"8400341"},{"coordinate":{"lat":50.882879392551,"lng":5.75099945068359},"countryCode":"NL","name":"Meerssen","stationCode":"MES","uicCode":"8400434"},{"coordinate":{"lat":50.87087,"lng":5.71774},"countryCode":"NL","name":"Maastricht Noord","stationCode":"MTN","uicCode":"8400449"},{"coordinate":{"lat":50.8502769470215,"lng":5.70555543899536},"countryCode":"NL","name":"Maastricht","stationCode":"MT","uicCode":"8400424"}],"direction":"BOTH"},"consequence":{"section":{"stations":[{"coordinate":{"lat":50.8908348083496,"lng":5.97499990463257},"countryCode":"NL","name":"Heerlen","stationCode":"HRL","uicCode":"8400307"},{"coordinate":{"lat":50.896667,"lng":5.952222},"countryCode":"NL","name":"Heerlen Woonboulevard","stationCode":"HRLW","uicCode":"8400404"},{"coordinate":{"lat":50.8872222900391,"lng":5.93027782440186},"countryCode":"NL","name":"Voerendaal","stationCode":"VDL","uicCode":"8400656"},{"coordinate":{"lat":50.8663902282715,"lng":5.8905553817749},"countryCode":"NL","name":"Klimmen-Ransdaal","stationCode":"KMR","uicCode":"8400362"},{"coordinate":{"lat":50.856388092041,"lng":5.87222242355347},"countryCode":"NL","name":"Schin op Geul","stationCode":"SOG","uicCode":"8400555"},{"coordinate":{"lat":50.8697204589844,"lng":5.83222198486328},"countryCode":"NL","name":"Valkenburg","stationCode":"VK","uicCode":"8400632"},{"coordinate":{"lat":50.8733329772949,"lng":5.79722213745117},"countryCode":"NL","name":"Houthem-St. Gerlach","stationCode":"SGL","uicCode":"8400341"},{"coordinate":{"lat":50.882879392551,"lng":5.75099945068359},"countryCode":"NL","name":"Meerssen","stationCode":"MES","uicCode":"8400434"},{"coordinate":{"lat":50.87087,"lng":5.71774},"countryCode":"NL","name":"Maastricht Noord","stationCode":"MTN","uicCode":"8400449"},{"coordinate":{"lat":50.8502769470215,"lng":5.70555543899536},"countryCode":"NL","name":"Maastricht","stationCode":"MT","uicCode":"8400424"}],"direction":"BOTH"},"description":"minder treinen","level":"LESS_TRAINS"},"sectionType":"NL"}],"summaryAdditionalTravelTime":{"label":"De extra reistijd is ongeveer 15 minuten.","shortLabel":"Extra reistijd 15 min.","minimumDurationInMinutes":15,"maximumDurationInMinutes":15},"timespans":[{"start":"2024-11-04T14:15:00+0100","end":"2024-11-30T19:30:00+0100","period":"Maandag 4 november 14:15 uur t/m zaterdag 30 november 19:30 uur.","situation":{"label":"Door een tekort aan personeel: tussen Heerlen en Maastricht rijden er minder treinen."},"cause":{"label":"tekort personeel"},"additionalTravelTime":{"label":"De extra reistijd is ongeveer 15 minuten.","shortLabel":"Extra reistijd 15 min.","minimumDurationInMinutes":15,"maximumDurationInMinutes":15},"alternativeTransport":{"label":"er rijden snelbussen","shortLabel":"er rijden snelbussen"},"advices":["Sneltreinen zijn (ma t/m za: 07.00-19.30u) en (zo: 13.00-19.30u) deels vervangen door Snelbussen. U kunt ook met een stoptrein eerder of later reizen."]}],"alternativeTransportTimespans":[{"start":"2024-11-04T14:15:00+0100","end":"2024-11-30T19:30:00+0100","alternativeTransport":{"location":[{"station":{"coordinate":{"lat":50.8908348083496,"lng":5.97499990463257},"countryCode":"NL","name":"Heerlen","stationCode":"HRL","uicCode":"8400307"},"description":"vanaf het busstation Perron A"},{"station":{"coordinate":{"lat":50.8502769470215,"lng":5.70555543899536},"countryCode":"NL","name":"Maastricht","stationCode":"MT","uicCode":"8400424"},"description":"vanaf de taxi-standplaats, centrumzijde"}],"label":"Er rijden snelbussen tussen Heerlen en Maastricht.","shortLabel":"Er rijden snelbussen Heerlen - Maastricht."}}]},{"type":"MAINTENANCE","id":"7005583","title":"Arnhem - Tiel.","isActive":true,"local":false,"titleSections":[[{"type":"STATION","value":"Arnhem C."},{"type":"STATION","value":"Elst"},{"type":"ICON","value":"MAINTENANCE"},{"type":"STATION","value":"Tiel"}]],"registrationTime":"2024-11-22T11:20:02+0100","start":"2024-11-16T04:00:00+0100","releaseTime":"2024-11-22T11:20:02+0100","end":"2024-12-02T02:00:00+0100","period":"Zaterdag 16 november 4:00 uur t/m maandag 2 december 2:00 uur.","impact":{"value":5},"publicationSections":[{"section":{"stations":[{"coordinate":{"lat":51.9850006103516,"lng":5.89916658401489},"countryCode":"NL","name":"Arnhem Centraal","stationCode":"AH","uicCode":"8400071"},{"coordinate":{"lat":51.9550018310547,"lng":5.85194444656372},"countryCode":"NL","name":"Arnhem Zuid","stationCode":"AHZ","uicCode":"8400227"},{"coordinate":{"lat":51.9169425964355,"lng":5.85500001907349},"countryCode":"NL","name":"Elst","stationCode":"EST","uicCode":"8400207"},{"coordinate":{"lat":51.920056,"lng":5.7228408},"countryCode":"NL","name":"Zetten-Andelst","stationCode":"ZA","uicCode":"8400734"},{"coordinate":{"lat":51.9222129,"lng":5.6737254},"countryCode":"NL","name":"Hemmen-Dodewaard","stationCode":"HMN","uicCode":"8400315"},{"coordinate":{"lat":51.9261615,"lng":5.6371145},"countryCode":"NL","name":"Opheusden","stationCode":"OP","uicCode":"8400494"},{"coordinate":{"lat":51.9313869,"lng":5.5833465},"countryCode":"NL","name":"Kesteren","stationCode":"KTR","uicCode":"8400359"},{"coordinate":{"lat":51.8894462585449,"lng":5.42222213745117},"countryCode":"NL","name":"Tiel","stationCode":"TL","uicCode":"8400596"}],"direction":"BOTH"},"consequence":{"section":{"stations":[{"coordinate":{"lat":51.9169425964355,"lng":5.85500001907349},"countryCode":"NL","name":"Elst","stationCode":"EST","uicCode":"8400207"},{"coordinate":{"lat":51.920056,"lng":5.7228408},"countryCode":"NL","name":"Zetten-Andelst","stationCode":"ZA","uicCode":"8400734"},{"coordinate":{"lat":51.9222129,"lng":5.6737254},"countryCode":"NL","name":"Hemmen-Dodewaard","stationCode":"HMN","uicCode":"8400315"},{"coordinate":{"lat":51.9261615,"lng":5.6371145},"countryCode":"NL","name":"Opheusden","stationCode":"OP","uicCode":"8400494"},{"coordinate":{"lat":51.9313869,"lng":5.5833465},"countryCode":"NL","name":"Kesteren","stationCode":"KTR","uicCode":"8400359"},{"coordinate":{"lat":51.8894462585449,"lng":5.42222213745117},"countryCode":"NL","name":"Tiel","stationCode":"TL","uicCode":"8400596"}],"direction":"BOTH"},"description":"er rijden bussen","level":"LESS_TRAINS"},"sectionType":"NL"}],"summaryAdditionalTravelTime":{"label":"De extra reistijd kan oplopen tot 30 minuten.","shortLabel":"Extra reistijd tot 30 min.","maximumDurationInMinutes":30},"timespans":[{"start":"2024-11-16T04:00:00+0100","end":"2024-12-02T02:00:00+0100","period":"Zaterdag 16 november 4:00 uur t/m maandag 2 december 2:00 uur.","situation":{"label":"Door werkzaamheden: tussen Elst en Tiel rijden er bussen."},"cause":{"label":"werkzaamheden"},"additionalTravelTime":{"label":"De extra reistijd kan oplopen tot 30 minuten.","shortLabel":"Extra reistijd tot 30 min.","maximumDurationInMinutes":30},"alternativeTransport":{"label":"er rijden stopbussen","shortLabel":"er rijden stopbussen"},"advices":["Reis tussen Arnhem Centraal en Elst met NS-treinen en stap in Elst over op de Arriva-bus naar Tiel."]}],"alternativeTransportTimespans":[{"start":"2024-11-16T04:00:00+0100","end":"2024-12-02T02:00:00+0100","alternativeTransport":{"location":[{"station":{"coordinate":{"lat":51.9169425964355,"lng":5.85500001907349},"countryCode":"NL","name":"Elst","stationCode":"EST","uicCode":"8400207"},"description":"vanaf de bushalte"},{"station":{"coordinate":{"lat":51.920056,"lng":5.7228408},"countryCode":"NL","name":"Zetten-Andelst","stationCode":"ZA","uicCode":"8400734"},"description":"vanaf de bushalte"},{"station":{"coordinate":{"lat":51.9222129,"lng":5.6737254},"countryCode":"NL","name":"Hemmen-Dodewaard","stationCode":"HMN","uicCode":"8400315"},"description":"vanaf de doorgaande weg"},{"station":{"coordinate":{"lat":51.9261615,"lng":5.6371145},"countryCode":"NL","name":"Opheusden","stationCode":"OP","uicCode":"8400494"},"description":"vanaf de bushalte"},{"station":{"coordinate":{"lat":51.9313869,"lng":5.5833465},"countryCode":"NL","name":"Kesteren","stationCode":"KTR","uicCode":"8400359"},"description":"vanaf de voorzijde van het station"},{"station":{"coordinate":{"lat":51.8894462585449,"lng":5.42222213745117},"countryCode":"NL","name":"Tiel","stationCode":"TL","uicCode":"8400596"},"description":"vanaf het busstation, aan de treinvervangend vervoer halte"}],"label":"Er rijden stopbussen tussen Elst, Zetten-Andelst, Hemmen-Dodewaard, Opheusden, Kesteren en Tiel.","shortLabel":"Er rijden stopbussen Elst - Zetten-Andelst - Hemmen-Dodew. - Opheusden - Kesteren - Tiel."}}]},{"type":"MAINTENANCE","id":"7005512","title":"Schiphol Airport.","isActive":true,"local":false,"titleSections":[[{"type":"STATION","value":"Schiphol Airport"}],[{"type":"STATION","value":"Schiphol Airport"},{"type":"ICON","value":"MAINTENANCE"},{"type":"STATION","value":"Amsterdam Zuid"},{"type":"STATION","value":"Amersfoort C."}],[{"type":"STATION","value":"Schiphol Airport"},{"type":"ICON","value":"MAINTENANCE"},{"type":"STATION","value":"Amsterdam Zuid"},{"type":"STATION","value":"Lelystad C."}],[{"type":"STATION","value":"Schiphol Airport"},{"type":"ICON","value":"MAINTENANCE"},{"type":"STATION","value":"Amsterdam Zuid"},{"type":"STATION","value":"Utrecht C."}]],"registrationTime":"2024-11-21T18:35:44+0100","start":"2024-11-16T04:00:00+0100","releaseTime":"2024-11-21T18:35:44+0100","end":"2024-12-04T02:00:00+0100","period":"Zaterdag 16 november 4:00 uur t/m woensdag 4 december 2:00 uur.","impact":{"value":5},"publicationSections":[{"section":{"stations":[{"coordinate":{"lat":52.3788871765137,"lng":4.90027761459351},"countryCode":"NL","name":"Amsterdam Centraal","stationCode":"ASD","uicCode":"8400058"},{"coordinate":{"lat":52.3888893127441,"lng":4.83777761459351},"countryCode":"NL","name":"Amsterdam Sloterdijk","stationCode":"ASS","uicCode":"8400059"},{"coordinate":{"lat":52.3577766418457,"lng":4.83388900756836},"countryCode":"NL","name":"Amsterdam Lelylaan","stationCode":"ASDL","uicCode":"8400079"},{"coordinate":{"lat":52.3094444274902,"lng":4.76194429397583},"countryCode":"NL","name":"Schiphol Airport","stationCode":"SHL","uicCode":"8400561"},{"coordinate":{"lat":52.2933349609375,"lng":4.70055532455444},"countryCode":"NL","name":"Hoofddorp","stationCode":"HFD","uicCode":"8400332"},{"coordinate":{"lat":52.2588882446289,"lng":4.64555549621582},"countryCode":"NL","name":"Nieuw Vennep","stationCode":"NVP","uicCode":"8400460"},{"coordinate":{"lat":52.215278,"lng":4.517222},"countryCode":"NL","name":"Sassenheim","stationCode":"SSH","uicCode":"8400603"},{"coordinate":{"lat":52.1661109924316,"lng":4.48166656494141},"countryCode":"NL","name":"Leiden Centraal","stationCode":"LEDN","uicCode":"8400390"}],"direction":"BOTH"},"consequence":{"section":{"stations":[{"coordinate":{"lat":52.3094444274902,"lng":4.76194429397583},"countryCode":"NL","name":"Schiphol Airport","stationCode":"SHL","uicCode":"8400561"}],"direction":"BOTH"},"description":"veel minder treinen","level":"LESS_TRAINS"},"sectionType":"NL"},{"section":{"stations":[{"coordinate":{"lat":52.3094444274902,"lng":4.76194429397583},"countryCode":"NL","name":"Schiphol Airport","stationCode":"SHL","uicCode":"8400561"},{"coordinate":{"lat":52.338889,"lng":4.872356},"countryCode":"NL","name":"Amsterdam Zuid","stationCode":"ASDZ","uicCode":"8400061"},{"coordinate":{"lat":52.3372230529785,"lng":4.89027786254883},"countryCode":"NL","name":"Amsterdam RAI","stationCode":"RAI","uicCode":"8400056"},{"coordinate":{"lat":52.3122215270996,"lng":4.94694423675537},"countryCode":"NL","name":"Amsterdam Bijlmer ArenA","stationCode":"ASB","uicCode":"8400074"},{"coordinate":{"lat":52.29844,"lng":4.95972},"countryCode":"NL","name":"Amsterdam Holendrecht","stationCode":"ASHD","uicCode":"8400231"},{"coordinate":{"lat":52.2785,"lng":4.977},"countryCode":"NL","name":"Abcoude","stationCode":"AC","uicCode":"8400047"},{"coordinate":{"lat":52.17149,"lng":4.9906},"countryCode":"NL","name":"Breukelen","stationCode":"BKL","uicCode":"8400133"},{"coordinate":{"lat":52.1352767944336,"lng":5.03361129760742},"countryCode":"NL","name":"Maarssen","stationCode":"MAS","uicCode":"8400419"},{"coordinate":{"lat":52.103055,"lng":5.09},"countryCode":"NL","name":"Utrecht Zuilen","stationCode":"UTZL","uicCode":"8400613"},{"coordinate":{"lat":52.0888900756836,"lng":5.11027765274048},"countryCode":"NL","name":"Utrecht Centraal","stationCode":"UT","uicCode":"8400621"}],"direction":"BOTH"},"consequence":{"section":{"stations":[{"coordinate":{"lat":52.3094444274902,"lng":4.76194429397583},"countryCode":"NL","name":"Schiphol Airport","stationCode":"SHL","uicCode":"8400561"}],"direction":"BOTH"},"description":"veel minder treinen","level":"LESS_TRAINS"},"sectionType":"NL"},{"section":{"stations":[{"coordinate":{"lat":52.2933349609375,"lng":4.70055532455444},"countryCode":"NL","name":"Hoofddorp","stationCode":"HFD","uicCode":"8400332"},{"coordinate":{"lat":52.3094444274902,"lng":4.76194429397583},"countryCode":"NL","name":"Schiphol Airport","stationCode":"SHL","uicCode":"8400561"},{"coordinate":{"lat":52.338889,"lng":4.872356},"countryCode":"NL","name":"Amsterdam Zuid","stationCode":"ASDZ","uicCode":"8400061"},{"coordinate":{"lat":52.3372230529785,"lng":4.89027786254883},"countryCode":"NL","name":"Amsterdam RAI","stationCode":"RAI","uicCode":"8400056"},{"coordinate":{"lat":52.3233337402344,"lng":4.93638896942139},"countryCode":"NL","name":"Duivendrecht","stationCode":"DVD","uicCode":"8400194"},{"coordinate":{"lat":52.3302764892578,"lng":4.95583343505859},"countryCode":"NL","name":"Diemen Zuid","stationCode":"DMNZ","uicCode":"8400163"},{"coordinate":{"lat":52.3127784729004,"lng":5.04305553436279},"countryCode":"NL","name":"Weesp","stationCode":"WP","uicCode":"8400685"},{"coordinate":{"lat":52.342778,"lng":5.151944},"countryCode":"NL","name":"Almere Poort","stationCode":"AMPO","uicCode":"8400450"},{"coordinate":{"lat":52.3675003051758,"lng":5.19027757644653},"countryCode":"NL","name":"Almere Muziekwijk","stationCode":"ALMM","uicCode":"8400082"},{"coordinate":{"lat":52.37503,"lng":5.21764},"countryCode":"NL","name":"Almere Centrum","stationCode":"ALM","uicCode":"8400080"},{"coordinate":{"lat":52.3766670227051,"lng":5.24472236633301},"countryCode":"NL","name":"Almere Parkwijk","stationCode":"ALMP","uicCode":"8400104"},{"coordinate":{"lat":52.3941650390625,"lng":5.2780556678772},"countryCode":"NL","name":"Almere Buiten","stationCode":"ALMB","uicCode":"8400081"},{"coordinate":{"lat":52.4033317565918,"lng":5.30055570602417},"countryCode":"NL","name":"Almere Oostvaarders","stationCode":"ALMO","uicCode":"8400226"}],"direction":"BOTH"},"consequence":{"section":{"stations":[{"coordinate":{"lat":52.3094444274902,"lng":4.76194429397583},"countryCode":"NL","name":"Schiphol Airport","stationCode":"SHL","uicCode":"8400561"}],"direction":"BOTH"},"description":"veel minder treinen","level":"LESS_TRAINS"},"sectionType":"NL"},{"section":{"stations":[{"coordinate":{"lat":52.3094444274902,"lng":4.76194429397583},"countryCode":"NL","name":"Schiphol Airport","stationCode":"SHL","uicCode":"8400561"},{"coordinate":{"lat":52.338889,"lng":4.872356},"countryCode":"NL","name":"Amsterdam Zuid","stationCode":"ASDZ","uicCode":"8400061"},{"coordinate":{"lat":52.3372230529785,"lng":4.89027786254883},"countryCode":"NL","name":"Amsterdam RAI","stationCode":"RAI","uicCode":"8400056"},{"coordinate":{"lat":52.3233337402344,"lng":4.93638896942139},"countryCode":"NL","name":"Duivendrecht","stationCode":"DVD","uicCode":"8400194"},{"coordinate":{"lat":52.3302764892578,"lng":4.95583343505859},"countryCode":"NL","name":"Diemen Zuid","stationCode":"DMNZ","uicCode":"8400163"},{"coordinate":{"lat":52.3127784729004,"lng":5.04305553436279},"countryCode":"NL","name":"Weesp","stationCode":"WP","uicCode":"8400685"},{"coordinate":{"lat":52.2802772521973,"lng":5.15694427490234},"countryCode":"NL","name":"Naarden-Bussum","stationCode":"NDB","uicCode":"8400452"},{"coordinate":{"lat":52.2658348083496,"lng":5.16305541992188},"countryCode":"NL","name":"Bussum Zuid","stationCode":"BSMZ","uicCode":"8400145"},{"coordinate":{"lat":52.2380561828613,"lng":5.17388868331909},"countryCode":"NL","name":"Hilversum Media Park","stationCode":"HVSM","uicCode":"8400324"},{"coordinate":{"lat":52.2258338928223,"lng":5.18194437026978},"countryCode":"NL","name":"Hilversum","stationCode":"HVS","uicCode":"8400322"},{"coordinate":{"lat":52.2083320617676,"lng":5.28083324432373},"countryCode":"NL","name":"Baarn","stationCode":"BRN","uicCode":"8400086"},{"coordinate":{"lat":52.1538887023926,"lng":5.37055540084839},"countryCode":"NL","name":"Amersfoort Centraal","stationCode":"AMF","uicCode":"8400055"}],"direction":"BOTH"},"consequence":{"section":{"stations":[{"coordinate":{"lat":52.3094444274902,"lng":4.76194429397583},"countryCode":"NL","name":"Schiphol Airport","stationCode":"SHL","uicCode":"8400561"},{"coordinate":{"lat":52.338889,"lng":4.872356},"countryCode":"NL","name":"Amsterdam Zuid","stationCode":"ASDZ","uicCode":"8400061"}],"direction":"BOTH"},"description":"geen treinen","level":"LESS_TRAINS"},"sectionType":"NL"},{"section":{"stations":[{"coordinate":{"lat":52.3094444274902,"lng":4.76194429397583},"countryCode":"NL","name":"Schiphol Airport","stationCode":"SHL","uicCode":"8400561"},{"coordinate":{"lat":52.338889,"lng":4.872356},"countryCode":"NL","name":"Amsterdam Zuid","stationCode":"ASDZ","uicCode":"8400061"},{"coordinate":{"lat":52.3372230529785,"lng":4.89027786254883},"countryCode":"NL","name":"Amsterdam RAI","stationCode":"RAI","uicCode":"8400056"},{"coordinate":{"lat":52.3233337402344,"lng":4.93638896942139},"countryCode":"NL","name":"Duivendrecht","stationCode":"DVD","uicCode":"8400194"},{"coordinate":{"lat":52.3302764892578,"lng":4.95583343505859},"countryCode":"NL","name":"Diemen Zuid","stationCode":"DMNZ","uicCode":"8400163"},{"coordinate":{"lat":52.3127784729004,"lng":5.04305553436279},"countryCode":"NL","name":"Weesp","stationCode":"WP","uicCode":"8400685"},{"coordinate":{"lat":52.342778,"lng":5.151944},"countryCode":"NL","name":"Almere Poort","stationCode":"AMPO","uicCode":"8400450"},{"coordinate":{"lat":52.3675003051758,"lng":5.19027757644653},"countryCode":"NL","name":"Almere Muziekwijk","stationCode":"ALMM","uicCode":"8400082"},{"coordinate":{"lat":52.37503,"lng":5.21764},"countryCode":"NL","name":"Almere Centrum","stationCode":"ALM","uicCode":"8400080"},{"coordinate":{"lat":52.3766670227051,"lng":5.24472236633301},"countryCode":"NL","name":"Almere Parkwijk","stationCode":"ALMP","uicCode":"8400104"},{"coordinate":{"lat":52.3941650390625,"lng":5.2780556678772},"countryCode":"NL","name":"Almere Buiten","stationCode":"ALMB","uicCode":"8400081"},{"coordinate":{"lat":52.4033317565918,"lng":5.30055570602417},"countryCode":"NL","name":"Almere Oostvaarders","stationCode":"ALMO","uicCode":"8400226"},{"coordinate":{"lat":52.5077781677246,"lng":5.47277784347534},"countryCode":"NL","name":"Lelystad Centrum","stationCode":"LLS","uicCode":"8400394"}],"direction":"BOTH"},"consequence":{"section":{"stations":[{"coordinate":{"lat":52.3094444274902,"lng":4.76194429397583},"countryCode":"NL","name":"Schiphol Airport","stationCode":"SHL","uicCode":"8400561"},{"coordinate":{"lat":52.338889,"lng":4.872356},"countryCode":"NL","name":"Amsterdam Zuid","stationCode":"ASDZ","uicCode":"8400061"}],"direction":"BOTH"},"description":"geen treinen","level":"LESS_TRAINS"},"sectionType":"NL"},{"section":{"stations":[{"coordinate":{"lat":52.3094444274902,"lng":4.76194429397583},"countryCode":"NL","name":"Schiphol Airport","stationCode":"SHL","uicCode":"8400561"},{"coordinate":{"lat":52.338889,"lng":4.872356},"countryCode":"NL","name":"Amsterdam Zuid","stationCode":"ASDZ","uicCode":"8400061"},{"coordinate":{"lat":52.3372230529785,"lng":4.89027786254883},"countryCode":"NL","name":"Amsterdam RAI","stationCode":"RAI","uicCode":"8400056"},{"coordinate":{"lat":52.3122215270996,"lng":4.94694423675537},"countryCode":"NL","name":"Amsterdam Bijlmer ArenA","stationCode":"ASB","uicCode":"8400074"},{"coordinate":{"lat":52.29844,"lng":4.95972},"countryCode":"NL","name":"Amsterdam Holendrecht","stationCode":"ASHD","uicCode":"8400231"},{"coordinate":{"lat":52.2785,"lng":4.977},"countryCode":"NL","name":"Abcoude","stationCode":"AC","uicCode":"8400047"},{"coordinate":{"lat":52.17149,"lng":4.9906},"countryCode":"NL","name":"Breukelen","stationCode":"BKL","uicCode":"8400133"},{"coordinate":{"lat":52.1352767944336,"lng":5.03361129760742},"countryCode":"NL","name":"Maarssen","stationCode":"MAS","uicCode":"8400419"},{"coordinate":{"lat":52.103055,"lng":5.09},"countryCode":"NL","name":"Utrecht Zuilen","stationCode":"UTZL","uicCode":"8400613"},{"coordinate":{"lat":52.0888900756836,"lng":5.11027765274048},"countryCode":"NL","name":"Utrecht Centraal","stationCode":"UT","uicCode":"8400621"}],"direction":"BOTH"},"consequence":{"section":{"stations":[{"coordinate":{"lat":52.3094444274902,"lng":4.76194429397583},"countryCode":"NL","name":"Schiphol Airport","stationCode":"SHL","uicCode":"8400561"},{"coordinate":{"lat":52.338889,"lng":4.872356},"countryCode":"NL","name":"Amsterdam Zuid","stationCode":"ASDZ","uicCode":"8400061"}],"direction":"BOTH"},"description":"geen treinen","level":"LESS_TRAINS"},"sectionType":"NL"}],"summaryAdditionalTravelTime":{"label":"De extra reistijd kan oplopen tot 30 minuten.","shortLabel":"Extra reistijd tot 30 min.","minimumDurationInMinutes":30,"maximumDurationInMinutes":30},"timespans":[{"start":"2024-11-16T04:00:00+0100","end":"2024-11-29T02:00:00+0100","period":"Zaterdag 16 november 4:00 uur t/m vrijdag 29 november 2:00 uur.","situation":{"label":"Door werkzaamheden: van, via en naar Schiphol Airport rijden er veel minder treinen."},"cause":{"label":"werkzaamheden"},"additionalTravelTime":{"label":"De extra reistijd is ongeveer 15 minuten.","shortLabel":"Extra reistijd 15 min.","minimumDurationInMinutes":15,"maximumDurationInMinutes":15},"advices":["Reis niet in de spits. Stel uw reis uit of reis niet via Schiphol Airport.","Tussen Leiden C. en Amsterdam C. reis via Haarlem.","Tussen Den Haag C. en Amersfoort C. reis via Utrecht C.","Tussen Schiphol Airport en Almere C./Hilversum reis via Amsterdam C.","Tussen Schiphol Airport en Utrecht C. reis via Leiden C."]},{"start":"2024-11-29T04:00:00+0100","end":"2024-12-02T02:00:00+0100","period":"Vrijdag 29 november 4:00 uur t/m maandag 2 december 2:00 uur.","situation":{"label":"Door werkzaamheden: tussen Schiphol Airport en Amsterdam Zuid rijden er geen treinen."},"cause":{"label":"werkzaamheden"},"additionalTravelTime":{"label":"De extra reistijd is ongeveer 30 minuten.","shortLabel":"Extra reistijd 30 min.","minimumDurationInMinutes":30,"maximumDurationInMinutes":30},"alternativeTransport":{"label":"maak gebruik van het vervangende vervoer","shortLabel":"gebruik het vervangende vervoer"},"advices":["Uw NS-vervoerbewijs is geldig in metrolijn 50 en 51 tussen Amsterdam Lelylaan en Amsterdam Zuid.","Tussen Schiphol Airport en Amsterdam Zuid reis via Lelylaan.","Tussen Schiphol Airport en Utrecht C./Weesp reis via Amsterdam C."]},{"start":"2024-12-02T04:00:00+0100","end":"2024-12-04T02:00:00+0100","period":"Maandag 2 december 4:00 uur t/m woensdag 4 december 2:00 uur.","situation":{"label":"Door werkzaamheden: van, via en naar Schiphol Airport rijden er veel minder treinen."},"cause":{"label":"werkzaamheden"},"additionalTravelTime":{"label":"De extra reistijd is ongeveer 15 minuten.","shortLabel":"Extra reistijd 15 min.","minimumDurationInMinutes":15,"maximumDurationInMinutes":15},"advices":["Reis niet in de spits. Stel uw reis uit of reis niet via Schiphol Airport.","Tussen Leiden C. en Amsterdam C. reis via Haarlem.","Tussen Den Haag C. en Amersfoort C. reis via Utrecht C.","Tussen Schiphol Airport en Almere C./Hilversum reis via Amsterdam C.","Tussen Schiphol Airport en Utrecht C. reis via Leiden C."]}],"alternativeTransportTimespans":[{"start":"2024-11-29T04:00:00+0100","end":"2024-11-30T02:00:00+0100","alternativeTransport":{"location":[{"station":{"coordinate":{"lat":52.3577766418457,"lng":4.83388900756836},"countryCode":"NL","name":"Amsterdam Lelylaan","stationCode":"ASDL","uicCode":"8400079"},"description":"volg de aanwijzingen op het station"},{"station":{"coordinate":{"lat":52.338889,"lng":4.872356},"countryCode":"NL","name":"Amsterdam Zuid","stationCode":"ASDZ","uicCode":"8400061"},"description":"volg de aanwijzingen op het station"}],"label":"Maak gebruik van de Amsterdamse metro tussen Amsterdam Lelylaan en Amsterdam Zuid.","shortLabel":"Gebruik de Amsterdamse metro Lelylaan - Amsterdam Zuid."}},{"start":"2024-11-29T05:30:00+0100","end":"2024-11-29T06:30:00+0100","alternativeTransport":{"location":[{"station":{"coordinate":{"lat":52.338889,"lng":4.872356},"countryCode":"NL","name":"Amsterdam Zuid","stationCode":"ASDZ","uicCode":"8400061"},"description":"vanaf de Strawinskylaan uitgang Zuidplein"},{"station":{"coordinate":{"lat":52.3094444274902,"lng":4.76194429397583},"countryCode":"NL","name":"Schiphol Airport","stationCode":"SHL","uicCode":"8400561"},"description":"vanaf de Halte F6, volg borden Touring coaches"}],"label":"Er rijden stopbussen tussen Amsterdam Zuid en Schiphol Airport.","shortLabel":"Er rijden stopbussen Amsterdam Zuid - Schiphol Airport."}},{"start":"2024-11-30T00:45:00+0100","end":"2024-11-30T02:30:00+0100","alternativeTransport":{"location":[{"station":{"coordinate":{"lat":52.3094444274902,"lng":4.76194429397583},"countryCode":"NL","name":"Schiphol Airport","stationCode":"SHL","uicCode":"8400561"},"description":"vanaf de Halte F6, volg borden Touring coaches"},{"station":{"coordinate":{"lat":52.338889,"lng":4.872356},"countryCode":"NL","name":"Amsterdam Zuid","stationCode":"ASDZ","uicCode":"8400061"},"description":"vanaf de Strawinskylaan uitgang Zuidplein"},{"station":{"coordinate":{"lat":52.3372230529785,"lng":4.89027786254883},"countryCode":"NL","name":"Amsterdam RAI","stationCode":"RAI","uicCode":"8400056"},"description":"vanaf de voorzijde van het station"},{"station":{"coordinate":{"lat":52.3233337402344,"lng":4.93638896942139},"countryCode":"NL","name":"Duivendrecht","stationCode":"DVD","uicCode":"8400194"},"description":"vanaf het busstation"},{"station":{"coordinate":{"lat":52.3302764892578,"lng":4.95583343505859},"countryCode":"NL","name":"Diemen Zuid","stationCode":"DMNZ","uicCode":"8400163"},"description":"vanaf de voorzijde van het station"},{"station":{"coordinate":{"lat":52.3127784729004,"lng":5.04305553436279},"countryCode":"NL","name":"Weesp","stationCode":"WP","uicCode":"8400685"},"description":"vanaf de achterzijde van het station"}],"label":"Er rijden stopbussen van Schiphol Airport, Amsterdam Zuid, Amsterdam RAI, Duivendrecht, Diemen Zuid naar Weesp.","shortLabel":"Er rijden stopbussen Schiphol Airport -> Amsterdam Zuid -> RAI -> Duivendrecht -> Diemen Zuid -> Weesp."}},{"start":"2024-11-30T00:50:00+0100","end":"2024-11-30T01:30:00+0100","alternativeTransport":{"location":[{"station":{"coordinate":{"lat":52.338889,"lng":4.872356},"countryCode":"NL","name":"Amsterdam Zuid","stationCode":"ASDZ","uicCode":"8400061"},"description":"vanaf de Strawinskylaan uitgang Zuidplein"},{"station":{"coordinate":{"lat":52.3094444274902,"lng":4.76194429397583},"countryCode":"NL","name":"Schiphol Airport","stationCode":"SHL","uicCode":"8400561"},"description":"vanaf de Halte F6, volg borden Touring coaches"},{"station":{"coordinate":{"lat":52.2933349609375,"lng":4.70055532455444},"countryCode":"NL","name":"Hoofddorp","stationCode":"HFD","uicCode":"8400332"},"description":"onder het spoorviaduct"}],"label":"Er rijden stopbussen van Amsterdam Zuid, Schiphol Airport naar Hoofddorp.","shortLabel":"Er rijden stopbussen Amsterdam Zuid -> Schiphol Airport -> Hoofddorp."}},{"start":"2024-11-30T04:00:00+0100","end":"2024-12-02T02:00:00+0100","alternativeTransport":{"location":[{"station":{"coordinate":{"lat":52.3577766418457,"lng":4.83388900756836},"countryCode":"NL","name":"Amsterdam Lelylaan","stationCode":"ASDL","uicCode":"8400079"},"description":"volg de aanwijzingen op het station"},{"station":{"coordinate":{"lat":52.338889,"lng":4.872356},"countryCode":"NL","name":"Amsterdam Zuid","stationCode":"ASDZ","uicCode":"8400061"},"description":"volg de aanwijzingen op het station"}],"label":"Maak gebruik van de Amsterdamse metro tussen Amsterdam Lelylaan en Amsterdam Zuid.","shortLabel":"Gebruik de Amsterdamse metro Lelylaan - Amsterdam Zuid."}},{"start":"2024-12-01T00:45:00+0100","end":"2024-12-01T02:30:00+0100","alternativeTransport":{"location":[{"station":{"coordinate":{"lat":52.3094444274902,"lng":4.76194429397583},"countryCode":"NL","name":"Schiphol Airport","stationCode":"SHL","uicCode":"8400561"},"description":"vanaf de Halte F6, volg borden Touring coaches"},{"station":{"coordinate":{"lat":52.338889,"lng":4.872356},"countryCode":"NL","name":"Amsterdam Zuid","stationCode":"ASDZ","uicCode":"8400061"},"description":"vanaf de Strawinskylaan uitgang Zuidplein"},{"station":{"coordinate":{"lat":52.3372230529785,"lng":4.89027786254883},"countryCode":"NL","name":"Amsterdam RAI","stationCode":"RAI","uicCode":"8400056"},"description":"vanaf de voorzijde van het station"},{"station":{"coordinate":{"lat":52.3233337402344,"lng":4.93638896942139},"countryCode":"NL","name":"Duivendrecht","stationCode":"DVD","uicCode":"8400194"},"description":"vanaf het busstation"},{"station":{"coordinate":{"lat":52.3302764892578,"lng":4.95583343505859},"countryCode":"NL","name":"Diemen Zuid","stationCode":"DMNZ","uicCode":"8400163"},"description":"vanaf de voorzijde van het station"},{"station":{"coordinate":{"lat":52.3127784729004,"lng":5.04305553436279},"countryCode":"NL","name":"Weesp","stationCode":"WP","uicCode":"8400685"},"description":"vanaf de achterzijde van het station"}],"label":"Er rijden stopbussen van Schiphol Airport, Amsterdam Zuid, Amsterdam RAI, Duivendrecht, Diemen Zuid naar Weesp.","shortLabel":"Er rijden stopbussen Schiphol Airport -> Amsterdam Zuid -> RAI -> Duivendrecht -> Diemen Zuid -> Weesp."}}]},{"type":"MAINTENANCE","id":"7005559","title":"Zwolle - Emmen.","isActive":true,"local":false,"titleSections":[[{"type":"STATION","value":"Zwolle"},{"type":"STATION","value":"Hardenberg"},{"type":"ICON","value":"MAINTENANCE"},{"type":"STATION","value":"Nw. Amsterdam"},{"type":"STATION","value":"Emmen"}]],"registrationTime":"2024-11-22T11:26:27+0100","start":"2024-11-23T06:45:00+0100","releaseTime":"2024-11-22T11:26:27+0100","end":"2024-11-28T01:00:00+0100","period":"Zaterdag 23 november 6:45 uur t/m donderdag 28 november 1:00 uur.","impact":{"value":3},"publicationSections":[{"section":{"stations":[{"coordinate":{"lat":52.5047225952148,"lng":6.09194421768188},"countryCode":"NL","name":"Zwolle","stationCode":"ZL","uicCode":"8400747"},{"coordinate":{"lat":52.4983329772949,"lng":6.25861120223999},"countryCode":"NL","name":"Dalfsen","stationCode":"DL","uicCode":"8400167"},{"coordinate":{"lat":52.5094451904297,"lng":6.41583347320557},"countryCode":"NL","name":"Ommen","stationCode":"OMN","uicCode":"8400487"},{"coordinate":{"lat":52.5094451904297,"lng":6.57527780532837},"countryCode":"NL","name":"Mariënberg","stationCode":"MRB","uicCode":"8400428"},{"coordinate":{"lat":52.5727767944336,"lng":6.62861108779907},"countryCode":"NL","name":"Hardenberg","stationCode":"HDB","uicCode":"8400293"},{"coordinate":{"lat":52.6091651916504,"lng":6.67583322525024},"countryCode":"NL","name":"Gramsbergen","stationCode":"GBG","uicCode":"8400259"},{"coordinate":{"lat":52.6636123657227,"lng":6.73555564880371},"countryCode":"NL","name":"Coevorden","stationCode":"CO","uicCode":"8400153"},{"coordinate":{"lat":52.6941680908203,"lng":6.75805568695068},"countryCode":"NL","name":"Dalen","stationCode":"DLN","uicCode":"8400161"},{"coordinate":{"lat":52.7186126708984,"lng":6.84861087799072},"countryCode":"NL","name":"Nieuw Amsterdam","stationCode":"NA","uicCode":"8400454"},{"coordinate":{"lat":52.7488663746914,"lng":6.87478065490722},"countryCode":"NL","name":"Emmen Zuid","stationCode":"EMNZ","uicCode":"8400407"},{"coordinate":{"lat":52.7900009155273,"lng":6.89944458007812},"countryCode":"NL","name":"Emmen","stationCode":"EMN","uicCode":"8400208"}],"direction":"BOTH"},"consequence":{"section":{"stations":[{"coordinate":{"lat":52.5727767944336,"lng":6.62861108779907},"countryCode":"NL","name":"Hardenberg","stationCode":"HDB","uicCode":"8400293"},{"coordinate":{"lat":52.6091651916504,"lng":6.67583322525024},"countryCode":"NL","name":"Gramsbergen","stationCode":"GBG","uicCode":"8400259"},{"coordinate":{"lat":52.6636123657227,"lng":6.73555564880371},"countryCode":"NL","name":"Coevorden","stationCode":"CO","uicCode":"8400153"},{"coordinate":{"lat":52.6941680908203,"lng":6.75805568695068},"countryCode":"NL","name":"Dalen","stationCode":"DLN","uicCode":"8400161"},{"coordinate":{"lat":52.7186126708984,"lng":6.84861087799072},"countryCode":"NL","name":"Nieuw Amsterdam","stationCode":"NA","uicCode":"8400454"}],"direction":"BOTH"},"description":"er rijden bussen","level":"LESS_TRAINS"},"sectionType":"NL"}],"summaryAdditionalTravelTime":{"label":"De extra reistijd is meer dan 30 minuten.","shortLabel":"Extra reistijd meer dan 30 min.","minimumDurationInMinutes":30},"timespans":[{"start":"2024-11-23T06:45:00+0100","end":"2024-11-28T01:00:00+0100","period":"Zaterdag 23 november 6:45 uur t/m donderdag 28 november 1:00 uur.","situation":{"label":"Door werkzaamheden: tussen Hardenberg en Nieuw Amsterdam rijden er bussen."},"cause":{"label":"werkzaamheden"},"additionalTravelTime":{"label":"De extra reistijd is meer dan 30 minuten.","shortLabel":"Extra reistijd meer dan 30 min.","minimumDurationInMinutes":30},"alternativeTransport":{"label":"er rijden stop- en snelbussen","shortLabel":"er rijden stop- en snelbussen"},"advices":[]}],"alternativeTransportTimespans":[{"start":"2024-11-23T06:45:00+0100","end":"2024-11-28T01:00:00+0100","alternativeTransport":{"location":[{"station":{"coordinate":{"lat":52.5727767944336,"lng":6.62861108779907},"countryCode":"NL","name":"Hardenberg","stationCode":"HDB","uicCode":"8400293"},"description":"vanaf de voorzijde van het station"},{"station":{"coordinate":{"lat":52.6091651916504,"lng":6.67583322525024},"countryCode":"NL","name":"Gramsbergen","stationCode":"GBG","uicCode":"8400259"},"description":"vanaf de voorzijde van het station"},{"station":{"coordinate":{"lat":52.6636123657227,"lng":6.73555564880371},"countryCode":"NL","name":"Coevorden","stationCode":"CO","uicCode":"8400153"},"description":"vanaf de voorzijde van het station"},{"station":{"coordinate":{"lat":52.6941680908203,"lng":6.75805568695068},"countryCode":"NL","name":"Dalen","stationCode":"DLN","uicCode":"8400161"},"description":"vanaf de voorzijde van het station"},{"station":{"coordinate":{"lat":52.7186126708984,"lng":6.84861087799072},"countryCode":"NL","name":"Nieuw Amsterdam","stationCode":"NA","uicCode":"8400454"},"description":"vanaf de doorgaande weg"}],"label":"Er rijden stopbussen tussen Hardenberg, Gramsbergen, Coevorden, Dalen en Nieuw Amsterdam.","shortLabel":"Er rijden stopbussen Hardenberg - Gramsbergen - Coevorden - Dalen - Nw. Amsterdam."}},{"start":"2024-11-23T06:45:00+0100","end":"2024-11-28T01:00:00+0100","alternativeTransport":{"location":[{"station":{"coordinate":{"lat":52.5727767944336,"lng":6.62861108779907},"countryCode":"NL","name":"Hardenberg","stationCode":"HDB","uicCode":"8400293"},"description":"volg de aanwijzingen op het station"},{"station":{"coordinate":{"lat":52.6636123657227,"lng":6.73555564880371},"countryCode":"NL","name":"Coevorden","stationCode":"CO","uicCode":"8400153"},"description":"volg de aanwijzingen op het station"},{"station":{"coordinate":{"lat":52.7186126708984,"lng":6.84861087799072},"countryCode":"NL","name":"Nieuw Amsterdam","stationCode":"NA","uicCode":"8400454"},"description":"volg de aanwijzingen op het station"}],"label":"Er rijden snelbussen tussen Hardenberg, Coevorden en Nieuw Amsterdam.","shortLabel":"Er rijden snelbussen Hardenberg - Coevorden - Nw. Amsterdam."}}]},{"type":"MAINTENANCE","id":"7005620","title":"Amsterdam - Köln - Frankfurt.","isActive":true,"local":false,"titleSections":[[{"type":"STATION","value":"Amsterdam C."},{"type":"STATION","value":"Emmerich"},{"type":"ICON","value":"MAINTENANCE"},{"type":"STATION","value":"Oberhausen Hbf"},{"type":"STATION","value":"Frankfurt Hbf"}]],"registrationTime":"2024-11-20T13:31:50+0100","start":"2024-11-25T04:00:00+0100","releaseTime":"2024-11-20T13:31:50+0100","end":"2024-11-30T02:00:00+0100","period":"Maandag 25 november 4:00 uur t/m zaterdag 30 november 2:00 uur.","impact":{"value":2},"publicationSections":[{"section":{"stations":[{"coordinate":{"lat":52.3788871765137,"lng":4.90027761459351},"countryCode":"NL","name":"Amsterdam Centraal","stationCode":"ASD","uicCode":"8400058"},{"coordinate":{"lat":52.3605537414551,"lng":4.93111133575439},"countryCode":"NL","name":"Amsterdam Muiderpoort","stationCode":"ASDM","uicCode":"8400060"},{"coordinate":{"lat":52.3466682434082,"lng":4.91777801513672},"countryCode":"NL","name":"Amsterdam Amstel","stationCode":"ASA","uicCode":"8400057"},{"coordinate":{"lat":52.3233337402344,"lng":4.93638896942139},"countryCode":"NL","name":"Duivendrecht","stationCode":"DVD","uicCode":"8400194"},{"coordinate":{"lat":52.3122215270996,"lng":4.94694423675537},"countryCode":"NL","name":"Amsterdam Bijlmer ArenA","stationCode":"ASB","uicCode":"8400074"},{"coordinate":{"lat":52.29844,"lng":4.95972},"countryCode":"NL","name":"Amsterdam Holendrecht","stationCode":"ASHD","uicCode":"8400231"},{"coordinate":{"lat":52.2785,"lng":4.977},"countryCode":"NL","name":"Abcoude","stationCode":"AC","uicCode":"8400047"},{"coordinate":{"lat":52.17149,"lng":4.9906},"countryCode":"NL","name":"Breukelen","stationCode":"BKL","uicCode":"8400133"},{"coordinate":{"lat":52.1352767944336,"lng":5.03361129760742},"countryCode":"NL","name":"Maarssen","stationCode":"MAS","uicCode":"8400419"},{"coordinate":{"lat":52.103055,"lng":5.09},"countryCode":"NL","name":"Utrecht Zuilen","stationCode":"UTZL","uicCode":"8400613"},{"coordinate":{"lat":52.0888900756836,"lng":5.11027765274048},"countryCode":"NL","name":"Utrecht Centraal","stationCode":"UT","uicCode":"8400621"},{"coordinate":{"lat":52.078889,"lng":5.121667},"countryCode":"NL","name":"Utrecht Vaartsche Rijn","stationCode":"UTVR","uicCode":"8400606"},{"coordinate":{"lat":52.0630569458008,"lng":5.19444465637207},"countryCode":"NL","name":"Bunnik","stationCode":"BNK","uicCode":"8400141"},{"coordinate":{"lat":52.0652770996094,"lng":5.25861120223999},"countryCode":"NL","name":"Driebergen-Zeist","stationCode":"DB","uicCode":"8400182"},{"coordinate":{"lat":52.0641670227051,"lng":5.36999988555908},"countryCode":"NL","name":"Maarn","stationCode":"MRN","uicCode":"8400417"},{"coordinate":{"lat":52.0458335876465,"lng":5.57388877868652},"countryCode":"NL","name":"Veenendaal-De Klomp","stationCode":"KLP","uicCode":"8400637"},{"coordinate":{"lat":52.0277786254883,"lng":5.67305564880371},"countryCode":"NL","name":"Ede-Wageningen","stationCode":"ED","uicCode":"8400200"},{"coordinate":{"lat":52.0055541992188,"lng":5.7936110496521},"countryCode":"NL","name":"Wolfheze","stationCode":"WF","uicCode":"8400704"},{"coordinate":{"lat":51.9949989318848,"lng":5.84000015258789},"countryCode":"NL","name":"Oosterbeek","stationCode":"OTB","uicCode":"8400489"},{"coordinate":{"lat":51.9850006103516,"lng":5.89916658401489},"countryCode":"NL","name":"Arnhem Centraal","stationCode":"AH","uicCode":"8400071"},{"coordinate":{"lat":51.985279083252,"lng":5.91944456100464},"countryCode":"NL","name":"Arnhem Velperpoort","stationCode":"AHP","uicCode":"8400072"},{"coordinate":{"lat":51.96286,"lng":5.9695},"countryCode":"NL","name":"Westervoort","stationCode":"WTV","uicCode":"8400688"},{"coordinate":{"lat":51.9433326721191,"lng":6.01472234725952},"countryCode":"NL","name":"Duiven","stationCode":"DVN","uicCode":"8400193"},{"coordinate":{"lat":51.9230537414551,"lng":6.07194423675537},"countryCode":"NL","name":"Zevenaar","stationCode":"ZV","uicCode":"8400735"},{"coordinate":{"lat":51.8743,"lng":6.15417},"countryCode":"D","name":"Emmerich-Elten","stationCode":"EL","uicCode":"8033415"},{"coordinate":{"lat":51.834283,"lng":6.255718},"countryCode":"D","name":"Emmerich","stationCode":"EM","uicCode":"8010288"},{"coordinate":{"lat":51.47512,"lng":6.852038},"countryCode":"D","name":"Oberhausen Hbf","stationCode":"OBERH","uicCode":"8010263"},{"coordinate":{"lat":51.4297785713316,"lng":6.77590370178222},"countryCode":"D","name":"Duisburg Hbf","stationCode":"DUISB","uicCode":"8010316"},{"coordinate":{"lat":51.220146,"lng":6.793137},"countryCode":"D","name":"Düsseldorf Hbf","stationCode":"DUSSEL","uicCode":"8008094"},{"coordinate":{"lat":50.940874,"lng":6.975001},"countryCode":"D","name":"Köln Messe/Deutz","stationCode":"KKD","uicCode":"8015561"},{"coordinate":{"lat":50.9432158,"lng":6.9589214},"countryCode":"D","name":"Köln Hbf","stationCode":"KOLN","uicCode":"8015458"},{"coordinate":{"lat":50.7939411,"lng":7.2030017},"countryCode":"D","name":"Siegburg/Bonn","stationCode":"KSB","uicCode":"8015588"},{"coordinate":{"lat":50.444834,"lng":7.825333},"countryCode":"D","name":"Montabaur","stationCode":"KMB","uicCode":"8019585"},{"coordinate":{"lat":50.382498,"lng":8.096112},"countryCode":"D","name":"Limburg Süd","stationCode":"FLB","uicCode":"8032572"},{"coordinate":{"lat":50.0531710299286,"lng":8.570237159729},"countryCode":"D","name":"Frankfurt Flughafen Fernb","stationCode":"FNAF","uicCode":"8061676"},{"coordinate":{"lat":50.1071222,"lng":8.6638338},"countryCode":"D","name":"Frankfurt (M) Hbf","stationCode":"FFFM","uicCode":"8011068"}],"direction":"BOTH"},"consequence":{"section":{"stations":[{"coordinate":{"lat":51.834283,"lng":6.255718},"countryCode":"D","name":"Emmerich","stationCode":"EM","uicCode":"8010288"},{"coordinate":{"lat":51.47512,"lng":6.852038},"countryCode":"D","name":"Oberhausen Hbf","stationCode":"OBERH","uicCode":"8010263"}],"direction":"BOTH"},"description":"aangepaste internationale dienstregeling","level":"LESS_TRAINS"},"sectionType":"NEIGHBORING_COUNTRY"}],"summaryAdditionalTravelTime":{"label":"U heeft geen langere reistijd.","shortLabel":"Geen extra reistijd."},"timespans":[{"start":"2024-11-25T04:00:00+0100","end":"2024-11-30T02:00:00+0100","period":"Maandag 25 november 4:00 uur t/m zaterdag 30 november 2:00 uur.","situation":{"label":"Door werkzaamheden: tussen Oberhausen Hbf en Emmerich is de internationale dienstregeling aangepast."},"cause":{"label":"werkzaamheden"},"additionalTravelTime":{"label":"U heeft geen langere reistijd.","shortLabel":"Geen extra reistijd."},"advices":["ICE International stopt niet in Arnhem Centraal."]}],"alternativeTransportTimespans":[]},{"type":"MAINTENANCE","id":"7005399","title":"Venlo - Mönchengladbach - Düsseldorf.","isActive":false,"local":false,"titleSections":[[{"type":"STATION","value":"Venlo"},{"type":"ICON","value":"MAINTENANCE"},{"type":"STATION","value":"Mönchengladbach"},{"type":"STATION","value":"Düsseldorf Hbf"}]],"registrationTime":"2024-11-11T09:02:55+0100","start":"2024-11-27T20:30:00+0100","releaseTime":"2024-11-11T09:02:55+0100","end":"2024-11-28T05:15:00+0100","period":"Woensdag 27 november 20:30 uur t/m donderdag 28 november 5:15 uur.","impact":{"value":2},"publicationSections":[{"section":{"stations":[{"coordinate":{"lat":51.3636093139648,"lng":6.17277765274048},"countryCode":"NL","name":"Venlo","stationCode":"VL","uicCode":"8400644"},{"coordinate":{"lat":51.327184,"lng":6.203225},"countryCode":"D","name":"Kaldenkirchen","stationCode":"KN","uicCode":"8015130"},{"coordinate":{"lat":51.294615,"lng":6.241174},"countryCode":"D","name":"Breyell","stationCode":"KBRY","uicCode":"8015129"},{"coordinate":{"lat":51.274323,"lng":6.274591},"countryCode":"D","name":"Boisheim","stationCode":"KBOI","uicCode":"8015128"},{"coordinate":{"lat":51.257149,"lng":6.33793},"countryCode":"D","name":"Dülken","stationCode":"KDUL","uicCode":"8015125"},{"coordinate":{"lat":51.25516,"lng":6.40388},"countryCode":"D","name":"Viersen","stationCode":"VIERS","uicCode":"8015122"},{"coordinate":{"lat":51.196583,"lng":6.446111},"countryCode":"D","name":"Mönchengladbach Hbf","stationCode":"MCGB","uicCode":"8015165"},{"coordinate":{"lat":51.20444,"lng":6.68468},"countryCode":"D","name":"Neuss Hbf","stationCode":"NEUSS","uicCode":"8015149"},{"coordinate":{"lat":51.220146,"lng":6.793137},"countryCode":"D","name":"Düsseldorf Hbf","stationCode":"DUSSEL","uicCode":"8008094"}],"direction":"BOTH"},"consequence":{"section":{"stations":[{"coordinate":{"lat":51.3636093139648,"lng":6.17277765274048},"countryCode":"NL","name":"Venlo","stationCode":"VL","uicCode":"8400644"},{"coordinate":{"lat":51.327184,"lng":6.203225},"countryCode":"D","name":"Kaldenkirchen","stationCode":"KN","uicCode":"8015130"},{"coordinate":{"lat":51.294615,"lng":6.241174},"countryCode":"D","name":"Breyell","stationCode":"KBRY","uicCode":"8015129"},{"coordinate":{"lat":51.274323,"lng":6.274591},"countryCode":"D","name":"Boisheim","stationCode":"KBOI","uicCode":"8015128"},{"coordinate":{"lat":51.257149,"lng":6.33793},"countryCode":"D","name":"Dülken","stationCode":"KDUL","uicCode":"8015125"},{"coordinate":{"lat":51.25516,"lng":6.40388},"countryCode":"D","name":"Viersen","stationCode":"VIERS","uicCode":"8015122"},{"coordinate":{"lat":51.196583,"lng":6.446111},"countryCode":"D","name":"Mönchengladbach Hbf","stationCode":"MCGB","uicCode":"8015165"}],"direction":"BOTH"},"description":"er rijden bussen","level":"LESS_TRAINS"},"sectionType":"NEIGHBORING_COUNTRY"}],"summaryAdditionalTravelTime":{"label":"De extra reistijd is ongeveer 45 minuten.","shortLabel":"Extra reistijd 45 min.","minimumDurationInMinutes":45,"maximumDurationInMinutes":45},"timespans":[{"start":"2024-11-27T20:30:00+0100","end":"2024-11-28T05:15:00+0100","period":"Woensdag 27 november 20:30 uur t/m donderdag 28 november 5:15 uur.","situation":{"label":"Door werkzaamheden: tussen Venlo en Mönchengladbach Hbf rijden er bussen."},"cause":{"label":"werkzaamheden"},"additionalTravelTime":{"label":"De extra reistijd is ongeveer 45 minuten.","shortLabel":"Extra reistijd 45 min.","minimumDurationInMinutes":45,"maximumDurationInMinutes":45},"alternativeTransport":{"label":"er rijden stopbussen","shortLabel":"er rijden stopbussen"},"advices":["Tot begin december zijn er tussen 20.30 en 06.00 uur regelmatig werkzaamheden waarbij bussen worden ingezet."]}],"alternativeTransportTimespans":[{"start":"2024-11-27T20:30:00+0100","end":"2024-11-28T05:15:00+0100","alternativeTransport":{"location":[{"station":{"coordinate":{"lat":51.3636093139648,"lng":6.17277765274048},"countryCode":"NL","name":"Venlo","stationCode":"VL","uicCode":"8400644"},"description":"vanaf het busstation"},{"station":{"coordinate":{"lat":51.327184,"lng":6.203225},"countryCode":"D","name":"Kaldenkirchen","stationCode":"KN","uicCode":"8015130"},"description":"volg de aanwijzingen op het station"},{"station":{"coordinate":{"lat":51.294615,"lng":6.241174},"countryCode":"D","name":"Breyell","stationCode":"KBRY","uicCode":"8015129"},"description":"volg de aanwijzingen op het station"},{"station":{"coordinate":{"lat":51.274323,"lng":6.274591},"countryCode":"D","name":"Boisheim","stationCode":"KBOI","uicCode":"8015128"},"description":"volg de aanwijzingen op het station"},{"station":{"coordinate":{"lat":51.257149,"lng":6.33793},"countryCode":"D","name":"Dülken","stationCode":"KDUL","uicCode":"8015125"},"description":"volg de aanwijzingen op het station"},{"station":{"coordinate":{"lat":51.25516,"lng":6.40388},"countryCode":"D","name":"Viersen","stationCode":"VIERS","uicCode":"8015122"},"description":"volg de aanwijzingen op het station"},{"station":{"coordinate":{"lat":51.196583,"lng":6.446111},"countryCode":"D","name":"Mönchengladbach Hbf","stationCode":"MCGB","uicCode":"8015165"},"description":"volg de aanwijzingen op het station"}],"label":"Er rijden stopbussen tussen Venlo, Kaldenkirchen, Breyell, Boisheim, Dülken, Viersen en Mönchengladbach Hbf.","shortLabel":"Er rijden stopbussen Venlo - Kaldenkirchen - Breyell - Boisheim - Dülken - Viersen - Mönchengladbach."}}]},{"type":"MAINTENANCE","id":"7005538","title":"Schiphol - Leiden.","isActive":false,"local":false,"titleSections":[[{"type":"STATION","value":"Schiphol Airport"},{"type":"STATION","value":"Hoofddorp"},{"type":"ICON","value":"MAINTENANCE"},{"type":"STATION","value":"Leiden C."}]],"registrationTime":"2024-11-05T10:57:02+0100","start":"2024-11-30T00:30:00+0100","releaseTime":"2024-11-05T10:57:02+0100","end":"2024-12-02T04:55:00+0100","period":"Zaterdag 30 november 0:30 uur t/m maandag 2 december 4:55 uur.","impact":{"value":4},"publicationSections":[{"section":{"stations":[{"coordinate":{"lat":52.3094444274902,"lng":4.76194429397583},"countryCode":"NL","name":"Schiphol Airport","stationCode":"SHL","uicCode":"8400561"},{"coordinate":{"lat":52.2933349609375,"lng":4.70055532455444},"countryCode":"NL","name":"Hoofddorp","stationCode":"HFD","uicCode":"8400332"},{"coordinate":{"lat":52.2588882446289,"lng":4.64555549621582},"countryCode":"NL","name":"Nieuw Vennep","stationCode":"NVP","uicCode":"8400460"},{"coordinate":{"lat":52.215278,"lng":4.517222},"countryCode":"NL","name":"Sassenheim","stationCode":"SSH","uicCode":"8400603"},{"coordinate":{"lat":52.1661109924316,"lng":4.48166656494141},"countryCode":"NL","name":"Leiden Centraal","stationCode":"LEDN","uicCode":"8400390"}],"direction":"BOTH"},"consequence":{"section":{"stations":[{"coordinate":{"lat":52.2933349609375,"lng":4.70055532455444},"countryCode":"NL","name":"Hoofddorp","stationCode":"HFD","uicCode":"8400332"},{"coordinate":{"lat":52.2588882446289,"lng":4.64555549621582},"countryCode":"NL","name":"Nieuw Vennep","stationCode":"NVP","uicCode":"8400460"},{"coordinate":{"lat":52.215278,"lng":4.517222},"countryCode":"NL","name":"Sassenheim","stationCode":"SSH","uicCode":"8400603"},{"coordinate":{"lat":52.1661109924316,"lng":4.48166656494141},"countryCode":"NL","name":"Leiden Centraal","stationCode":"LEDN","uicCode":"8400390"}],"direction":"BOTH"},"description":"rijden bussen","level":"LESS_TRAINS"},"sectionType":"NL"}],"summaryAdditionalTravelTime":{"label":"De extra reistijd is ongeveer 15 minuten.","shortLabel":"Extra reistijd 15 min.","minimumDurationInMinutes":15,"maximumDurationInMinutes":15},"timespans":[{"start":"2024-11-30T00:30:00+0100","end":"2024-12-02T04:55:00+0100","period":"Zaterdag 30 november 0:30 uur t/m maandag 2 december 4:55 uur.","situation":{"label":"Door werkzaamheden: tussen Hoofddorp en Leiden Centraal rijden er bussen."},"cause":{"label":"werkzaamheden"},"additionalTravelTime":{"label":"De extra reistijd is ongeveer 15 minuten.","shortLabel":"Extra reistijd 15 min.","minimumDurationInMinutes":15,"maximumDurationInMinutes":15},"alternativeTransport":{"label":"er rijden bussen","shortLabel":"er rijden bussen"},"advices":["Tussen Sloterdijk en Leiden C. reis via Haarlem."]}],"alternativeTransportTimespans":[{"start":"2024-11-30T00:30:00+0100","end":"2024-11-30T04:55:00+0100","alternativeTransport":{"location":[{"station":{"coordinate":{"lat":52.1661109924316,"lng":4.48166656494141},"countryCode":"NL","name":"Leiden Centraal","stationCode":"LEDN","uicCode":"8400390"},"description":"vanaf het stadsbusstation"},{"station":{"coordinate":{"lat":52.3094444274902,"lng":4.76194429397583},"countryCode":"NL","name":"Schiphol Airport","stationCode":"SHL","uicCode":"8400561"},"description":"vanaf de Halte F6, volg borden Touring coaches"}],"label":"Er rijden bussen tussen Leiden Centraal en Schiphol Airport.","shortLabel":"Er rijden bussen Leiden C. - Schiphol Airport."}},{"start":"2024-11-30T05:15:00+0100","end":"2024-12-01T00:50:00+0100","alternativeTransport":{"location":[{"station":{"coordinate":{"lat":52.2933349609375,"lng":4.70055532455444},"countryCode":"NL","name":"Hoofddorp","stationCode":"HFD","uicCode":"8400332"},"description":"onder het spoorviaduct"},{"station":{"coordinate":{"lat":52.2588882446289,"lng":4.64555549621582},"countryCode":"NL","name":"Nieuw Vennep","stationCode":"NVP","uicCode":"8400460"},"description":"vanaf de Venneperweg"},{"station":{"coordinate":{"lat":52.215278,"lng":4.517222},"countryCode":"NL","name":"Sassenheim","stationCode":"SSH","uicCode":"8400603"},"description":"vanaf het Stationsplein"},{"station":{"coordinate":{"lat":52.1661109924316,"lng":4.48166656494141},"countryCode":"NL","name":"Leiden Centraal","stationCode":"LEDN","uicCode":"8400390"},"description":"vanaf het stadsbusstation"}],"label":"Er rijden bussen tussen Hoofddorp, Nieuw Vennep, Sassenheim en Leiden Centraal.","shortLabel":"Er rijden bussen Hoofddorp - Nieuw Vennep - Sassenheim - Leiden C."}},{"start":"2024-12-01T01:30:00+0100","end":"2024-12-01T05:30:00+0100","alternativeTransport":{"location":[{"station":{"coordinate":{"lat":52.3094444274902,"lng":4.76194429397583},"countryCode":"NL","name":"Schiphol Airport","stationCode":"SHL","uicCode":"8400561"},"description":"vanaf de Halte F6, volg borden Touring coaches"},{"station":{"coordinate":{"lat":52.1661109924316,"lng":4.48166656494141},"countryCode":"NL","name":"Leiden Centraal","stationCode":"LEDN","uicCode":"8400390"},"description":"vanaf het stadsbusstation"}],"label":"Er rijden bussen tussen Schiphol Airport en Leiden Centraal.","shortLabel":"Er rijden bussen Schiphol Airport - Leiden C."}},{"start":"2024-12-01T05:30:00+0100","end":"2024-12-02T00:45:00+0100","alternativeTransport":{"location":[{"station":{"coordinate":{"lat":52.2933349609375,"lng":4.70055532455444},"countryCode":"NL","name":"Hoofddorp","stationCode":"HFD","uicCode":"8400332"},"description":"onder het spoorviaduct"},{"station":{"coordinate":{"lat":52.2588882446289,"lng":4.64555549621582},"countryCode":"NL","name":"Nieuw Vennep","stationCode":"NVP","uicCode":"8400460"},"description":"vanaf de Venneperweg"},{"station":{"coordinate":{"lat":52.215278,"lng":4.517222},"countryCode":"NL","name":"Sassenheim","stationCode":"SSH","uicCode":"8400603"},"description":"vanaf het Stationsplein"},{"station":{"coordinate":{"lat":52.1661109924316,"lng":4.48166656494141},"countryCode":"NL","name":"Leiden Centraal","stationCode":"LEDN","uicCode":"8400390"},"description":"vanaf het stadsbusstation"}],"label":"Er rijden bussen tussen Hoofddorp, Nieuw Vennep, Sassenheim en Leiden Centraal.","shortLabel":"Er rijden bussen Hoofddorp - Nieuw Vennep - Sassenheim - Leiden C."}},{"start":"2024-12-02T01:45:00+0100","end":"2024-12-02T04:55:00+0100","alternativeTransport":{"location":[{"station":{"coordinate":{"lat":52.3094444274902,"lng":4.76194429397583},"countryCode":"NL","name":"Schiphol Airport","stationCode":"SHL","uicCode":"8400561"},"description":"vanaf de Halte F6, volg borden Touring coaches"},{"station":{"coordinate":{"lat":52.1661109924316,"lng":4.48166656494141},"countryCode":"NL","name":"Leiden Centraal","stationCode":"LEDN","uicCode":"8400390"},"description":"vanaf het stadsbusstation"}],"label":"Er rijden bussen tussen Schiphol Airport en Leiden Centraal.","shortLabel":"Er rijden bussen Schiphol Airport - Leiden C."}}]},{"type":"MAINTENANCE","id":"7005585","title":"Amersfoort - Amersfoort Vathorst.","isActive":false,"local":false,"titleSections":[[{"type":"STATION","value":"Amersfoort C."},{"type":"ICON","value":"MAINTENANCE"},{"type":"STATION","value":"Vathorst"}]],"registrationTime":"2024-11-12T11:45:58+0100","start":"2024-11-30T04:00:00+0100","releaseTime":"2024-11-12T11:45:58+0100","end":"2024-12-02T02:00:00+0100","period":"Zaterdag 30 november 4:00 uur t/m maandag 2 december 2:00 uur.","impact":{"value":2},"publicationSections":[{"section":{"stations":[{"coordinate":{"lat":52.1538887023926,"lng":5.37055540084839},"countryCode":"NL","name":"Amersfoort Centraal","stationCode":"AMF","uicCode":"8400055"},{"coordinate":{"lat":52.1748221374512,"lng":5.40388870239258},"countryCode":"NL","name":"Amersfoort Schothorst","stationCode":"AMFS","uicCode":"8400054"},{"coordinate":{"lat":52.1927795410156,"lng":5.43388891220093},"countryCode":"NL","name":"Amersfoort Vathorst","stationCode":"AVAT","uicCode":"8400228"}],"direction":"BOTH"},"consequence":{"section":{"stations":[{"coordinate":{"lat":52.1538887023926,"lng":5.37055540084839},"countryCode":"NL","name":"Amersfoort Centraal","stationCode":"AMF","uicCode":"8400055"},{"coordinate":{"lat":52.1748221374512,"lng":5.40388870239258},"countryCode":"NL","name":"Amersfoort Schothorst","stationCode":"AMFS","uicCode":"8400054"},{"coordinate":{"lat":52.1927795410156,"lng":5.43388891220093},"countryCode":"NL","name":"Amersfoort Vathorst","stationCode":"AVAT","uicCode":"8400228"}],"direction":"BOTH"},"description":"minder treinen","level":"LESS_TRAINS"},"sectionType":"NL"}],"summaryAdditionalTravelTime":{"label":"De extra reistijd is ongeveer 15 minuten.","shortLabel":"Extra reistijd 15 min.","minimumDurationInMinutes":15,"maximumDurationInMinutes":15},"timespans":[{"start":"2024-11-30T04:00:00+0100","end":"2024-12-02T02:00:00+0100","period":"Zaterdag 30 november 4:00 uur t/m maandag 2 december 2:00 uur.","situation":{"label":"Door werkzaamheden elders: tussen Amersfoort Centraal en Amersfoort Vathorst rijden er minder treinen."},"cause":{"label":"werkzaamheden elders"},"additionalTravelTime":{"label":"De extra reistijd is ongeveer 15 minuten.","shortLabel":"Extra reistijd 15 min.","minimumDurationInMinutes":15,"maximumDurationInMinutes":15},"advices":["Houd ook rekening met werkzaamheden tussen Utrecht Centraal en Amersfoort Centraal. Reis daar via Hilversum."]}],"alternativeTransportTimespans":[]},{"type":"MAINTENANCE","id":"7005575","title":"Utrecht - Amersfoort; Hilversum - Amersfoort; Utrecht - Baarn.","isActive":false,"local":false,"titleSections":[[{"type":"STATION","value":"Utrecht C."},{"type":"STATION","value":"Overvecht"},{"type":"ICON","value":"MAINTENANCE"},{"type":"STATION","value":"Amersfoort C."}],[{"type":"STATION","value":"Utrecht C."},{"type":"STATION","value":"Overvecht"},{"type":"ICON","value":"MAINTENANCE"},{"type":"STATION","value":"Soest"},{"type":"STATION","value":"Baarn"}],[{"type":"STATION","value":"Hilversum"},{"type":"ICON","value":"MAINTENANCE"},{"type":"STATION","value":"Amersfoort C."}]],"registrationTime":"2024-11-05T10:56:13+0100","start":"2024-11-30T06:00:00+0100","releaseTime":"2024-11-05T10:56:13+0100","end":"2024-12-02T01:30:00+0100","period":"Zaterdag 30 november 6:00 uur t/m maandag 2 december 1:30 uur.","impact":{"value":3},"publicationSections":[{"section":{"stations":[{"coordinate":{"lat":52.0888900756836,"lng":5.11027765274048},"countryCode":"NL","name":"Utrecht Centraal","stationCode":"UT","uicCode":"8400621"},{"coordinate":{"lat":52.1100006103516,"lng":5.12472200393677},"countryCode":"NL","name":"Utrecht Overvecht","stationCode":"UTO","uicCode":"8400620"},{"coordinate":{"lat":52.1300010681152,"lng":5.20388889312744},"countryCode":"NL","name":"Bilthoven","stationCode":"BHV","uicCode":"8400114"},{"coordinate":{"lat":52.1402778625488,"lng":5.24277782440186},"countryCode":"NL","name":"Den Dolder","stationCode":"DLD","uicCode":"8400179"},{"coordinate":{"lat":52.1538887023926,"lng":5.37055540084839},"countryCode":"NL","name":"Amersfoort Centraal","stationCode":"AMF","uicCode":"8400055"}],"direction":"BOTH"},"consequence":{"section":{"stations":[{"coordinate":{"lat":52.1100006103516,"lng":5.12472200393677},"countryCode":"NL","name":"Utrecht Overvecht","stationCode":"UTO","uicCode":"8400620"},{"coordinate":{"lat":52.1300010681152,"lng":5.20388889312744},"countryCode":"NL","name":"Bilthoven","stationCode":"BHV","uicCode":"8400114"},{"coordinate":{"lat":52.1402778625488,"lng":5.24277782440186},"countryCode":"NL","name":"Den Dolder","stationCode":"DLD","uicCode":"8400179"},{"coordinate":{"lat":52.1538887023926,"lng":5.37055540084839},"countryCode":"NL","name":"Amersfoort Centraal","stationCode":"AMF","uicCode":"8400055"}],"direction":"BOTH"},"description":"rijden bussen","level":"LESS_TRAINS"},"sectionType":"NL"},{"section":{"stations":[{"coordinate":{"lat":52.0888900756836,"lng":5.11027765274048},"countryCode":"NL","name":"Utrecht Centraal","stationCode":"UT","uicCode":"8400621"},{"coordinate":{"lat":52.1100006103516,"lng":5.12472200393677},"countryCode":"NL","name":"Utrecht Overvecht","stationCode":"UTO","uicCode":"8400620"},{"coordinate":{"lat":52.1300010681152,"lng":5.20388889312744},"countryCode":"NL","name":"Bilthoven","stationCode":"BHV","uicCode":"8400114"},{"coordinate":{"lat":52.1402778625488,"lng":5.24277782440186},"countryCode":"NL","name":"Den Dolder","stationCode":"DLD","uicCode":"8400179"},{"coordinate":{"lat":52.1652793884277,"lng":5.30305576324463},"countryCode":"NL","name":"Soest Zuid","stationCode":"STZ","uicCode":"8400571"},{"coordinate":{"lat":52.1733322143555,"lng":5.30999994277954},"countryCode":"NL","name":"Soest","stationCode":"ST","uicCode":"8400567"},{"coordinate":{"lat":52.1836128234863,"lng":5.30000019073486},"countryCode":"NL","name":"Soestdijk","stationCode":"SD","uicCode":"8400569"},{"coordinate":{"lat":52.2083320617676,"lng":5.28083324432373},"countryCode":"NL","name":"Baarn","stationCode":"BRN","uicCode":"8400086"}],"direction":"BOTH"},"consequence":{"section":{"stations":[{"coordinate":{"lat":52.1100006103516,"lng":5.12472200393677},"countryCode":"NL","name":"Utrecht Overvecht","stationCode":"UTO","uicCode":"8400620"},{"coordinate":{"lat":52.1300010681152,"lng":5.20388889312744},"countryCode":"NL","name":"Bilthoven","stationCode":"BHV","uicCode":"8400114"},{"coordinate":{"lat":52.1402778625488,"lng":5.24277782440186},"countryCode":"NL","name":"Den Dolder","stationCode":"DLD","uicCode":"8400179"},{"coordinate":{"lat":52.1652793884277,"lng":5.30305576324463},"countryCode":"NL","name":"Soest Zuid","stationCode":"STZ","uicCode":"8400571"},{"coordinate":{"lat":52.1733322143555,"lng":5.30999994277954},"countryCode":"NL","name":"Soest","stationCode":"ST","uicCode":"8400567"}],"direction":"BOTH"},"description":"rijden bussen","level":"LESS_TRAINS"},"sectionType":"NL"},{"section":{"stations":[{"coordinate":{"lat":52.2258338928223,"lng":5.18194437026978},"countryCode":"NL","name":"Hilversum","stationCode":"HVS","uicCode":"8400322"},{"coordinate":{"lat":52.2083320617676,"lng":5.28083324432373},"countryCode":"NL","name":"Baarn","stationCode":"BRN","uicCode":"8400086"},{"coordinate":{"lat":52.1538887023926,"lng":5.37055540084839},"countryCode":"NL","name":"Amersfoort Centraal","stationCode":"AMF","uicCode":"8400055"}],"direction":"BOTH"},"consequence":{"section":{"stations":[{"coordinate":{"lat":52.2258338928223,"lng":5.18194437026978},"countryCode":"NL","name":"Hilversum","stationCode":"HVS","uicCode":"8400322"},{"coordinate":{"lat":52.2083320617676,"lng":5.28083324432373},"countryCode":"NL","name":"Baarn","stationCode":"BRN","uicCode":"8400086"},{"coordinate":{"lat":52.1538887023926,"lng":5.37055540084839},"countryCode":"NL","name":"Amersfoort Centraal","stationCode":"AMF","uicCode":"8400055"}],"direction":"BOTH"},"description":"dienstregeling aangepast","level":"LESS_TRAINS"},"sectionType":"NL"}],"summaryAdditionalTravelTime":{"label":"De extra reistijd ligt tussen 0 en 30 minuten.","shortLabel":"Extra reistijd: 0 - 30 min.","minimumDurationInMinutes":0,"maximumDurationInMinutes":30},"timespans":[{"start":"2024-11-30T06:00:00+0100","end":"2024-12-02T01:30:00+0100","period":"Zaterdag 30 november 6:00 uur t/m maandag 2 december 1:30 uur.","situation":{"label":"Door werkzaamheden: tussen Utrecht Overvecht en Amersfoort Centraal rijden er bussen en tussen Utrecht Overvecht en Soest rijden er bussen en tussen Hilversum en Amersfoort Centraal is de dienstregeling aangepast."},"cause":{"label":"werkzaamheden"},"additionalTravelTime":{"label":"De extra reistijd ligt tussen 0 en 30 minuten.","shortLabel":"Extra reistijd: 0 - 30 min.","minimumDurationInMinutes":0,"maximumDurationInMinutes":30},"alternativeTransport":{"label":"er rijden stopbussen","shortLabel":"er rijden stopbussen"},"advices":["Intercity's Utrecht-Enschede en Sprinters Utrecht-Zwolle rijden tussen Utrecht C en Amersfoort C via Hilversum.","Tussen Utrecht C. en Amersfoort C. reis via Hilversum."]}],"alternativeTransportTimespans":[{"start":"2024-11-30T06:00:00+0100","end":"2024-12-02T01:30:00+0100","alternativeTransport":{"location":[{"station":{"coordinate":{"lat":52.1100006103516,"lng":5.12472200393677},"countryCode":"NL","name":"Utrecht Overvecht","stationCode":"UTO","uicCode":"8400620"},"description":"vanaf de Aïdadreef"},{"station":{"coordinate":{"lat":52.1300010681152,"lng":5.20388889312744},"countryCode":"NL","name":"Bilthoven","stationCode":"BHV","uicCode":"8400114"},"description":"vanaf de bushalte"},{"station":{"coordinate":{"lat":52.1402778625488,"lng":5.24277782440186},"countryCode":"NL","name":"Den Dolder","stationCode":"DLD","uicCode":"8400179"},"description":"volg de aanwijzingen op het station"},{"station":{"coordinate":{"lat":52.1538887023926,"lng":5.37055540084839},"countryCode":"NL","name":"Amersfoort Centraal","stationCode":"AMF","uicCode":"8400055"},"description":"vanaf het busstation, centrumzijde"}],"label":"Er rijden stopbussen tussen Utrecht Overvecht, Bilthoven, Den Dolder en Amersfoort Centraal.","shortLabel":"Er rijden stopbussen Overvecht - Bilthoven - Den Dolder - Amersfoort C."}},{"start":"2024-11-30T06:00:00+0100","end":"2024-12-02T01:30:00+0100","alternativeTransport":{"location":[{"station":{"coordinate":{"lat":52.1100006103516,"lng":5.12472200393677},"countryCode":"NL","name":"Utrecht Overvecht","stationCode":"UTO","uicCode":"8400620"},"description":"vanaf de Aïdadreef"},{"station":{"coordinate":{"lat":52.1300010681152,"lng":5.20388889312744},"countryCode":"NL","name":"Bilthoven","stationCode":"BHV","uicCode":"8400114"},"description":"vanaf de bushalte"},{"station":{"coordinate":{"lat":52.1402778625488,"lng":5.24277782440186},"countryCode":"NL","name":"Den Dolder","stationCode":"DLD","uicCode":"8400179"},"description":"vanaf de bushalte"},{"station":{"coordinate":{"lat":52.1652793884277,"lng":5.30305576324463},"countryCode":"NL","name":"Soest Zuid","stationCode":"STZ","uicCode":"8400571"},"description":"vanaf het busstation"},{"station":{"coordinate":{"lat":52.1733322143555,"lng":5.30999994277954},"countryCode":"NL","name":"Soest","stationCode":"ST","uicCode":"8400567"},"description":"vanaf de bushalte"}],"label":"Er rijden stopbussen tussen Utrecht Overvecht, Bilthoven, Den Dolder, Soest Zuid en Soest.","shortLabel":"Er rijden stopbussen Overvecht - Bilthoven - Den Dolder - Soest Zuid - Soest."}}]},{"type":"MAINTENANCE","id":"7005567","title":"Utrecht - Tiel.","isActive":false,"local":false,"titleSections":[[{"type":"STATION","value":"Utrecht C."},{"type":"STATION","value":"Geldermalsen"},{"type":"ICON","value":"MAINTENANCE"},{"type":"STATION","value":"Tiel"}]],"registrationTime":"2024-11-04T09:12:19+0100","start":"2024-11-30T06:00:00+0100","releaseTime":"2024-11-04T09:12:19+0100","end":"2024-12-02T02:00:00+0100","period":"Zaterdag 30 november 6:00 uur t/m maandag 2 december 2:00 uur.","impact":{"value":4},"publicationSections":[{"section":{"stations":[{"coordinate":{"lat":52.0888900756836,"lng":5.11027765274048},"countryCode":"NL","name":"Utrecht Centraal","stationCode":"UT","uicCode":"8400621"},{"coordinate":{"lat":52.078889,"lng":5.121667},"countryCode":"NL","name":"Utrecht Vaartsche Rijn","stationCode":"UTVR","uicCode":"8400606"},{"coordinate":{"lat":52.0655555725098,"lng":5.14416646957397},"countryCode":"NL","name":"Utrecht Lunetten","stationCode":"UTLN","uicCode":"8400623"},{"coordinate":{"lat":52.03402,"lng":5.16821},"countryCode":"NL","name":"Houten","stationCode":"HTN","uicCode":"8400340"},{"coordinate":{"lat":52.01701,"lng":5.17949},"countryCode":"NL","name":"Houten Castellum","stationCode":"HTNC","uicCode":"8400335"},{"coordinate":{"lat":51.9466667175293,"lng":5.22694444656372},"countryCode":"NL","name":"Culemborg","stationCode":"CL","uicCode":"8400154"},{"coordinate":{"lat":51.88301,"lng":5.27127},"countryCode":"NL","name":"Geldermalsen","stationCode":"GDM","uicCode":"8400244"},{"coordinate":{"lat":51.8738899230957,"lng":5.39222240447998},"countryCode":"NL","name":"Tiel Passewaaij","stationCode":"TPSW","uicCode":"8400600"},{"coordinate":{"lat":51.8894462585449,"lng":5.42222213745117},"countryCode":"NL","name":"Tiel","stationCode":"TL","uicCode":"8400596"}],"direction":"BOTH"},"consequence":{"section":{"stations":[{"coordinate":{"lat":51.88301,"lng":5.27127},"countryCode":"NL","name":"Geldermalsen","stationCode":"GDM","uicCode":"8400244"},{"coordinate":{"lat":51.8738899230957,"lng":5.39222240447998},"countryCode":"NL","name":"Tiel Passewaaij","stationCode":"TPSW","uicCode":"8400600"},{"coordinate":{"lat":51.8894462585449,"lng":5.42222213745117},"countryCode":"NL","name":"Tiel","stationCode":"TL","uicCode":"8400596"}],"direction":"BOTH"},"description":"rijden bussen","level":"LESS_TRAINS"},"sectionType":"NL"}],"summaryAdditionalTravelTime":{"label":"De extra reistijd kan oplopen tot 30 minuten.","shortLabel":"Extra reistijd tot 30 min.","maximumDurationInMinutes":30},"timespans":[{"start":"2024-11-30T06:00:00+0100","end":"2024-12-02T02:00:00+0100","period":"Zaterdag 30 november 6:00 uur t/m maandag 2 december 2:00 uur.","situation":{"label":"Door werkzaamheden: tussen Geldermalsen en Tiel rijden er bussen."},"cause":{"label":"werkzaamheden"},"additionalTravelTime":{"label":"De extra reistijd kan oplopen tot 30 minuten.","shortLabel":"Extra reistijd tot 30 min.","maximumDurationInMinutes":30},"alternativeTransport":{"label":"er rijden stopbussen","shortLabel":"er rijden stopbussen"},"advices":[]}],"alternativeTransportTimespans":[{"start":"2024-11-30T06:00:00+0100","end":"2024-12-02T02:00:00+0100","alternativeTransport":{"location":[{"station":{"coordinate":{"lat":51.88301,"lng":5.27127},"countryCode":"NL","name":"Geldermalsen","stationCode":"GDM","uicCode":"8400244"},"description":"vanaf de bushalte"},{"station":{"coordinate":{"lat":51.8738899230957,"lng":5.39222240447998},"countryCode":"NL","name":"Tiel Passewaaij","stationCode":"TPSW","uicCode":"8400600"},"description":"vanaf de bushalte"},{"station":{"coordinate":{"lat":51.8894462585449,"lng":5.42222213745117},"countryCode":"NL","name":"Tiel","stationCode":"TL","uicCode":"8400596"},"description":"vanaf het busstation, aan de treinvervangend vervoer halte"}],"label":"Er rijden stopbussen tussen Geldermalsen, Tiel Passewaaij en Tiel.","shortLabel":"Er rijden stopbussen Geldermalsen - Passewaaij - Tiel."}}]},{"type":"MAINTENANCE","id":"7005413","title":"Amsterdam - Rotterdam - Brussel.","isActive":false,"local":false,"titleSections":[[{"type":"STATION","value":"Amsterdam C."},{"type":"ICON","value":"MAINTENANCE"},{"type":"STATION","value":"Rotterdam C."},{"type":"STATION","value":"Brussel-Z. Midi"}]],"registrationTime":"2024-11-11T09:01:45+0100","start":"2024-11-30T10:00:00+0100","releaseTime":"2024-11-11T09:01:45+0100","end":"2024-11-30T17:00:00+0100","period":"Zaterdag 30 november 10:00 uur t/m zaterdag 30 november 17:00 uur.","impact":{"value":2},"publicationSections":[{"section":{"stations":[{"coordinate":{"lat":52.3788871765137,"lng":4.90027761459351},"countryCode":"NL","name":"Amsterdam Centraal","stationCode":"ASD","uicCode":"8400058"},{"coordinate":{"lat":52.3888893127441,"lng":4.83777761459351},"countryCode":"NL","name":"Amsterdam Sloterdijk","stationCode":"ASS","uicCode":"8400059"},{"coordinate":{"lat":52.3577766418457,"lng":4.83388900756836},"countryCode":"NL","name":"Amsterdam Lelylaan","stationCode":"ASDL","uicCode":"8400079"},{"coordinate":{"lat":52.3094444274902,"lng":4.76194429397583},"countryCode":"NL","name":"Schiphol Airport","stationCode":"SHL","uicCode":"8400561"},{"coordinate":{"lat":52.2933349609375,"lng":4.70055532455444},"countryCode":"NL","name":"Hoofddorp","stationCode":"HFD","uicCode":"8400332"},{"coordinate":{"lat":51.9249992370605,"lng":4.46888875961304},"countryCode":"NL","name":"Rotterdam Centraal","stationCode":"RTD","uicCode":"8400530"},{"coordinate":{"lat":51.9202766418457,"lng":4.48888874053955},"countryCode":"NL","name":"Rotterdam Blaak","stationCode":"RTB","uicCode":"8400529"},{"coordinate":{"lat":51.9044456481934,"lng":4.51027774810791},"countryCode":"NL","name":"Rotterdam Zuid","stationCode":"RTZ","uicCode":"8400533"},{"coordinate":{"lat":51.8800010681152,"lng":4.53138875961304},"countryCode":"NL","name":"Rotterdam Lombardijen","stationCode":"RLB","uicCode":"8400542"},{"coordinate":{"lat":51.606388092041,"lng":4.72083330154419},"countryCode":"NL","name":"Breda-Prinsenbeek","stationCode":"BDPB","uicCode":"8400132"},{"coordinate":{"lat":51.5955543518066,"lng":4.78000020980835},"countryCode":"NL","name":"Breda","stationCode":"BD","uicCode":"8400131"},{"coordinate":{"lat":51.358088,"lng":4.633977},"countryCode":"B","name":"Noorderkempen","stationCode":"NDKP","uicCode":"8821105"},{"coordinate":{"lat":51.2449375,"lng":4.4251543},"countryCode":"B","name":"Antwerpen-Luchtbal","stationCode":"ATWLB","uicCode":"8821063"},{"coordinate":{"lat":51.21686,"lng":4.421242},"countryCode":"B","name":"Antwerpen-Centraal","stationCode":"ATW","uicCode":"8821006"},{"coordinate":{"lat":51.198914,"lng":4.4332},"countryCode":"B","name":"Antwerpen-Berchem","stationCode":"BERCH","uicCode":"8821121"},{"coordinate":{"lat":51.01758,"lng":4.48313},"countryCode":"B","name":"Mechelen","stationCode":"MECH","uicCode":"8822004"},{"coordinate":{"lat":50.859658,"lng":4.360854},"countryCode":"B","name":"Brussel-Noord","stationCode":"BRUSN","uicCode":"8812005"},{"coordinate":{"lat":50.845175,"lng":4.357131},"countryCode":"B","name":"Brussel-Centraal","stationCode":"BRUSC","uicCode":"8813003"},{"coordinate":{"lat":50.836782,"lng":4.336922},"countryCode":"B","name":"Brussel-Zuid Midi","stationCode":"BRUSZ","uicCode":"8814001"}],"direction":"BOTH"},"consequence":{"section":{"stations":[{"coordinate":{"lat":52.3788871765137,"lng":4.90027761459351},"countryCode":"NL","name":"Amsterdam Centraal","stationCode":"ASD","uicCode":"8400058"},{"coordinate":{"lat":52.3888893127441,"lng":4.83777761459351},"countryCode":"NL","name":"Amsterdam Sloterdijk","stationCode":"ASS","uicCode":"8400059"},{"coordinate":{"lat":52.3577766418457,"lng":4.83388900756836},"countryCode":"NL","name":"Amsterdam Lelylaan","stationCode":"ASDL","uicCode":"8400079"},{"coordinate":{"lat":52.3094444274902,"lng":4.76194429397583},"countryCode":"NL","name":"Schiphol Airport","stationCode":"SHL","uicCode":"8400561"},{"coordinate":{"lat":52.2933349609375,"lng":4.70055532455444},"countryCode":"NL","name":"Hoofddorp","stationCode":"HFD","uicCode":"8400332"},{"coordinate":{"lat":51.9249992370605,"lng":4.46888875961304},"countryCode":"NL","name":"Rotterdam Centraal","stationCode":"RTD","uicCode":"8400530"}],"direction":"BOTH"},"description":"aangepaste internationale dienstregeling","level":"LESS_TRAINS"},"sectionType":"HSL"}],"summaryAdditionalTravelTime":{"label":"U heeft geen langere reistijd.","shortLabel":"Geen extra reistijd."},"timespans":[{"start":"2024-11-30T10:00:00+0100","end":"2024-11-30T17:00:00+0100","period":"Zaterdag 30 november 10:00 uur t/m zaterdag 30 november 17:00 uur.","situation":{"label":"Door werkzaamheden: tussen Amsterdam Centraal en Rotterdam Centraal is de internationale dienstregeling aangepast."},"cause":{"label":"werkzaamheden"},"additionalTravelTime":{"label":"U heeft geen langere reistijd.","shortLabel":"Geen extra reistijd."},"advices":["IC Brussel rijdt niet tussen Amsterdam C en Rotterdam C."]}],"alternativeTransportTimespans":[]},{"type":"MAINTENANCE","id":"7005519","title":"Eindhoven - Roermond.","isActive":false,"local":false,"titleSections":[[{"type":"STATION","value":"Eindhoven C."},{"type":"STATION","value":"Weert"},{"type":"ICON","value":"MAINTENANCE"},{"type":"STATION","value":"Roermond"}]],"registrationTime":"2024-11-05T09:46:53+0100","start":"2024-12-01T04:00:00+0100","releaseTime":"2024-11-05T09:46:53+0100","end":"2024-12-01T16:35:00+0100","period":"Zondag 1 december 4:00 uur t/m zondag 1 december 16:35 uur.","impact":{"value":3},"publicationSections":[{"section":{"stations":[{"coordinate":{"lat":51.4433326721191,"lng":5.48138904571533},"countryCode":"NL","name":"Eindhoven Centraal","stationCode":"EHV","uicCode":"8400206"},{"coordinate":{"lat":51.4197235107422,"lng":5.55055570602417},"countryCode":"NL","name":"Geldrop","stationCode":"GP","uicCode":"8400245"},{"coordinate":{"lat":51.3849983215332,"lng":5.56944465637207},"countryCode":"NL","name":"Heeze","stationCode":"HZE","uicCode":"8400308"},{"coordinate":{"lat":51.304986,"lng":5.629796},"countryCode":"NL","name":"Maarheeze","stationCode":"MZ","uicCode":"8400432"},{"coordinate":{"lat":51.2486114501953,"lng":5.70361089706421},"countryCode":"NL","name":"Weert","stationCode":"WT","uicCode":"8400684"},{"coordinate":{"lat":51.1930541992188,"lng":5.9941668510437},"countryCode":"NL","name":"Roermond","stationCode":"RM","uicCode":"8400523"}],"direction":"BOTH"},"consequence":{"section":{"stations":[{"coordinate":{"lat":51.2486114501953,"lng":5.70361089706421},"countryCode":"NL","name":"Weert","stationCode":"WT","uicCode":"8400684"},{"coordinate":{"lat":51.1930541992188,"lng":5.9941668510437},"countryCode":"NL","name":"Roermond","stationCode":"RM","uicCode":"8400523"}],"direction":"BOTH"},"description":"rijden bussen","level":"LESS_TRAINS"},"sectionType":"NL"}],"summaryAdditionalTravelTime":{"label":"De extra reistijd is ongeveer 15 minuten.","shortLabel":"Extra reistijd 15 min.","minimumDurationInMinutes":15,"maximumDurationInMinutes":15},"timespans":[{"start":"2024-12-01T04:00:00+0100","end":"2024-12-01T16:35:00+0100","period":"Zondag 1 december 4:00 uur t/m zondag 1 december 16:35 uur.","situation":{"label":"Door herstelwerkzaamheden: tussen Weert en Roermond rijden er bussen."},"cause":{"label":"herstelwerkzaamheden"},"additionalTravelTime":{"label":"De extra reistijd is ongeveer 15 minuten.","shortLabel":"Extra reistijd 15 min.","minimumDurationInMinutes":15,"maximumDurationInMinutes":15},"alternativeTransport":{"label":"er rijden snelbussen","shortLabel":"er rijden snelbussen"},"advices":[]}],"alternativeTransportTimespans":[{"start":"2024-12-01T04:00:00+0100","end":"2024-12-01T16:35:00+0100","alternativeTransport":{"location":[{"station":{"coordinate":{"lat":51.2486114501953,"lng":5.70361089706421},"countryCode":"NL","name":"Weert","stationCode":"WT","uicCode":"8400684"},"description":"vanaf het Q-park terrein"},