[{"type":"DISRUPTION","id":"6050650","title":"Amsterdam - Utrecht; Amsterdam - Gouda.","isActive":true,"topic":"disruption_6050650_nl","local":false,"titleSections":[[{"type":"STATION","value":"Amsterdam C."},{"type":"ICON","value":"DISRUPTION"},{"type":"STATION","value":"Breukelen"},{"type":"STATION","value":"Gouda"}],[{"type":"STATION","value":"Amsterdam C."},{"type":"STATION","value":"Breukelen"},{"type":"ICON","value":"DISRUPTION"},{"type":"STATION","value":"Utrecht C."}]],"registrationTime":"2024-09-22T15:50:24+0200","releaseTime":"2024-09-22T15:50:24+0200","start":"2024-09-22T15:37:46+0200","end":"2024-09-22T17:00:00+0200","phase":{"id":"2","label":"Impact bekend"},"impact":{"value":2},"expectedDuration":{"description":"Dit duurt tot ongeveer 17:00 uur.","endTime":"2024-09-22T17:00:00+0200"},"publicationSections":[{"section":{"stations":[{"coordinate":{"lat":52.3788871765137,"lng":4.90027761459351},"countryCode":"NL","name":"Amsterdam Centraal","stationCode":"ASD","uicCode":"8400058"},{"coordinate":{"lat":52.3605537414551,"lng":4.93111133575439},"countryCode":"NL","name":"Amsterdam Muiderpoort","stationCode":"ASDM","uicCode":"8400060"},{"coordinate":{"lat":52.3466682434082,"lng":4.91777801513672},"countryCode":"NL","name":"Amsterdam Amstel","stationCode":"ASA","uicCode":"8400057"},{"coordinate":{"lat":52.3233337402344,"lng":4.93638896942139},"countryCode":"NL","name":"Duivendrecht","stationCode":"DVD","uicCode":"8400194"},{"coordinate":{"lat":52.3122215270996,"lng":4.94694423675537},"countryCode":"NL","name":"Amsterdam Bijlmer ArenA","stationCode":"ASB","uicCode":"8400074"},{"coordinate":{"lat":52.29844,"lng":4.95972},"countryCode":"NL","name":"Amsterdam Holendrecht","stationCode":"ASHD","uicCode":"8400231"},{"coordinate":{"lat":52.2785,"lng":4.977},"countryCode":"NL","name":"Abcoude","stationCode":"AC","uicCode":"8400047"},{"coordinate":{"lat":52.17149,"lng":4.9906},"countryCode":"NL","name":"Breukelen","stationCode":"BKL","uicCode":"8400133"},{"coordinate":{"lat":52.0849990844727,"lng":4.89361095428467},"countryCode":"NL","name":"Woerden","stationCode":"WD","uicCode":"8400702"},{"coordinate":{"lat":52.0149993896484,"lng":4.7408332824707},"countryCode":"NL","name":"Gouda Goverwelle","stationCode":"GDG","uicCode":"8400257"},{"coordinate":{"lat":52.0175018310547,"lng":4.70444440841675},"countryCode":"NL","name":"Gouda","stationCode":"GD","uicCode":"8400258"}],"direction":"BOTH"},"consequence":{"section":{"stations":[{"coordinate":{"lat":52.3788871765137,"lng":4.90027761459351},"countryCode":"NL","name":"Amsterdam Centraal","stationCode":"ASD","uicCode":"8400058"},{"coordinate":{"lat":52.3605537414551,"lng":4.93111133575439},"countryCode":"NL","name":"Amsterdam Muiderpoort","stationCode":"ASDM","uicCode":"8400060"},{"coordinate":{"lat":52.3466682434082,"lng":4.91777801513672},"countryCode":"NL","name":"Amsterdam Amstel","stationCode":"ASA","uicCode":"8400057"},{"coordinate":{"lat":52.3233337402344,"lng":4.93638896942139},"countryCode":"NL","name":"Duivendrecht","stationCode":"DVD","uicCode":"8400194"},{"coordinate":{"lat":52.3122215270996,"lng":4.94694423675537},"countryCode":"NL","name":"Amsterdam Bijlmer ArenA","stationCode":"ASB","uicCode":"8400074"},{"coordinate":{"lat":52.29844,"lng":4.95972},"countryCode":"NL","name":"Amsterdam Holendrecht","stationCode":"ASHD","uicCode":"8400231"},{"coordinate":{"lat":52.2785,"lng":4.977},"countryCode":"NL","name":"Abcoude","stationCode":"AC","uicCode":"8400047"},{"coordinate":{"lat":52.17149,"lng":4.9906},"countryCode":"NL","name":"Breukelen","stationCode":"BKL","uicCode":"8400133"}],"direction":"ONE_WAY"},"description":"geen Sprinters","level":"LESS_TRAINS"},"sectionType":"NL"},{"section":{"stations":[{"coordinate":{"lat":52.3788871765137,"lng":4.90027761459351},"countryCode":"NL","name":"Amsterdam Centraal","stationCode":"ASD","uicCode":"8400058"},{"coordinate":{"lat":52.3605537414551,"lng":4.93111133575439},"countryCode":"NL","name":"Amsterdam Muiderpoort","stationCode":"ASDM","uicCode":"8400060"},{"coordinate":{"lat":52.3466682434082,"lng":4.91777801513672},"countryCode":"NL","name":"Amsterdam Amstel","stationCode":"ASA","uicCode":"8400057"},{"coordinate":{"lat":52.3233337402344,"lng":4.93638896942139},"countryCode":"NL","name":"Duivendrecht","stationCode":"DVD","uicCode":"8400194"},{"coordinate":{"lat":52.3122215270996,"lng":4.94694423675537},"countryCode":"NL","name":"Amsterdam Bijlmer ArenA","stationCode":"ASB","uicCode":"8400074"},{"coordinate":{"lat":52.29844,"lng":4.95972},"countryCode":"NL","name":"Amsterdam Holendrecht","stationCode":"ASHD","uicCode":"8400231"},{"coordinate":{"lat":52.2785,"lng":4.977},"countryCode":"NL","name":"Abcoude","stationCode":"AC","uicCode":"8400047"},{"coordinate":{"lat":52.17149,"lng":4.9906},"countryCode":"NL","name":"Breukelen","stationCode":"BKL","uicCode":"8400133"},{"coordinate":{"lat":52.1352767944336,"lng":5.03361129760742},"countryCode":"NL","name":"Maarssen","stationCode":"MAS","uicCode":"8400419"},{"coordinate":{"lat":52.103055,"lng":5.09},"countryCode":"NL","name":"Utrecht Zuilen","stationCode":"UTZL","uicCode":"8400613"},{"coordinate":{"lat":52.0888900756836,"lng":5.11027765274048},"countryCode":"NL","name":"Utrecht Centraal","stationCode":"UT","uicCode":"8400621"}],"direction":"BOTH"},"consequence":{"section":{"stations":[{"coordinate":{"lat":52.17149,"lng":4.9906},"countryCode":"NL","name":"Breukelen","stationCode":"BKL","uicCode":"8400133"},{"coordinate":{"lat":52.1352767944336,"lng":5.03361129760742},"countryCode":"NL","name":"Maarssen","stationCode":"MAS","uicCode":"8400419"},{"coordinate":{"lat":52.103055,"lng":5.09},"countryCode":"NL","name":"Utrecht Zuilen","stationCode":"UTZL","uicCode":"8400613"},{"coordinate":{"lat":52.0888900756836,"lng":5.11027765274048},"countryCode":"NL","name":"Utrecht Centraal","stationCode":"UT","uicCode":"8400621"}],"direction":"ONE_WAY"},"description":"geen Sprinters","level":"LESS_TRAINS"},"sectionType":"NL"}],"timespans":[{"start":"2024-09-22T15:37:46+0200","end":"2024-09-22T17:00:00+0200","period":"Zondag 22 september 15:37 uur t/m zondag 22 september 17:00 uur.","situation":{"label":"Door een defect spoor: tussen Amsterdam Centraal en Breukelen rijden er geen Sprinters en tussen Breukelen en Utrecht Centraal rijden er geen Sprinters."},"cause":{"label":"defect spoor"},"advices":[]}],"alternativeTransportTimespans":[]},{"type":"CALAMITY","id":"2bec035b-d01a-42d8-adc5-eafd3319bd02","title":"Werkzaamheden: Almelo-Hengelo-Enschede","isActive":true,"topic":"disruption_2bec035b-d01a-42d8-adc5-eafd3319bd02_nl","description":"Door werkzaamheden rijden van maandag 23 september t/m donderdag 10 oktober geen treinen tussen Almelo, Hengelo en Enschede en aangrenzende trajecten van Blauwnet. De perioden zijn per traject verschillend. Er rijden bussen op de trajecten waar de treinen uitvallen. Plan je reis vooraf.","url":"https://www.ns.nl/reisinformatie/calamiteiten/werkzaamheden-almelo-hengelo-enschede.html","priority":"PRIO_3","lastUpdated":"2024-09-19T02:01:00+0200","bodyItems":[],"buttons":{"position":["BOTTOM"],"items":[{"label":"Plan je reis","accessibilityLabel":"Plan je reis","url":"https://www.ns.nl/reisplanner","type":"PLANNER"}]}},{"type":"MAINTENANCE","id":"7004492","title":"Groningen - Leer.","isActive":true,"local":false,"titleSections":[[{"type":"STATION","value":"Groningen"},{"type":"STATION","value":"Bad Nieuweschans"},{"type":"ICON","value":"MAINTENANCE"},{"type":"STATION","value":"Weener"},{"type":"STATION","value":"Leer (Ostfr.)"}]],"registrationTime":"2024-08-26T14:17:58+0200","start":"2024-02-01T04:00:00+0100","releaseTime":"2024-08-26T14:17:58+0200","end":"2024-12-14T23:59:00+0100","period":"Donderdag 1 februari 4:00 uur t/m zaterdag 14 december 23:59 uur.","impact":{"value":3},"publicationSections":[{"section":{"stations":[{"coordinate":{"lat":53.2105560302734,"lng":6.56472206115723},"countryCode":"NL","name":"Groningen","stationCode":"GN","uicCode":"8400263"},{"coordinate":{"lat":53.20480027,"lng":6.5854178},"countryCode":"NL","name":"Groningen Europapark","stationCode":"GERP","uicCode":"8400238"},{"coordinate":{"lat":53.1617362,"lng":6.7220882},"countryCode":"NL","name":"Kropswolde","stationCode":"KW","uicCode":"8400369"},{"coordinate":{"lat":53.1607232,"lng":6.7402989},"countryCode":"NL","name":"Martenshoek","stationCode":"MTH","uicCode":"8400430"},{"coordinate":{"lat":53.1598181316756,"lng":6.77075386047363},"countryCode":"NL","name":"Hoogezand-Sappemeer","stationCode":"HGZ","uicCode":"8400331"},{"coordinate":{"lat":53.1596122800056,"lng":6.8679141998291},"countryCode":"NL","name":"Zuidbroek","stationCode":"ZB","uicCode":"8400742"},{"coordinate":{"lat":53.1655362,"lng":6.9777775},"countryCode":"NL","name":"Scheemda","stationCode":"SDA","uicCode":"8400551"},{"coordinate":{"lat":53.1392377,"lng":7.035101},"countryCode":"NL","name":"Winschoten","stationCode":"WS","uicCode":"8400696"},{"coordinate":{"lat":53.1844,"lng":7.19937},"countryCode":"NL","name":"Bad Nieuweschans","stationCode":"NSCH","uicCode":"8400457"},{"coordinate":{"lat":53.16311,"lng":7.3442},"countryCode":"D","name":"Weener","stationCode":"WR","uicCode":"8021239"},{"coordinate":{"lat":53.23165,"lng":7.465283},"countryCode":"D","name":"Leer (Ostfriesl)","stationCode":"LEER","uicCode":"8021091"}],"direction":"BOTH"},"consequence":{"section":{"stations":[{"coordinate":{"lat":53.1844,"lng":7.19937},"countryCode":"NL","name":"Bad Nieuweschans","stationCode":"NSCH","uicCode":"8400457"},{"coordinate":{"lat":53.16311,"lng":7.3442},"countryCode":"D","name":"Weener","stationCode":"WR","uicCode":"8021239"}],"direction":"ONE_WAY"},"description":"rijden bussen","level":"LESS_TRAINS"},"sectionType":"NEIGHBORING_COUNTRY"}],"summaryAdditionalTravelTime":{"label":"De extra reistijd kan oplopen tot 30 minuten.","shortLabel":"extra reistijd tot 30 min.","maximumDurationInMinutes":30},"timespans":[{"start":"2024-02-01T04:00:00+0100","end":"2024-12-14T23:59:00+0100","period":"Donderdag 1 februari 4:00 uur t/m zaterdag 14 december 23:59 uur.","situation":{"label":"Door werkzaamheden: tussen Bad Nieuweschans en Weener rijden er bussen."},"cause":{"label":"werkzaamheden"},"additionalTravelTime":{"label":"De extra reistijd kan oplopen tot 30 minuten.","shortLabel":"extra reistijd tot 30 min.","maximumDurationInMinutes":30},"alternativeTransport":{"label":"er rijden stopbussen","shortLabel":"er rijden stopbussen"},"advices":["Op dit moment is er nog geen exacte einddatum bekend."]}],"alternativeTransportTimespans":[{"start":"2024-02-01T04:00:00+0100","end":"2024-12-14T23:59:00+0100","alternativeTransport":{"location":[{"station":{"coordinate":{"lat":53.1844,"lng":7.19937},"countryCode":"NL","name":"Bad Nieuweschans","stationCode":"NSCH","uicCode":"8400457"},"description":"vanaf de voorzijde van het station"},{"station":{"coordinate":{"lat":53.16311,"lng":7.3442},"countryCode":"D","name":"Weener","stationCode":"WR","uicCode":"8021239"},"description":"vanaf de voorzijde van het station"},{"station":{"coordinate":{"lat":53.23165,"lng":7.465283},"countryCode":"D","name":"Leer (Ostfriesl)","stationCode":"LEER","uicCode":"8021091"},"description":"vanaf het busstation"}],"label":"Er rijden stopbussen tussen Bad Nieuweschans, Weener en Leer (Ostfriesl).","shortLabel":"er rijden stopbussen Bad Nieuweschans - Weener - Leer (Ostfr.)"}}]},{"type":"MAINTENANCE","id":"7005297","title":"Dordrecht - Roosendaal.","isActive":true,"local":false,"titleSections":[[{"type":"STATION","value":"Dordrecht"},{"type":"STATION","value":"Lage Zwaluwe"},{"type":"ICON","value":"MAINTENANCE"},{"type":"STATION","value":"Roosendaal"}],[{"type":"STATION","value":"Dordrecht"},{"type":"ICON","value":"MAINTENANCE"},{"type":"STATION","value":"Roosendaal"}]],"registrationTime":"2024-09-18T11:26:18+0200","start":"2024-09-16T00:00:00+0200","releaseTime":"2024-09-18T11:26:18+0200","end":"2024-10-01T07:00:00+0200","period":"Maandag 16 september 0:00 uur t/m dinsdag 1 oktober 7:00 uur.","impact":{"value":5},"publicationSections":[{"section":{"stations":[{"coordinate":{"lat":51.8072204589844,"lng":4.66833353042603},"countryCode":"NL","name":"Dordrecht","stationCode":"DDR","uicCode":"8400180"},{"coordinate":{"lat":51.7900009155273,"lng":4.67138910293579},"countryCode":"NL","name":"Dordrecht Zuid","stationCode":"DDZD","uicCode":"8400181"},{"coordinate":{"lat":51.6911125183105,"lng":4.66305541992188},"countryCode":"NL","name":"Lage Zwaluwe","stationCode":"ZLW","uicCode":"8400382"},{"coordinate":{"lat":51.64042,"lng":4.60904},"countryCode":"NL","name":"Zevenbergen","stationCode":"ZVB","uicCode":"8400737"},{"coordinate":{"lat":51.587776184082,"lng":4.53333330154419},"countryCode":"NL","name":"Oudenbosch","stationCode":"ODB","uicCode":"8400498"},{"coordinate":{"lat":51.5402793884277,"lng":4.45833349227905},"countryCode":"NL","name":"Roosendaal","stationCode":"RSD","uicCode":"8400526"}],"direction":"BOTH"},"consequence":{"section":{"stations":[{"coordinate":{"lat":51.6911125183105,"lng":4.66305541992188},"countryCode":"NL","name":"Lage Zwaluwe","stationCode":"ZLW","uicCode":"8400382"},{"coordinate":{"lat":51.64042,"lng":4.60904},"countryCode":"NL","name":"Zevenbergen","stationCode":"ZVB","uicCode":"8400737"},{"coordinate":{"lat":51.587776184082,"lng":4.53333330154419},"countryCode":"NL","name":"Oudenbosch","stationCode":"ODB","uicCode":"8400498"},{"coordinate":{"lat":51.5402793884277,"lng":4.45833349227905},"countryCode":"NL","name":"Roosendaal","stationCode":"RSD","uicCode":"8400526"}],"direction":"ONE_WAY"},"description":"rijden bussen","level":"LESS_TRAINS"},"sectionType":"NL"},{"section":{"stations":[{"coordinate":{"lat":51.8072204589844,"lng":4.66833353042603},"countryCode":"NL","name":"Dordrecht","stationCode":"DDR","uicCode":"8400180"},{"coordinate":{"lat":51.7900009155273,"lng":4.67138910293579},"countryCode":"NL","name":"Dordrecht Zuid","stationCode":"DDZD","uicCode":"8400181"},{"coordinate":{"lat":51.6911125183105,"lng":4.66305541992188},"countryCode":"NL","name":"Lage Zwaluwe","stationCode":"ZLW","uicCode":"8400382"},{"coordinate":{"lat":51.64042,"lng":4.60904},"countryCode":"NL","name":"Zevenbergen","stationCode":"ZVB","uicCode":"8400737"},{"coordinate":{"lat":51.587776184082,"lng":4.53333330154419},"countryCode":"NL","name":"Oudenbosch","stationCode":"ODB","uicCode":"8400498"},{"coordinate":{"lat":51.5402793884277,"lng":4.45833349227905},"countryCode":"NL","name":"Roosendaal","stationCode":"RSD","uicCode":"8400526"}],"direction":"BOTH"},"consequence":{"section":{"stations":[{"coordinate":{"lat":51.8072204589844,"lng":4.66833353042603},"countryCode":"NL","name":"Dordrecht","stationCode":"DDR","uicCode":"8400180"},{"coordinate":{"lat":51.7900009155273,"lng":4.67138910293579},"countryCode":"NL","name":"Dordrecht Zuid","stationCode":"DDZD","uicCode":"8400181"},{"coordinate":{"lat":51.6911125183105,"lng":4.66305541992188},"countryCode":"NL","name":"Lage Zwaluwe","stationCode":"ZLW","uicCode":"8400382"},{"coordinate":{"lat":51.64042,"lng":4.60904},"countryCode":"NL","name":"Zevenbergen","stationCode":"ZVB","uicCode":"8400737"},{"coordinate":{"lat":51.587776184082,"lng":4.53333330154419},"countryCode":"NL","name":"Oudenbosch","stationCode":"ODB","uicCode":"8400498"},{"coordinate":{"lat":51.5402793884277,"lng":4.45833349227905},"countryCode":"NL","name":"Roosendaal","stationCode":"RSD","uicCode":"8400526"}],"direction":"ONE_WAY"},"description":"rijden bussen","level":"LESS_TRAINS"},"sectionType":"NL"}],"summaryAdditionalTravelTime":{"label":"De extra reistijd kan oplopen tot 30 minuten.","shortLabel":"Extra reistijd tot 30 min.","minimumDurationInMinutes":30,"maximumDurationInMinutes":30},"timespans":[{"start":"2024-09-21T04:00:00+0200","end":"2024-09-23T02:00:00+0200","period":"Zaterdag 21 september 4:00 uur t/m maandag 23 september 2:00 uur.","situation":{"label":"Door werkzaamheden: tussen Dordrecht en Roosendaal rijden er bussen."},"cause":{"label":"werkzaamheden"},"additionalTravelTime":{"label":"De extra reistijd is ongeveer 30 minuten.","shortLabel":"Extra reistijd 30 min.","minimumDurationInMinutes":30,"maximumDurationInMinutes":30},"alternativeTransport":{"label":"maak gebruik van het vervangende vervoer","shortLabel":"gebruik het vervangende vervoer"},"advices":["Tussen Rotterdam C. en Roosendaal reis via Breda.","Tussen Dordrecht Zuid en Lage Zwaluwe reis via Dordrecht."]},{"start":"2024-09-23T04:00:00+0200","end":"2024-10-01T07:00:00+0200","period":"Maandag 23 september 4:00 uur t/m dinsdag 1 oktober 7:00 uur.","situation":{"label":"Door werkzaamheden: tussen Lage Zwaluwe en Roosendaal rijden er bussen."},"cause":{"label":"werkzaamheden"},"additionalTravelTime":{"label":"De extra reistijd is ongeveer 30 minuten.","shortLabel":"Extra reistijd 30 min.","minimumDurationInMinutes":30,"maximumDurationInMinutes":30},"alternativeTransport":{"label":"er rijden stopbussen","shortLabel":"er rijden stopbussen"},"advices":["Tussen Dordrecht en Roosendaal reis via Breda."]}],"alternativeTransportTimespans":[{"start":"2024-09-16T00:00:00+0200","end":"2024-09-16T01:40:00+0200","alternativeTransport":{"location":[{"station":{"coordinate":{"lat":51.6911125183105,"lng":4.66305541992188},"countryCode":"NL","name":"Lage Zwaluwe","stationCode":"ZLW","uicCode":"8400382"},"description":"vanaf de Westelijke Parallelweg"},{"station":{"coordinate":{"lat":51.64042,"lng":4.60904},"countryCode":"NL","name":"Zevenbergen","stationCode":"ZVB","uicCode":"8400737"},"description":"vanaf de Stationslaan"},{"station":{"coordinate":{"lat":51.587776184082,"lng":4.53333330154419},"countryCode":"NL","name":"Oudenbosch","stationCode":"ODB","uicCode":"8400498"},"description":"vanaf de Stationsstraat"},{"station":{"coordinate":{"lat":51.5402793884277,"lng":4.45833349227905},"countryCode":"NL","name":"Roosendaal","stationCode":"RSD","uicCode":"8400526"},"description":"vanaf de voorzijde van het station"}],"label":"Er rijden stopbussen tussen Lage Zwaluwe, Zevenbergen, Oudenbosch en Roosendaal.","shortLabel":"Er rijden stopbussen Lage Zwaluwe - Zevenbergen - Oudenbosch - Roosendaal."}},{"start":"2024-09-16T08:42:00+0200","end":"2024-09-21T04:00:00+0200","alternativeTransport":{"location":[{"station":{"coordinate":{"lat":51.6911125183105,"lng":4.66305541992188},"countryCode":"NL","name":"Lage Zwaluwe","stationCode":"ZLW","uicCode":"8400382"},"description":"vanaf de Westelijke Parallelweg"},{"station":{"coordinate":{"lat":51.64042,"lng":4.60904},"countryCode":"NL","name":"Zevenbergen","stationCode":"ZVB","uicCode":"8400737"},"description":"vanaf de Stationslaan"},{"station":{"coordinate":{"lat":51.587776184082,"lng":4.53333330154419},"countryCode":"NL","name":"Oudenbosch","stationCode":"ODB","uicCode":"8400498"},"description":"vanaf de Stationsstraat"},{"station":{"coordinate":{"lat":51.5402793884277,"lng":4.45833349227905},"countryCode":"NL","name":"Roosendaal","stationCode":"RSD","uicCode":"8400526"},"description":"vanaf de voorzijde van het station"}],"label":"Er rijden stopbussen tussen Lage Zwaluwe, Zevenbergen, Oudenbosch en Roosendaal.","shortLabel":"Er rijden stopbussen Lage Zwaluwe - Zevenbergen - Oudenbosch - Roosendaal."}},{"start":"2024-09-17T01:15:00+0200","end":"2024-09-17T02:35:00+0200","alternativeTransport":{"location":[{"station":{"coordinate":{"lat":51.8072204589844,"lng":4.66833353042603},"countryCode":"NL","name":"Dordrecht","stationCode":"DDR","uicCode":"8400180"},"description":"vanaf de Burgemeester de Raadtsingel"},{"station":{"coordinate":{"lat":51.7900009155273,"lng":4.67138910293579},"countryCode":"NL","name":"Dordrecht Zuid","stationCode":"DDZD","uicCode":"8400181"},"description":"vanaf de Spirea"},{"station":{"coordinate":{"lat":51.6911125183105,"lng":4.66305541992188},"countryCode":"NL","name":"Lage Zwaluwe","stationCode":"ZLW","uicCode":"8400382"},"description":"vanaf de Westelijke Parallelweg"},{"station":{"coordinate":{"lat":51.64042,"lng":4.60904},"countryCode":"NL","name":"Zevenbergen","stationCode":"ZVB","uicCode":"8400737"},"description":"vanaf de Stationslaan"},{"station":{"coordinate":{"lat":51.587776184082,"lng":4.53333330154419},"countryCode":"NL","name":"Oudenbosch","stationCode":"ODB","uicCode":"8400498"},"description":"vanaf de Stationsstraat"},{"station":{"coordinate":{"lat":51.5402793884277,"lng":4.45833349227905},"countryCode":"NL","name":"Roosendaal","stationCode":"RSD","uicCode":"8400526"},"description":"vanaf de voorzijde van het station"}],"label":"Er rijden stopbussen van Dordrecht, Dordrecht Zuid, Lage Zwaluwe, Zevenbergen, Oudenbosch naar Roosendaal.","shortLabel":"Er rijden stopbussen Dordrecht -> Dordrecht Zuid -> Lage Zwaluwe -> Zevenbergen -> Oudenbosch -> Roosendaal."}},{"start":"2024-09-17T05:45:00+0200","end":"2024-09-17T06:00:00+0200","alternativeTransport":{"location":[{"station":{"coordinate":{"lat":51.8072204589844,"lng":4.66833353042603},"countryCode":"NL","name":"Dordrecht","stationCode":"DDR","uicCode":"8400180"},"description":"vanaf de Burgemeester de Raadtsingel"},{"station":{"coordinate":{"lat":51.7900009155273,"lng":4.67138910293579},"countryCode":"NL","name":"Dordrecht Zuid","stationCode":"DDZD","uicCode":"8400181"},"description":"vanaf de Spirea"},{"station":{"coordinate":{"lat":51.6911125183105,"lng":4.66305541992188},"countryCode":"NL","name":"Lage Zwaluwe","stationCode":"ZLW","uicCode":"8400382"},"description":"vanaf de Westelijke Parallelweg"},{"station":{"coordinate":{"lat":51.64042,"lng":4.60904},"countryCode":"NL","name":"Zevenbergen","stationCode":"ZVB","uicCode":"8400737"},"description":"vanaf de Stationslaan"},{"station":{"coordinate":{"lat":51.587776184082,"lng":4.53333330154419},"countryCode":"NL","name":"Oudenbosch","stationCode":"ODB","uicCode":"8400498"},"description":"vanaf de Stationsstraat"},{"station":{"coordinate":{"lat":51.5402793884277,"lng":4.45833349227905},"countryCode":"NL","name":"Roosendaal","stationCode":"RSD","uicCode":"8400526"},"description":"vanaf de voorzijde van het station"}],"label":"Er rijden stopbussen van Dordrecht, Dordrecht Zuid, Lage Zwaluwe, Zevenbergen, Oudenbosch naar Roosendaal.","shortLabel":"Er rijden stopbussen Dordrecht -> Dordrecht Zuid -> Lage Zwaluwe -> Zevenbergen -> Oudenbosch -> Roosendaal."}},{"start":"2024-09-18T05:45:00+0200","end":"2024-09-18T06:00:00+0200","alternativeTransport":{"location":[{"station":{"coordinate":{"lat":51.8072204589844,"lng":4.66833353042603},"countryCode":"NL","name":"Dordrecht","stationCode":"DDR","uicCode":"8400180"},"description":"vanaf de Burgemeester de Raadtsingel"},{"station":{"coordinate":{"lat":51.7900009155273,"lng":4.67138910293579},"countryCode":"NL","name":"Dordrecht Zuid","stationCode":"DDZD","uicCode":"8400181"},"description":"vanaf de Spirea"},{"station":{"coordinate":{"lat":51.6911125183105,"lng":4.66305541992188},"countryCode":"NL","name":"Lage Zwaluwe","stationCode":"ZLW","uicCode":"8400382"},"description":"vanaf de Westelijke Parallelweg"},{"station":{"coordinate":{"lat":51.64042,"lng":4.60904},"countryCode":"NL","name":"Zevenbergen","stationCode":"ZVB","uicCode":"8400737"},"description":"vanaf de Stationslaan"},{"station":{"coordinate":{"lat":51.587776184082,"lng":4.53333330154419},"countryCode":"NL","name":"Oudenbosch","stationCode":"ODB","uicCode":"8400498"},"description":"vanaf de Stationsstraat"},{"station":{"coordinate":{"lat":51.5402793884277,"lng":4.45833349227905},"countryCode":"NL","name":"Roosendaal","stationCode":"RSD","uicCode":"8400526"},"description":"vanaf de voorzijde van het station"}],"label":"Er rijden stopbussen van Dordrecht, Dordrecht Zuid, Lage Zwaluwe, Zevenbergen, Oudenbosch naar Roosendaal.","shortLabel":"Er rijden stopbussen Dordrecht -> Dordrecht Zuid -> Lage Zwaluwe -> Zevenbergen -> Oudenbosch -> Roosendaal."}},{"start":"2024-09-19T05:45:00+0200","end":"2024-09-19T06:00:00+0200","alternativeTransport":{"location":[{"station":{"coordinate":{"lat":51.8072204589844,"lng":4.66833353042603},"countryCode":"NL","name":"Dordrecht","stationCode":"DDR","uicCode":"8400180"},"description":"vanaf de Burgemeester de Raadtsingel"},{"station":{"coordinate":{"lat":51.7900009155273,"lng":4.67138910293579},"countryCode":"NL","name":"Dordrecht Zuid","stationCode":"DDZD","uicCode":"8400181"},"description":"vanaf de Spirea"},{"station":{"coordinate":{"lat":51.6911125183105,"lng":4.66305541992188},"countryCode":"NL","name":"Lage Zwaluwe","stationCode":"ZLW","uicCode":"8400382"},"description":"vanaf de Westelijke Parallelweg"},{"station":{"coordinate":{"lat":51.64042,"lng":4.60904},"countryCode":"NL","name":"Zevenbergen","stationCode":"ZVB","uicCode":"8400737"},"description":"vanaf de Stationslaan"},{"station":{"coordinate":{"lat":51.587776184082,"lng":4.53333330154419},"countryCode":"NL","name":"Oudenbosch","stationCode":"ODB","uicCode":"8400498"},"description":"vanaf de Stationsstraat"},{"station":{"coordinate":{"lat":51.5402793884277,"lng":4.45833349227905},"countryCode":"NL","name":"Roosendaal","stationCode":"RSD","uicCode":"8400526"},"description":"vanaf de voorzijde van het station"}],"label":"Er rijden stopbussen van Dordrecht, Dordrecht Zuid, Lage Zwaluwe, Zevenbergen, Oudenbosch naar Roosendaal.","shortLabel":"Er rijden stopbussen Dordrecht -> Dordrecht Zuid -> Lage Zwaluwe -> Zevenbergen -> Oudenbosch -> Roosendaal."}},{"start":"2024-09-20T05:45:00+0200","end":"2024-09-20T06:00:00+0200","alternativeTransport":{"location":[{"station":{"coordinate":{"lat":51.8072204589844,"lng":4.66833353042603},"countryCode":"NL","name":"Dordrecht","stationCode":"DDR","uicCode":"8400180"},"description":"vanaf de Burgemeester de Raadtsingel"},{"station":{"coordinate":{"lat":51.7900009155273,"lng":4.67138910293579},"countryCode":"NL","name":"Dordrecht Zuid","stationCode":"DDZD","uicCode":"8400181"},"description":"vanaf de Spirea"},{"station":{"coordinate":{"lat":51.6911125183105,"lng":4.66305541992188},"countryCode":"NL","name":"Lage Zwaluwe","stationCode":"ZLW","uicCode":"8400382"},"description":"vanaf de Westelijke Parallelweg"},{"station":{"coordinate":{"lat":51.64042,"lng":4.60904},"countryCode":"NL","name":"Zevenbergen","stationCode":"ZVB","uicCode":"8400737"},"description":"vanaf de Stationslaan"},{"station":{"coordinate":{"lat":51.587776184082,"lng":4.53333330154419},"countryCode":"NL","name":"Oudenbosch","stationCode":"ODB","uicCode":"8400498"},"description":"vanaf de Stationsstraat"},{"station":{"coordinate":{"lat":51.5402793884277,"lng":4.45833349227905},"countryCode":"NL","name":"Roosendaal","stationCode":"RSD","uicCode":"8400526"},"description":"vanaf de voorzijde van het station"}],"label":"Er rijden stopbussen van Dordrecht, Dordrecht Zuid, Lage Zwaluwe, Zevenbergen, Oudenbosch naar Roosendaal.","shortLabel":"Er rijden stopbussen Dordrecht -> Dordrecht Zuid -> Lage Zwaluwe -> Zevenbergen -> Oudenbosch -> Roosendaal."}},{"start":"2024-09-21T06:20:00+0200","end":"2024-09-22T23:50:00+0200","alternativeTransport":{"location":[{"station":{"coordinate":{"lat":51.8072204589844,"lng":4.66833353042603},"countryCode":"NL","name":"Dordrecht","stationCode":"DDR","uicCode":"8400180"},"description":"vanaf de Burgemeester de Raadtsingel"},{"station":{"coordinate":{"lat":51.5402793884277,"lng":4.45833349227905},"countryCode":"NL","name":"Roosendaal","stationCode":"RSD","uicCode":"8400526"},"description":"vanaf de voorzijde van het station"}],"label":"Er rijden snelbussen tussen Dordrecht en Roosendaal.","shortLabel":"Er rijden snelbussen Dordrecht - Roosendaal."}},{"start":"2024-09-21T06:20:00+0200","end":"2024-09-22T23:50:00+0200","alternativeTransport":{"location":[{"station":{"coordinate":{"lat":51.8072204589844,"lng":4.66833353042603},"countryCode":"NL","name":"Dordrecht","stationCode":"DDR","uicCode":"8400180"},"description":"vanaf de Burgemeester de Raadtsingel"},{"station":{"coordinate":{"lat":51.6911125183105,"lng":4.66305541992188},"countryCode":"NL","name":"Lage Zwaluwe","stationCode":"ZLW","uicCode":"8400382"},"description":"vanaf de Westelijke Parallelweg"},{"station":{"coordinate":{"lat":51.64042,"lng":4.60904},"countryCode":"NL","name":"Zevenbergen","stationCode":"ZVB","uicCode":"8400737"},"description":"vanaf de Stationslaan"},{"station":{"coordinate":{"lat":51.587776184082,"lng":4.53333330154419},"countryCode":"NL","name":"Oudenbosch","stationCode":"ODB","uicCode":"8400498"},"description":"vanaf de Stationsstraat"},{"station":{"coordinate":{"lat":51.5402793884277,"lng":4.45833349227905},"countryCode":"NL","name":"Roosendaal","stationCode":"RSD","uicCode":"8400526"},"description":"vanaf de voorzijde van het station"}],"label":"Er rijden stopbussen tussen Dordrecht, Lage Zwaluwe, Zevenbergen, Oudenbosch en Roosendaal.","shortLabel":"Er rijden stopbussen Dordrecht - Lage Zwaluwe - Zevenbergen - Oudenbosch - Roosendaal."}},{"start":"2024-09-21T06:20:00+0200","end":"2024-09-22T23:50:00+0200","alternativeTransport":{"location":[{"station":{"coordinate":{"lat":51.8072204589844,"lng":4.66833353042603},"countryCode":"NL","name":"Dordrecht","stationCode":"DDR","uicCode":"8400180"},"description":"vanaf de Burgemeester de Raadtsingel"},{"station":{"coordinate":{"lat":51.7900009155273,"lng":4.67138910293579},"countryCode":"NL","name":"Dordrecht Zuid","stationCode":"DDZD","uicCode":"8400181"},"description":"vanaf de Spirea"}],"label":"Er rijden taxibusjes tussen Dordrecht en Dordrecht Zuid.","shortLabel":"Er rijden taxibusjes Dordrecht - Dordrecht Zuid."}},{"start":"2024-09-23T00:00:00+0200","end":"2024-09-23T01:50:00+0200","alternativeTransport":{"location":[{"station":{"coordinate":{"lat":51.8072204589844,"lng":4.66833353042603},"countryCode":"NL","name":"Dordrecht","stationCode":"DDR","uicCode":"8400180"},"description":"vanaf de Burgemeester de Raadtsingel"},{"station":{"coordinate":{"lat":51.7900009155273,"lng":4.67138910293579},"countryCode":"NL","name":"Dordrecht Zuid","stationCode":"DDZD","uicCode":"8400181"},"description":"vanaf de Spirea"},{"station":{"coordinate":{"lat":51.6911125183105,"lng":4.66305541992188},"countryCode":"NL","name":"Lage Zwaluwe","stationCode":"ZLW","uicCode":"8400382"},"description":"vanaf de Westelijke Parallelweg"},{"station":{"coordinate":{"lat":51.64042,"lng":4.60904},"countryCode":"NL","name":"Zevenbergen","stationCode":"ZVB","uicCode":"8400737"},"description":"vanaf de Stationslaan"},{"station":{"coordinate":{"lat":51.587776184082,"lng":4.53333330154419},"countryCode":"NL","name":"Oudenbosch","stationCode":"ODB","uicCode":"8400498"},"description":"vanaf de Stationsstraat"},{"station":{"coordinate":{"lat":51.5402793884277,"lng":4.45833349227905},"countryCode":"NL","name":"Roosendaal","stationCode":"RSD","uicCode":"8400526"},"description":"vanaf de voorzijde van het station"}],"label":"Er rijden stopbussen van Dordrecht, Dordrecht Zuid, Lage Zwaluwe, Zevenbergen, Oudenbosch naar Roosendaal.","shortLabel":"Er rijden stopbussen Dordrecht -> Dordrecht Zuid -> Lage Zwaluwe -> Zevenbergen -> Oudenbosch -> Roosendaal."}},{"start":"2024-09-23T04:00:00+0200","end":"2024-10-01T07:00:00+0200","alternativeTransport":{"location":[{"station":{"coordinate":{"lat":51.6911125183105,"lng":4.66305541992188},"countryCode":"NL","name":"Lage Zwaluwe","stationCode":"ZLW","uicCode":"8400382"},"description":"vanaf de Westelijke Parallelweg"},{"station":{"coordinate":{"lat":51.64042,"lng":4.60904},"countryCode":"NL","name":"Zevenbergen","stationCode":"ZVB","uicCode":"8400737"},"description":"vanaf de Stationslaan"},{"station":{"coordinate":{"lat":51.587776184082,"lng":4.53333330154419},"countryCode":"NL","name":"Oudenbosch","stationCode":"ODB","uicCode":"8400498"},"description":"vanaf de Stationsstraat"},{"station":{"coordinate":{"lat":51.5402793884277,"lng":4.45833349227905},"countryCode":"NL","name":"Roosendaal","stationCode":"RSD","uicCode":"8400526"},"description":"vanaf de voorzijde van het station"}],"label":"Er rijden stopbussen tussen Lage Zwaluwe, Zevenbergen, Oudenbosch en Roosendaal.","shortLabel":"Er rijden stopbussen Lage Zwaluwe - Zevenbergen - Oudenbosch - Roosendaal."}},{"start":"2024-09-23T05:45:00+0200","end":"2024-09-23T06:00:00+0200","alternativeTransport":{"location":[{"station":{"coordinate":{"lat":51.8072204589844,"lng":4.66833353042603},"countryCode":"NL","name":"Dordrecht","stationCode":"DDR","uicCode":"8400180"},"description":"vanaf de Burgemeester de Raadtsingel"},{"station":{"coordinate":{"lat":51.7900009155273,"lng":4.67138910293579},"countryCode":"NL","name":"Dordrecht Zuid","stationCode":"DDZD","uicCode":"8400181"},"description":"vanaf de Spirea"},{"station":{"coordinate":{"lat":51.6911125183105,"lng":4.66305541992188},"countryCode":"NL","name":"Lage Zwaluwe","stationCode":"ZLW","uicCode":"8400382"},"description":"vanaf de Westelijke Parallelweg"},{"station":{"coordinate":{"lat":51.64042,"lng":4.60904},"countryCode":"NL","name":"Zevenbergen","stationCode":"ZVB","uicCode":"8400737"},"description":"vanaf de Stationslaan"},{"station":{"coordinate":{"lat":51.587776184082,"lng":4.53333330154419},"countryCode":"NL","name":"Oudenbosch","stationCode":"ODB","uicCode":"8400498"},"description":"vanaf de Stationsstraat"},{"station":{"coordinate":{"lat":51.5402793884277,"lng":4.45833349227905},"countryCode":"NL","name":"Roosendaal","stationCode":"RSD","uicCode":"8400526"},"description":"vanaf de voorzijde van het station"}],"label":"Er rijden stopbussen van Dordrecht, Dordrecht Zuid, Lage Zwaluwe, Zevenbergen, Oudenbosch naar Roosendaal.","shortLabel":"Er rijden stopbussen Dordrecht -> Dordrecht Zuid -> Lage Zwaluwe -> Zevenbergen -> Oudenbosch -> Roosendaal."}},{"start":"2024-09-24T05:45:00+0200","end":"2024-09-24T06:00:00+0200","alternativeTransport":{"location":[{"station":{"coordinate":{"lat":51.8072204589844,"lng":4.66833353042603},"countryCode":"NL","name":"Dordrecht","stationCode":"DDR","uicCode":"8400180"},"description":"vanaf de Burgemeester de Raadtsingel"},{"station":{"coordinate":{"lat":51.7900009155273,"lng":4.67138910293579},"countryCode":"NL","name":"Dordrecht Zuid","stationCode":"DDZD","uicCode":"8400181"},"description":"vanaf de Spirea"},{"station":{"coordinate":{"lat":51.6911125183105,"lng":4.66305541992188},"countryCode":"NL","name":"Lage Zwaluwe","stationCode":"ZLW","uicCode":"8400382"},"description":"vanaf de Westelijke Parallelweg"},{"station":{"coordinate":{"lat":51.64042,"lng":4.60904},"countryCode":"NL","name":"Zevenbergen","stationCode":"ZVB","uicCode":"8400737"},"description":"vanaf de Stationslaan"},{"station":{"coordinate":{"lat":51.587776184082,"lng":4.53333330154419},"countryCode":"NL","name":"Oudenbosch","stationCode":"ODB","uicCode":"8400498"},"description":"vanaf de Stationsstraat"},{"station":{"coordinate":{"lat":51.5402793884277,"lng":4.45833349227905},"countryCode":"NL","name":"Roosendaal","stationCode":"RSD","uicCode":"8400526"},"description":"vanaf de voorzijde van het station"}],"label":"Er rijden stopbussen van Dordrecht, Dordrecht Zuid, Lage Zwaluwe, Zevenbergen, Oudenbosch naar Roosendaal.","shortLabel":"Er rijden stopbussen Dordrecht -> Dordrecht Zuid -> Lage Zwaluwe -> Zevenbergen -> Oudenbosch -> Roosendaal."}},{"start":"2024-09-25T05:45:00+0200","end":"2024-09-25T06:00:00+0200","alternativeTransport":{"location":[{"station":{"coordinate":{"lat":51.8072204589844,"lng":4.66833353042603},"countryCode":"NL","name":"Dordrecht","stationCode":"DDR","uicCode":"8400180"},"description":"vanaf de Burgemeester de Raadtsingel"},{"station":{"coordinate":{"lat":51.7900009155273,"lng":4.67138910293579},"countryCode":"NL","name":"Dordrecht Zuid","stationCode":"DDZD","uicCode":"8400181"},"description":"vanaf de Spirea"},{"station":{"coordinate":{"lat":51.6911125183105,"lng":4.66305541992188},"countryCode":"NL","name":"Lage Zwaluwe","stationCode":"ZLW","uicCode":"8400382"},"description":"vanaf de Westelijke Parallelweg"},{"station":{"coordinate":{"lat":51.64042,"lng":4.60904},"countryCode":"NL","name":"Zevenbergen","stationCode":"ZVB","uicCode":"8400737"},"description":"vanaf de Stationslaan"},{"station":{"coordinate":{"lat":51.587776184082,"lng":4.53333330154419},"countryCode":"NL","name":"Oudenbosch","stationCode":"ODB","uicCode":"8400498"},"description":"vanaf de Stationsstraat"},{"station":{"coordinate":{"lat":51.5402793884277,"lng":4.45833349227905},"countryCode":"NL","name":"Roosendaal","stationCode":"RSD","uicCode":"8400526"},"description":"vanaf de voorzijde van het station"}],"label":"Er rijden stopbussen van Dordrecht, Dordrecht Zuid, Lage Zwaluwe, Zevenbergen, Oudenbosch naar Roosendaal.","shortLabel":"Er rijden stopbussen Dordrecht -> Dordrecht Zuid -> Lage Zwaluwe -> Zevenbergen -> Oudenbosch -> Roosendaal."}},{"start":"2024-09-26T05:45:00+0200","end":"2024-09-26T06:00:00+0200","alternativeTransport":{"location":[{"station":{"coordinate":{"lat":51.8072204589844,"lng":4.66833353042603},"countryCode":"NL","name":"Dordrecht","stationCode":"DDR","uicCode":"8400180"},"description":"vanaf de Burgemeester de Raadtsingel"},{"station":{"coordinate":{"lat":51.7900009155273,"lng":4.67138910293579},"countryCode":"NL","name":"Dordrecht Zuid","stationCode":"DDZD","uicCode":"8400181"},"description":"vanaf de Spirea"},{"station":{"coordinate":{"lat":51.6911125183105,"lng":4.66305541992188},"countryCode":"NL","name":"Lage Zwaluwe","stationCode":"ZLW","uicCode":"8400382"},"description":"vanaf de Westelijke Parallelweg"},{"station":{"coordinate":{"lat":51.64042,"lng":4.60904},"countryCode":"NL","name":"Zevenbergen","stationCode":"ZVB","uicCode":"8400737"},"description":"vanaf de Stationslaan"},{"station":{"coordinate":{"lat":51.587776184082,"lng":4.53333330154419},"countryCode":"NL","name":"Oudenbosch","stationCode":"ODB","uicCode":"8400498"},"description":"vanaf de Stationsstraat"},{"station":{"coordinate":{"lat":51.5402793884277,"lng":4.45833349227905},"countryCode":"NL","name":"Roosendaal","stationCode":"RSD","uicCode":"8400526"},"description":"vanaf de voorzijde van het station"}],"label":"Er rijden stopbussen van Dordrecht, Dordrecht Zuid, Lage Zwaluwe, Zevenbergen, Oudenbosch naar Roosendaal.","shortLabel":"Er rijden stopbussen Dordrecht -> Dordrecht Zuid -> Lage Zwaluwe -> Zevenbergen -> Oudenbosch -> Roosendaal."}},{"start":"2024-09-27T01:15:00+0200","end":"2024-09-27T02:35:00+0200","alternativeTransport":{"location":[{"station":{"coordinate":{"lat":51.8072204589844,"lng":4.66833353042603},"countryCode":"NL","name":"Dordrecht","stationCode":"DDR","uicCode":"8400180"},"description":"vanaf de Burgemeester de Raadtsingel"},{"station":{"coordinate":{"lat":51.7900009155273,"lng":4.67138910293579},"countryCode":"NL","name":"Dordrecht Zuid","stationCode":"DDZD","uicCode":"8400181"},"description":"vanaf de Spirea"},{"station":{"coordinate":{"lat":51.6911125183105,"lng":4.66305541992188},"countryCode":"NL","name":"Lage Zwaluwe","stationCode":"ZLW","uicCode":"8400382"},"description":"vanaf de Westelijke Parallelweg"},{"station":{"coordinate":{"lat":51.64042,"lng":4.60904},"countryCode":"NL","name":"Zevenbergen","stationCode":"ZVB","uicCode":"8400737"},"description":"vanaf de Stationslaan"},{"station":{"coordinate":{"lat":51.587776184082,"lng":4.53333330154419},"countryCode":"NL","name":"Oudenbosch","stationCode":"ODB","uicCode":"8400498"},"description":"vanaf de Stationsstraat"},{"station":{"coordinate":{"lat":51.5402793884277,"lng":4.45833349227905},"countryCode":"NL","name":"Roosendaal","stationCode":"RSD","uicCode":"8400526"},"description":"vanaf de voorzijde van het station"}],"label":"Er rijden stopbussen van Dordrecht, Dordrecht Zuid, Lage Zwaluwe, Zevenbergen, Oudenbosch naar Roosendaal.","shortLabel":"Er rijden stopbussen Dordrecht -> Dordrecht Zuid -> Lage Zwaluwe -> Zevenbergen -> Oudenbosch -> Roosendaal."}},{"start":"2024-09-27T05:45:00+0200","end":"2024-09-27T06:00:00+0200","alternativeTransport":{"location":[{"station":{"coordinate":{"lat":51.8072204589844,"lng":4.66833353042603},"countryCode":"NL","name":"Dordrecht","stationCode":"DDR","uicCode":"8400180"},"description":"vanaf de Burgemeester de Raadtsingel"},{"station":{"coordinate":{"lat":51.7900009155273,"lng":4.67138910293579},"countryCode":"NL","name":"Dordrecht Zuid","stationCode":"DDZD","uicCode":"8400181"},"description":"vanaf de Spirea"},{"station":{"coordinate":{"lat":51.6911125183105,"lng":4.66305541992188},"countryCode":"NL","name":"Lage Zwaluwe","stationCode":"ZLW","uicCode":"8400382"},"description":"vanaf de Westelijke Parallelweg"},{"station":{"coordinate":{"lat":51.64042,"lng":4.60904},"countryCode":"NL","name":"Zevenbergen","stationCode":"ZVB","uicCode":"8400737"},"description":"vanaf de Stationslaan"},{"station":{"coordinate":{"lat":51.587776184082,"lng":4.53333330154419},"countryCode":"NL","name":"Oudenbosch","stationCode":"ODB","uicCode":"8400498"},"description":"vanaf de Stationsstraat"},{"station":{"coordinate":{"lat":51.5402793884277,"lng":4.45833349227905},"countryCode":"NL","name":"Roosendaal","stationCode":"RSD","uicCode":"8400526"},"description":"vanaf de voorzijde van het station"}],"label":"Er rijden stopbussen van Dordrecht, Dordrecht Zuid, Lage Zwaluwe, Zevenbergen, Oudenbosch naar Roosendaal.","shortLabel":"Er rijden stopbussen Dordrecht -> Dordrecht Zuid -> Lage Zwaluwe -> Zevenbergen -> Oudenbosch -> Roosendaal."}},{"start":"2024-09-28T01:15:00+0200","end":"2024-09-28T02:35:00+0200","alternativeTransport":{"location":[{"station":{"coordinate":{"lat":51.8072204589844,"lng":4.66833353042603},"countryCode":"NL","name":"Dordrecht","stationCode":"DDR","uicCode":"8400180"},"description":"vanaf de Burgemeester de Raadtsingel"},{"station":{"coordinate":{"lat":51.7900009155273,"lng":4.67138910293579},"countryCode":"NL","name":"Dordrecht Zuid","stationCode":"DDZD","uicCode":"8400181"},"description":"vanaf de Spirea"},{"station":{"coordinate":{"lat":51.6911125183105,"lng":4.66305541992188},"countryCode":"NL","name":"Lage Zwaluwe","stationCode":"ZLW","uicCode":"8400382"},"description":"vanaf de Westelijke Parallelweg"},{"station":{"coordinate":{"lat":51.64042,"lng":4.60904},"countryCode":"NL","name":"Zevenbergen","stationCode":"ZVB","uicCode":"8400737"},"description":"vanaf de Stationslaan"},{"station":{"coordinate":{"lat":51.587776184082,"lng":4.53333330154419},"countryCode":"NL","name":"Oudenbosch","stationCode":"ODB","uicCode":"8400498"},"description":"vanaf de Stationsstraat"},{"station":{"coordinate":{"lat":51.5402793884277,"lng":4.45833349227905},"countryCode":"NL","name":"Roosendaal","stationCode":"RSD","uicCode":"8400526"},"description":"vanaf de voorzijde van het station"}],"label":"Er rijden stopbussen van Dordrecht, Dordrecht Zuid, Lage Zwaluwe, Zevenbergen, Oudenbosch naar Roosendaal.","shortLabel":"Er rijden stopbussen Dordrecht -> Dordrecht Zuid -> Lage Zwaluwe -> Zevenbergen -> Oudenbosch -> Roosendaal."}},{"start":"2024-09-29T01:00:00+0200","end":"2024-09-29T02:20:00+0200","alternativeTransport":{"location":[{"station":{"coordinate":{"lat":51.8072204589844,"lng":4.66833353042603},"countryCode":"NL","name":"Dordrecht","stationCode":"DDR","uicCode":"8400180"},"description":"vanaf de Burgemeester de Raadtsingel"},{"station":{"coordinate":{"lat":51.7900009155273,"lng":4.67138910293579},"countryCode":"NL","name":"Dordrecht Zuid","stationCode":"DDZD","uicCode":"8400181"},"description":"vanaf de Spirea"},{"station":{"coordinate":{"lat":51.6911125183105,"lng":4.66305541992188},"countryCode":"NL","name":"Lage Zwaluwe","stationCode":"ZLW","uicCode":"8400382"},"description":"vanaf de Westelijke Parallelweg"},{"station":{"coordinate":{"lat":51.64042,"lng":4.60904},"countryCode":"NL","name":"Zevenbergen","stationCode":"ZVB","uicCode":"8400737"},"description":"vanaf de Stationslaan"},{"station":{"coordinate":{"lat":51.587776184082,"lng":4.53333330154419},"countryCode":"NL","name":"Oudenbosch","stationCode":"ODB","uicCode":"8400498"},"description":"vanaf de Stationsstraat"},{"station":{"coordinate":{"lat":51.5402793884277,"lng":4.45833349227905},"countryCode":"NL","name":"Roosendaal","stationCode":"RSD","uicCode":"8400526"},"description":"vanaf de voorzijde van het station"}],"label":"Er rijden stopbussen van Dordrecht, Dordrecht Zuid, Lage Zwaluwe, Zevenbergen, Oudenbosch naar Roosendaal.","shortLabel":"Er rijden stopbussen Dordrecht -> Dordrecht Zuid -> Lage Zwaluwe -> Zevenbergen -> Oudenbosch -> Roosendaal."}},{"start":"2024-09-30T05:45:00+0200","end":"2024-09-30T06:00:00+0200","alternativeTransport":{"location":[{"station":{"coordinate":{"lat":51.8072204589844,"lng":4.66833353042603},"countryCode":"NL","name":"Dordrecht","stationCode":"DDR","uicCode":"8400180"},"description":"vanaf de Burgemeester de Raadtsingel"},{"station":{"coordinate":{"lat":51.7900009155273,"lng":4.67138910293579},"countryCode":"NL","name":"Dordrecht Zuid","stationCode":"DDZD","uicCode":"8400181"},"description":"vanaf de Spirea"},{"station":{"coordinate":{"lat":51.6911125183105,"lng":4.66305541992188},"countryCode":"NL","name":"Lage Zwaluwe","stationCode":"ZLW","uicCode":"8400382"},"description":"vanaf de Westelijke Parallelweg"},{"station":{"coordinate":{"lat":51.64042,"lng":4.60904},"countryCode":"NL","name":"Zevenbergen","stationCode":"ZVB","uicCode":"8400737"},"description":"vanaf de Stationslaan"},{"station":{"coordinate":{"lat":51.587776184082,"lng":4.53333330154419},"countryCode":"NL","name":"Oudenbosch","stationCode":"ODB","uicCode":"8400498"},"description":"vanaf de Stationsstraat"},{"station":{"coordinate":{"lat":51.5402793884277,"lng":4.45833349227905},"countryCode":"NL","name":"Roosendaal","stationCode":"RSD","uicCode":"8400526"},"description":"vanaf de voorzijde van het station"}],"label":"Er rijden stopbussen van Dordrecht, Dordrecht Zuid, Lage Zwaluwe, Zevenbergen, Oudenbosch naar Roosendaal.","shortLabel":"Er rijden stopbussen Dordrecht -> Dordrecht Zuid -> Lage Zwaluwe -> Zevenbergen -> Oudenbosch -> Roosendaal."}},{"start":"2024-10-01T01:15:00+0200","end":"2024-10-01T02:35:00+0200","alternativeTransport":{"location":[{"station":{"coordinate":{"lat":51.8072204589844,"lng":4.66833353042603},"countryCode":"NL","name":"Dordrecht","stationCode":"DDR","uicCode":"8400180"},"description":"vanaf de Burgemeester de Raadtsingel"},{"station":{"coordinate":{"lat":51.7900009155273,"lng":4.67138910293579},"countryCode":"NL","name":"Dordrecht Zuid","stationCode":"DDZD","uicCode":"8400181"},"description":"vanaf de Spirea"},{"station":{"coordinate":{"lat":51.6911125183105,"lng":4.66305541992188},"countryCode":"NL","name":"Lage Zwaluwe","stationCode":"ZLW","uicCode":"8400382"},"description":"vanaf de Westelijke Parallelweg"},{"station":{"coordinate":{"lat":51.64042,"lng":4.60904},"countryCode":"NL","name":"Zevenbergen","stationCode":"ZVB","uicCode":"8400737"},"description":"vanaf de Stationslaan"},{"station":{"coordinate":{"lat":51.587776184082,"lng":4.53333330154419},"countryCode":"NL","name":"Oudenbosch","stationCode":"ODB","uicCode":"8400498"},"description":"vanaf de Stationsstraat"},{"station":{"coordinate":{"lat":51.5402793884277,"lng":4.45833349227905},"countryCode":"NL","name":"Roosendaal","stationCode":"RSD","uicCode":"8400526"},"description":"vanaf de voorzijde van het station"}],"label":"Er rijden stopbussen van Dordrecht, Dordrecht Zuid, Lage Zwaluwe, Zevenbergen, Oudenbosch naar Roosendaal.","shortLabel":"Er rijden stopbussen Dordrecht -> Dordrecht Zuid -> Lage Zwaluwe -> Zevenbergen -> Oudenbosch -> Roosendaal."}},{"start":"2024-10-01T05:45:00+0200","end":"2024-10-01T07:00:00+0200","alternativeTransport":{"location":[{"station":{"coordinate":{"lat":51.8072204589844,"lng":4.66833353042603},"countryCode":"NL","name":"Dordrecht","stationCode":"DDR","uicCode":"8400180"},"description":"vanaf de Burgemeester de Raadtsingel"},{"station":{"coordinate":{"lat":51.7900009155273,"lng":4.67138910293579},"countryCode":"NL","name":"Dordrecht Zuid","stationCode":"DDZD","uicCode":"8400181"},"description":"vanaf de Spirea"},{"station":{"coordinate":{"lat":51.6911125183105,"lng":4.66305541992188},"countryCode":"NL","name":"Lage Zwaluwe","stationCode":"ZLW","uicCode":"8400382"},"description":"vanaf de Westelijke Parallelweg"},{"station":{"coordinate":{"lat":51.64042,"lng":4.60904},"countryCode":"NL","name":"Zevenbergen","stationCode":"ZVB","uicCode":"8400737"},"description":"vanaf de Stationslaan"},{"station":{"coordinate":{"lat":51.587776184082,"lng":4.53333330154419},"countryCode":"NL","name":"Oudenbosch","stationCode":"ODB","uicCode":"8400498"},"description":"vanaf de Stationsstraat"},{"station":{"coordinate":{"lat":51.5402793884277,"lng":4.45833349227905},"countryCode":"NL","name":"Roosendaal","stationCode":"RSD","uicCode":"8400526"},"description":"vanaf de voorzijde van het station"}],"label":"Er rijden stopbussen van Dordrecht, Dordrecht Zuid, Lage Zwaluwe, Zevenbergen, Oudenbosch naar Roosendaal.","shortLabel":"Er rijden stopbussen Dordrecht -> Dordrecht Zuid -> Lage Zwaluwe -> Zevenbergen -> Oudenbosch -> Roosendaal."}}]},{"type":"MAINTENANCE","id":"7005390","title":"Heerlen - Maastricht.","isActive":true,"local":false,"titleSections":[[{"type":"STATION","value":"Heerlen"},{"type":"ICON","value":"MAINTENANCE"},{"type":"STATION","value":"Maastricht"}]],"registrationTime":"2024-09-22T06:54:30+0200","start":"2024-09-16T07:00:00+0200","releaseTime":"2024-09-22T06:54:30+0200","end":"2024-11-03T19:30:00+0100","period":"Maandag 16 september 7:00 uur t/m zondag 3 november 19:30 uur.","impact":{"value":2},"publicationSections":[{"section":{"stations":[{"coordinate":{"lat":50.8908348083496,"lng":5.97499990463257},"countryCode":"NL","name":"Heerlen","stationCode":"HRL","uicCode":"8400307"},{"coordinate":{"lat":50.896667,"lng":5.952222},"countryCode":"NL","name":"Heerlen Woonboulevard","stationCode":"HRLW","uicCode":"8400404"},{"coordinate":{"lat":50.8872222900391,"lng":5.93027782440186},"countryCode":"NL","name":"Voerendaal","stationCode":"VDL","uicCode":"8400656"},{"coordinate":{"lat":50.8663902282715,"lng":5.8905553817749},"countryCode":"NL","name":"Klimmen-Ransdaal","stationCode":"KMR","uicCode":"8400362"},{"coordinate":{"lat":50.856388092041,"lng":5.87222242355347},"countryCode":"NL","name":"Schin op Geul","stationCode":"SOG","uicCode":"8400555"},{"coordinate":{"lat":50.8697204589844,"lng":5.83222198486328},"countryCode":"NL","name":"Valkenburg","stationCode":"VK","uicCode":"8400632"},{"coordinate":{"lat":50.8733329772949,"lng":5.79722213745117},"countryCode":"NL","name":"Houthem-St. Gerlach","stationCode":"SGL","uicCode":"8400341"},{"coordinate":{"lat":50.882879392551,"lng":5.75099945068359},"countryCode":"NL","name":"Meerssen","stationCode":"MES","uicCode":"8400434"},{"coordinate":{"lat":50.87087,"lng":5.71774},"countryCode":"NL","name":"Maastricht Noord","stationCode":"MTN","uicCode":"8400449"},{"coordinate":{"lat":50.8502769470215,"lng":5.70555543899536},"countryCode":"NL","name":"Maastricht","stationCode":"MT","uicCode":"8400424"}],"direction":"BOTH"},"consequence":{"section":{"stations":[{"coordinate":{"lat":50.8908348083496,"lng":5.97499990463257},"countryCode":"NL","name":"Heerlen","stationCode":"HRL","uicCode":"8400307"},{"coordinate":{"lat":50.896667,"lng":5.952222},"countryCode":"NL","name":"Heerlen Woonboulevard","stationCode":"HRLW","uicCode":"8400404"},{"coordinate":{"lat":50.8872222900391,"lng":5.93027782440186},"countryCode":"NL","name":"Voerendaal","stationCode":"VDL","uicCode":"8400656"},{"coordinate":{"lat":50.8663902282715,"lng":5.8905553817749},"countryCode":"NL","name":"Klimmen-Ransdaal","stationCode":"KMR","uicCode":"8400362"},{"coordinate":{"lat":50.856388092041,"lng":5.87222242355347},"countryCode":"NL","name":"Schin op Geul","stationCode":"SOG","uicCode":"8400555"},{"coordinate":{"lat":50.8697204589844,"lng":5.83222198486328},"countryCode":"NL","name":"Valkenburg","stationCode":"VK","uicCode":"8400632"},{"coordinate":{"lat":50.8733329772949,"lng":5.79722213745117},"countryCode":"NL","name":"Houthem-St. Gerlach","stationCode":"SGL","uicCode":"8400341"},{"coordinate":{"lat":50.882879392551,"lng":5.75099945068359},"countryCode":"NL","name":"Meerssen","stationCode":"MES","uicCode":"8400434"},{"coordinate":{"lat":50.87087,"lng":5.71774},"countryCode":"NL","name":"Maastricht Noord","stationCode":"MTN","uicCode":"8400449"},{"coordinate":{"lat":50.8502769470215,"lng":5.70555543899536},"countryCode":"NL","name":"Maastricht","stationCode":"MT","uicCode":"8400424"}],"direction":"ONE_WAY"},"description":"minder treinen","level":"LESS_TRAINS"},"sectionType":"NL"}],"summaryAdditionalTravelTime":{"label":"De extra reistijd is ongeveer 15 minuten.","shortLabel":"Extra reistijd 15 min.","minimumDurationInMinutes":15,"maximumDurationInMinutes":15},"timespans":[{"start":"2024-09-16T07:00:00+0200","end":"2024-11-03T19:30:00+0100","period":"Maandag 16 september 7:00 uur t/m zondag 3 november 19:30 uur.","situation":{"label":"Door werkzaamheden: tussen Heerlen en Maastricht rijden er minder treinen."},"cause":{"label":"werkzaamheden"},"additionalTravelTime":{"label":"De extra reistijd is ongeveer 15 minuten.","shortLabel":"Extra reistijd 15 min.","minimumDurationInMinutes":15,"maximumDurationInMinutes":15},"alternativeTransport":{"label":"er rijden snelbussen","shortLabel":"er rijden snelbussen"},"advices":["Sneltreinen zijn (ma t/m za: 07.00-19.30u) en (zo: 13.00-19.30u) vervangen door Snelbussen. U kunt ook met een stoptrein eerder of later reizen."]}],"alternativeTransportTimespans":[{"start":"2024-09-16T07:00:00+0200","end":"2024-11-03T19:30:00+0100","alternativeTransport":{"location":[{"station":{"coordinate":{"lat":50.8908348083496,"lng":5.97499990463257},"countryCode":"NL","name":"Heerlen","stationCode":"HRL","uicCode":"8400307"},"description":"vanaf het busstation Perron A"},{"station":{"coordinate":{"lat":50.8502769470215,"lng":5.70555543899536},"countryCode":"NL","name":"Maastricht","stationCode":"MT","uicCode":"8400424"},"description":"vanaf de taxi-standplaats, centrumzijde"}],"label":"Er rijden snelbussen tussen Heerlen en Maastricht.","shortLabel":"Er rijden snelbussen Heerlen - Maastricht."}}]},{"type":"MAINTENANCE","id":"7005234","title":"Amsterdam - Hannover - Berlin.","isActive":true,"local":false,"titleSections":[[{"type":"STATION","value":"Amsterdam C."},{"type":"ICON","value":"MAINTENANCE"},{"type":"STATION","value":"Deventer"},{"type":"STATION","value":"Berlin Hbf"}]],"registrationTime":"2024-09-21T08:47:16+0200","start":"2024-09-21T04:00:00+0200","releaseTime":"2024-09-21T08:47:16+0200","end":"2024-09-23T02:00:00+0200","period":"Zaterdag 21 september 4:00 uur t/m maandag 23 september 2:00 uur.","impact":{"value":2},"publicationSections":[{"section":{"stations":[{"coordinate":{"lat":52.3788871765137,"lng":4.90027761459351},"countryCode":"NL","name":"Amsterdam Centraal","stationCode":"ASD","uicCode":"8400058"},{"coordinate":{"lat":52.3605537414551,"lng":4.93111133575439},"countryCode":"NL","name":"Amsterdam Muiderpoort","stationCode":"ASDM","uicCode":"8400060"},{"coordinate":{"lat":52.35274,"lng":4.94855},"countryCode":"NL","name":"Amsterdam Science Park","stationCode":"ASSP","uicCode":"8400235"},{"coordinate":{"lat":52.34515,"lng":4.967566},"countryCode":"NL","name":"Diemen","stationCode":"DMN","uicCode":"8400165"},{"coordinate":{"lat":52.3127784729004,"lng":5.04305553436279},"countryCode":"NL","name":"Weesp","stationCode":"WP","uicCode":"8400685"},{"coordinate":{"lat":52.2802772521973,"lng":5.15694427490234},"countryCode":"NL","name":"Naarden-Bussum","stationCode":"NDB","uicCode":"8400452"},{"coordinate":{"lat":52.2658348083496,"lng":5.16305541992188},"countryCode":"NL","name":"Bussum Zuid","stationCode":"BSMZ","uicCode":"8400145"},{"coordinate":{"lat":52.2380561828613,"lng":5.17388868331909},"countryCode":"NL","name":"Hilversum Media Park","stationCode":"HVSM","uicCode":"8400324"},{"coordinate":{"lat":52.2258338928223,"lng":5.18194437026978},"countryCode":"NL","name":"Hilversum","stationCode":"HVS","uicCode":"8400322"},{"coordinate":{"lat":52.2083320617676,"lng":5.28083324432373},"countryCode":"NL","name":"Baarn","stationCode":"BRN","uicCode":"8400086"},{"coordinate":{"lat":52.1538887023926,"lng":5.37055540084839},"countryCode":"NL","name":"Amersfoort Centraal","stationCode":"AMF","uicCode":"8400055"},{"coordinate":{"lat":52.16652,"lng":5.45718},"countryCode":"NL","name":"Hoevelaken","stationCode":"HVL","uicCode":"8400490"},{"coordinate":{"lat":52.2091674804687,"lng":5.97027778625488},"countryCode":"NL","name":"Apeldoorn","stationCode":"APD","uicCode":"8400066"},{"coordinate":{"lat":52.2152786254883,"lng":6.00444459915161},"countryCode":"NL","name":"Apeldoorn Osseveld","stationCode":"APDO","uicCode":"8400229"},{"coordinate":{"lat":52.2377777099609,"lng":6.09861087799072},"countryCode":"NL","name":"Twello","stationCode":"TWL","uicCode":"8400599"},{"coordinate":{"lat":52.2574996948242,"lng":6.16055536270142},"countryCode":"NL","name":"Deventer","stationCode":"DV","uicCode":"8400173"},{"coordinate":{"lat":52.2502784729004,"lng":6.21444463729858},"countryCode":"NL","name":"Deventer Colmschate","stationCode":"DVC","uicCode":"8400185"},{"coordinate":{"lat":52.2838897705078,"lng":6.42027759552002},"countryCode":"NL","name":"Holten","stationCode":"HON","uicCode":"8400328"},{"coordinate":{"lat":52.3122215270996,"lng":6.52027797698975},"countryCode":"NL","name":"Rijssen","stationCode":"RSN","uicCode":"8400538"},{"coordinate":{"lat":52.3613891601562,"lng":6.59166669845581},"countryCode":"NL","name":"Wierden","stationCode":"WDN","uicCode":"8400691"},{"coordinate":{"lat":52.3580551147461,"lng":6.65388870239258},"countryCode":"NL","name":"Almelo","stationCode":"AML","uicCode":"8400051"},{"coordinate":{"lat":52.3419456481934,"lng":6.66666650772095},"countryCode":"NL","name":"Almelo de Riet","stationCode":"AMRI","uicCode":"8400520"},{"coordinate":{"lat":52.2988891601562,"lng":6.74805545806885},"countryCode":"NL","name":"Borne","stationCode":"BN","uicCode":"8400124"},{"coordinate":{"lat":52.2616653442383,"lng":6.79388904571533},"countryCode":"NL","name":"Hengelo","stationCode":"HGL","uicCode":"8400316"},{"coordinate":{"lat":52.2688903808594,"lng":6.81944465637207},"countryCode":"NL","name":"Hengelo Oost","stationCode":"HGLO","uicCode":"8400312"},{"coordinate":{"lat":52.3063888549805,"lng":6.93472242355347},"countryCode":"NL","name":"Oldenzaal","stationCode":"ODZ","uicCode":"8400483"},{"coordinate":{"lat":52.309685595156,"lng":7.15853691101074},"countryCode":"D","name":"Bad Bentheim","stationCode":"BH","uicCode":"8021156"},{"coordinate":{"lat":52.276299,"lng":7.434255},"countryCode":"D","name":"Rheine","stationCode":"RHEINE","uicCode":"8021067"},{"coordinate":{"lat":52.272851,"lng":8.061781},"countryCode":"D","name":"Osnabrck Hbf","stationCode":"OSNH","uicCode":"8021025"},{"coordinate":{"lat":52.3770401,"lng":9.7416759},"countryCode":"D","name":"Hannover Hbf","stationCode":"HANN","uicCode":"8013552"},{"coordinate":{"lat":52.52503,"lng":13.36946},"countryCode":"D","name":"Berlin Hbf","stationCode":"BERHBL","uicCode":"8065969"}],"direction":"BOTH"},"consequence":{"section":{"stations":[{"coordinate":{"lat":52.3788871765137,"lng":4.90027761459351},"countryCode":"NL","name":"Amsterdam Centraal","stationCode":"ASD","uicCode":"8400058"},{"coordinate":{"lat":52.3605537414551,"lng":4.93111133575439},"countryCode":"NL","name":"Amsterdam Muiderpoort","stationCode":"ASDM","uicCode":"8400060"},{"coordinate":{"lat":52.35274,"lng":4.94855},"countryCode":"NL","name":"Amsterdam Science Park","stationCode":"ASSP","uicCode":"8400235"},{"coordinate":{"lat":52.34515,"lng":4.967566},"countryCode":"NL","name":"Diemen","stationCode":"DMN","uicCode":"8400165"},{"coordinate":{"lat":52.3127784729004,"lng":5.04305553436279},"countryCode":"NL","name":"Weesp","stationCode":"WP","uicCode":"8400685"},{"coordinate":{"lat":52.2802772521973,"lng":5.15694427490234},"countryCode":"NL","name":"Naarden-Bussum","stationCode":"NDB","uicCode":"8400452"},{"coordinate":{"lat":52.2658348083496,"lng":5.16305541992188},"countryCode":"NL","name":"Bussum Zuid","stationCode":"BSMZ","uicCode":"8400145"},{"coordinate":{"lat":52.2380561828613,"lng":5.17388868331909},"countryCode":"NL","name":"Hilversum Media Park","stationCode":"HVSM","uicCode":"8400324"},{"coordinate":{"lat":52.2258338928223,"lng":5.18194437026978},"countryCode":"NL","name":"Hilversum","stationCode":"HVS","uicCode":"8400322"},{"coordinate":{"lat":52.2083320617676,"lng":5.28083324432373},"countryCode":"NL","name":"Baarn","stationCode":"BRN","uicCode":"8400086"},{"coordinate":{"lat":52.1538887023926,"lng":5.37055540084839},"countryCode":"NL","name":"Amersfoort Centraal","stationCode":"AMF","uicCode":"8400055"},{"coordinate":{"lat":52.16652,"lng":5.45718},"countryCode":"NL","name":"Hoevelaken","stationCode":"HVL","uicCode":"8400490"},{"coordinate":{"lat":52.2091674804687,"lng":5.97027778625488},"countryCode":"NL","name":"Apeldoorn","stationCode":"APD","uicCode":"8400066"},{"coordinate":{"lat":52.2152786254883,"lng":6.00444459915161},"countryCode":"NL","name":"Apeldoorn Osseveld","stationCode":"APDO","uicCode":"8400229"},{"coordinate":{"lat":52.2377777099609,"lng":6.09861087799072},"countryCode":"NL","name":"Twello","stationCode":"TWL","uicCode":"8400599"},{"coordinate":{"lat":52.2574996948242,"lng":6.16055536270142},"countryCode":"NL","name":"Deventer","stationCode":"DV","uicCode":"8400173"}],"direction":"ONE_WAY"},"description":"int. treinen via andere route","level":"LESS_TRAINS"},"sectionType":"NEIGHBORING_COUNTRY"}],"summaryAdditionalTravelTime":{"label":"U heeft geen langere reistijd.","shortLabel":"Geen extra reistijd."},"timespans":[{"start":"2024-09-21T04:00:00+0200","end":"2024-09-23T02:00:00+0200","period":"Zaterdag 21 september 4:00 uur t/m maandag 23 september 2:00 uur.","situation":{"label":"Door werkzaamheden: tussen Amsterdam Centraal en Deventer rijden de internationale treinen een andere route."},"cause":{"label":"werkzaamheden"},"additionalTravelTime":{"label":"U heeft geen langere reistijd.","shortLabel":"Geen extra reistijd."},"advices":["Intercity Berlin rijdt een andere route en stopt niet in Hilversum, Amersfoort C en Apeldoorn."]}],"alternativeTransportTimespans":[]},{"type":"MAINTENANCE","id":"7005385","title":"Roosendaal - Antwerpen - Puurs.","isActive":true,"local":false,"titleSections":[[{"type":"STATION","value":"Roosendaal"},{"type":"STATION","value":"Essen"},{"type":"ICON","value":"MAINTENANCE"},{"type":"STATION","value":"Antwerpen-C."},{"type":"STATION","value":"Puurs"}]],"registrationTime":"2024-09-02T14:04:39+0200","start":"2024-09-21T04:00:00+0200","releaseTime":"2024-09-02T14:04:39+0200","end":"2024-09-23T02:00:00+0200","period":"Zaterdag 21 september 4:00 uur t/m maandag 23 september 2:00 uur.","impact":{"value":4},"publicationSections":[{"section":{"stations":[{"coordinate":{"lat":51.5402793884277,"lng":4.45833349227905},"countryCode":"NL","name":"Roosendaal","stationCode":"RSD","uicCode":"8400526"},{"coordinate":{"lat":51.46261,"lng":4.45129},"countryCode":"B","name":"Essen","stationCode":"ESN","uicCode":"8821402"},{"coordinate":{"lat":51.4277061,"lng":4.4633962},"countryCode":"B","name":"Wildert","stationCode":"GWD","uicCode":"8821436"},{"coordinate":{"lat":51.3909989,"lng":4.4668202},"countryCode":"B","name":"Kalmthout","stationCode":"FKTH","uicCode":"8821444"},{"coordinate":{"lat":51.37867,"lng":4.46722},"countryCode":"B","name":"Kijkuit","stationCode":"GKT","uicCode":"8821451"},{"coordinate":{"lat":51.364828,"lng":4.4604308},"countryCode":"B","name":"Heide (B)","stationCode":"MID","uicCode":"8821519"},{"coordinate":{"lat":51.31362,"lng":4.43262},"countryCode":"B","name":"Kapellen","stationCode":"LKP","uicCode":"8821535"},{"coordinate":{"lat":51.21686,"lng":4.421242},"countryCode":"B","name":"Antwerpen-Centraal","stationCode":"ATW","uicCode":"8821006"},{"coordinate":{"lat":51.07716,"lng":4.28273},"countryCode":"B","name":"Puurs","stationCode":"FRP","uicCode":"8822715"}],"direction":"BOTH"},"consequence":{"section":{"stations":[{"coordinate":{"lat":51.46261,"lng":4.45129},"countryCode":"B","name":"Essen","stationCode":"ESN","uicCode":"8821402"},{"coordinate":{"lat":51.4277061,"lng":4.4633962},"countryCode":"B","name":"Wildert","stationCode":"GWD","uicCode":"8821436"},{"coordinate":{"lat":51.3909989,"lng":4.4668202},"countryCode":"B","name":"Kalmthout","stationCode":"FKTH","uicCode":"8821444"},{"coordinate":{"lat":51.37867,"lng":4.46722},"countryCode":"B","name":"Kijkuit","stationCode":"GKT","uicCode":"8821451"},{"coordinate":{"lat":51.364828,"lng":4.4604308},"countryCode":"B","name":"Heide (B)","stationCode":"MID","uicCode":"8821519"},{"coordinate":{"lat":51.31362,"lng":4.43262},"countryCode":"B","name":"Kapellen","stationCode":"LKP","uicCode":"8821535"},{"coordinate":{"lat":51.21686,"lng":4.421242},"countryCode":"B","name":"Antwerpen-Centraal","stationCode":"ATW","uicCode":"8821006"}],"direction":"ONE_WAY"},"description":"aangep. dienstregeling en businzet","level":"LESS_TRAINS"},"sectionType":"NEIGHBORING_COUNTRY"}],"summaryAdditionalTravelTime":{"label":"De extra reistijd is ongeveer 30 minuten.","shortLabel":"extra reistijd 30 min.","minimumDurationInMinutes":30,"maximumDurationInMinutes":30},"timespans":[{"start":"2024-09-21T04:00:00+0200","end":"2024-09-23T02:00:00+0200","period":"Zaterdag 21 september 4:00 uur t/m maandag 23 september 2:00 uur.","situation":{"label":"Door werkzaamheden: tussen Essen en Antwerpen-Centraal is de dienstregeling aangepast en rijden er bussen."},"cause":{"label":"werkzaamheden"},"additionalTravelTime":{"label":"De extra reistijd is ongeveer 30 minuten.","shortLabel":"extra reistijd 30 min.","minimumDurationInMinutes":30,"maximumDurationInMinutes":30},"alternativeTransport":{"label":"er rijden stopbussen","shortLabel":"er rijden stopbussen"},"advices":["NMBS rijdt een vervangende busdienst tussen Essen en Antwerpen Noorderdokken","tussen Roosendaal en Antwerpen-C. reis via Breda"]}],"alternativeTransportTimespans":[{"start":"2024-09-21T04:00:00+0200","end":"2024-09-23T02:00:00+0200","alternativeTransport":{"location":[{"station":{"coordinate":{"lat":51.46261,"lng":4.45129},"countryCode":"B","name":"Essen","stationCode":"ESN","uicCode":"8821402"},"description":"volg de aanwijzingen op het station"},{"station":{"coordinate":{"lat":51.4277061,"lng":4.4633962},"countryCode":"B","name":"Wildert","stationCode":"GWD","uicCode":"8821436"},"description":"volg de aanwijzingen op het station"},{"station":{"coordinate":{"lat":51.3909989,"lng":4.4668202},"countryCode":"B","name":"Kalmthout","stationCode":"FKTH","uicCode":"8821444"},"description":"volg de aanwijzingen op het station"},{"station":{"coordinate":{"lat":51.37867,"lng":4.46722},"countryCode":"B","name":"Kijkuit","stationCode":"GKT","uicCode":"8821451"},"description":"volg de aanwijzingen op het station"},{"station":{"coordinate":{"lat":51.364828,"lng":4.4604308},"countryCode":"B","name":"Heide (B)","stationCode":"MID","uicCode":"8821519"},"description":"volg de aanwijzingen op het station"},{"station":{"coordinate":{"lat":51.31362,"lng":4.43262},"countryCode":"B","name":"Kapellen","stationCode":"LKP","uicCode":"8821535"},"description":"volg de aanwijzingen op het station"},{"station":{"coordinate":{"lat":51.29126,"lng":4.43495},"countryCode":"B","name":"Sint-Mariaburg","stationCode":"MARIA","uicCode":"8821543"},"description":"volg de aanwijzingen op het station"},{"station":{"coordinate":{"lat":51.2816099,"lng":4.4341227},"countryCode":"B","name":"Ekeren","stationCode":"LKR","uicCode":"8821071"},"description":"volg de aanwijzingen op het station"},{"station":{"coordinate":{"lat":51.261686,"lng":4.4274315},"countryCode":"B","name":"Antwerpen-Noorderdokken","stationCode":"ANDD","uicCode":"8821089"},"description":"volg de aanwijzingen op het station"}],"label":"Er rijden stopbussen tussen Essen, Wildert, Kalmthout, Kijkuit, Heide (B), Kapellen, Sint-Mariaburg, Ekeren en Antwerpen-Noorderdokken.","shortLabel":"er rijden stopbussen Essen - Wildert - Kalmthout - Kijkuit - Heide (B) - Kapellen - Sint-Mariaburg - Ekeren - Antw-N'dokken"}}]},{"type":"MAINTENANCE","id":"7005308","title":"Amersfoort Centraal.","isActive":true,"local":false,"titleSections":[[{"type":"STATION","value":"Amersfoort C."}]],"registrationTime":"2024-09-06T13:07:00+0200","start":"2024-09-21T05:00:00+0200","releaseTime":"2024-09-06T13:07:00+0200","end":"2024-09-23T02:00:00+0200","period":"Zaterdag 21 september 5:00 uur t/m maandag 23 september 2:00 uur.","impact":{"value":2},"publicationSections":[{"section":{"stations":[{"coordinate":{"lat":52.1538887023926,"lng":5.37055540084839},"countryCode":"NL","name":"Amersfoort Centraal","stationCode":"AMF","uicCode":"8400055"},{"coordinate":{"lat":52.16652,"lng":5.45718},"countryCode":"NL","name":"Hoevelaken","stationCode":"HVL","uicCode":"8400490"},{"coordinate":{"lat":52.2091674804687,"lng":5.97027778625488},"countryCode":"NL","name":"Apeldoorn","stationCode":"APD","uicCode":"8400066"},{"coordinate":{"lat":52.2152786254883,"lng":6.00444459915161},"countryCode":"NL","name":"Apeldoorn Osseveld","stationCode":"APDO","uicCode":"8400229"},{"coordinate":{"lat":52.2377777099609,"lng":6.09861087799072},"countryCode":"NL","name":"Twello","stationCode":"TWL","uicCode":"8400599"},{"coordinate":{"lat":52.2574996948242,"lng":6.16055536270142},"countryCode":"NL","name":"Deventer","stationCode":"DV","uicCode":"8400173"}],"direction":"BOTH"},"consequence":{"section":{"stations":[{"coordinate":{"lat":52.1538887023926,"lng":5.37055540084839},"countryCode":"NL","name":"Amersfoort Centraal","stationCode":"AMF","uicCode":"8400055"}],"direction":"ONE_WAY"},"description":"dienstregeling aangepast","level":"LESS_TRAINS"},"sectionType":"NL"},{"section":{"stations":[{"coordinate":{"lat":52.0888900756836,"lng":5.11027765274048},"countryCode":"NL","name":"Utrecht Centraal","stationCode":"UT","uicCode":"8400621"},{"coordinate":{"lat":52.1100006103516,"lng":5.12472200393677},"countryCode":"NL","name":"Utrecht Overvecht","stationCode":"UTO","uicCode":"8400620"},{"coordinate":{"lat":52.1300010681152,"lng":5.20388889312744},"countryCode":"NL","name":"Bilthoven","stationCode":"BHV","uicCode":"8400114"},{"coordinate":{"lat":52.1402778625488,"lng":5.24277782440186},"countryCode":"NL","name":"Den Dolder","stationCode":"DLD","uicCode":"8400179"},{"coordinate":{"lat":52.1538887023926,"lng":5.37055540084839},"countryCode":"NL","name":"Amersfoort Centraal","stationCode":"AMF","uicCode":"8400055"}],"direction":"BOTH"},"consequence":{"section":{"stations":[{"coordinate":{"lat":52.1538887023926,"lng":5.37055540084839},"countryCode":"NL","name":"Amersfoort Centraal","stationCode":"AMF","uicCode":"8400055"}],"direction":"ONE_WAY"},"description":"dienstregeling aangepast","level":"LESS_TRAINS"},"sectionType":"NL"},{"section":{"stations":[{"coordinate":{"lat":52.2258338928223,"lng":5.18194437026978},"countryCode":"NL","name":"Hilversum","stationCode":"HVS","uicCode":"8400322"},{"coordinate":{"lat":52.2083320617676,"lng":5.28083324432373},"countryCode":"NL","name":"Baarn","stationCode":"BRN","uicCode":"8400086"},{"coordinate":{"lat":52.1538887023926,"lng":5.37055540084839},"countryCode":"NL","name":"Amersfoort Centraal","stationCode":"AMF","uicCode":"8400055"}],"direction":"BOTH"},"consequence":{"section":{"stations":[{"coordinate":{"lat":52.1538887023926,"lng":5.37055540084839},"countryCode":"NL","name":"Amersfoort Centraal","stationCode":"AMF","uicCode":"8400055"}],"direction":"ONE_WAY"},"description":"dienstregeling aangepast","level":"LESS_TRAINS"},"sectionType":"NL"},{"section":{"stations":[{"coordinate":{"lat":52.1538887023926,"lng":5.37055540084839},"countryCode":"NL","name":"Amersfoort Centraal","stationCode":"AMF","uicCode":"8400055"},{"coordinate":{"lat":52.1748221374512,"lng":5.40388870239258},"countryCode":"NL","name":"Amersfoort Schothorst","stationCode":"AMFS","uicCode":"8400054"},{"coordinate":{"lat":52.1927795410156,"lng":5.43388891220093},"countryCode":"NL","name":"Amersfoort Vathorst","stationCode":"AVAT","uicCode":"8400228"}],"direction":"BOTH"},"consequence":{"section":{"stations":[{"coordinate":{"lat":52.1538887023926,"lng":5.37055540084839},"countryCode":"NL","name":"Amersfoort Centraal","stationCode":"AMF","uicCode":"8400055"}],"direction":"ONE_WAY"},"description":"dienstregeling aangepast","level":"LESS_TRAINS"},"sectionType":"NL"}],"summaryAdditionalTravelTime":{"label":"U heeft geen langere reistijd.","shortLabel":"Geen extra reistijd"},"timespans":[{"start":"2024-09-21T05:00:00+0200","end":"2024-09-23T02:00:00+0200","period":"Zaterdag 21 september 5:00 uur t/m maandag 23 september 2:00 uur.","situation":{"label":"Door werkzaamheden: van, via en naar Amersfoort Centraal is de dienstregeling aangepast."},"cause":{"label":"werkzaamheden"},"additionalTravelTime":{"label":"U heeft geen langere reistijd.","shortLabel":"Geen extra reistijd"},"advices":[]}],"alternativeTransportTimespans":[]},{"type":"MAINTENANCE","id":"7005364","title":"Breda - Tilburg.","isActive":false,"local":false,"titleSections":[[{"type":"STATION","value":"Breda"},{"type":"ICON","value":"MAINTENANCE"},{"type":"STATION","value":"Tilburg"}]],"registrationTime":"2024-09-02T14:02:05+0200","start":"2024-09-22T21:30:00+0200","releaseTime":"2024-09-02T14:02:05+0200","end":"2024-09-23T05:30:00+0200","period":"Zondag 22 september 21:30 uur t/m maandag 23 september 5:30 uur.","impact":{"value":3},"publicationSections":[{"section":{"stations":[{"coordinate":{"lat":51.5955543518066,"lng":4.78000020980835},"countryCode":"NL","name":"Breda","stationCode":"BD","uicCode":"8400131"},{"coordinate":{"lat":51.583610534668,"lng":4.92611122131348},"countryCode":"NL","name":"Gilze-Rijen","stationCode":"GZ","uicCode":"8400251"},{"coordinate":{"lat":51.5736122131348,"lng":4.99444437026978},"countryCode":"NL","name":"Tilburg Reeshof","stationCode":"TBR","uicCode":"8400598"},{"coordinate":{"lat":51.564985,"lng":5.051778},"countryCode":"NL","name":"Tilburg Universiteit","stationCode":"TBU","uicCode":"8400594"},{"coordinate":{"lat":51.5605545043945,"lng":5.08361101150513},"countryCode":"NL","name":"Tilburg","stationCode":"TB","uicCode":"8400597"}],"direction":"BOTH"},"consequence":{"section":{"stations":[{"coordinate":{"lat":51.5955543518066,"lng":4.78000020980835},"countryCode":"NL","name":"Breda","stationCode":"BD","uicCode":"8400131"},{"coordinate":{"lat":51.583610534668,"lng":4.92611122131348},"countryCode":"NL","name":"Gilze-Rijen","stationCode":"GZ","uicCode":"8400251"},{"coordinate":{"lat":51.5736122131348,"lng":4.99444437026978},"countryCode":"NL","name":"Tilburg Reeshof","stationCode":"TBR","uicCode":"8400598"},{"coordinate":{"lat":51.564985,"lng":5.051778},"countryCode":"NL","name":"Tilburg Universiteit","stationCode":"TBU","uicCode":"8400594"},{"coordinate":{"lat":51.5605545043945,"lng":5.08361101150513},"countryCode":"NL","name":"Tilburg","stationCode":"TB","uicCode":"8400597"}],"direction":"ONE_WAY"},"description":"rijden bussen","level":"LESS_TRAINS"},"sectionType":"NL"}],"summaryAdditionalTravelTime":{"label":"De extra reistijd kan oplopen tot 30 minuten.","shortLabel":"extra reistijd tot 30 min.","maximumDurationInMinutes":30},"timespans":[{"start":"2024-09-22T21:30:00+0200","end":"2024-09-23T05:30:00+0200","period":"Zondag 22 september 21:30 uur t/m maandag 23 september 5:30 uur.","situation":{"label":"Door werkzaamheden: tussen Breda en Tilburg rijden er bussen."},"cause":{"label":"werkzaamheden"},"additionalTravelTime":{"label":"De extra reistijd kan oplopen tot 30 minuten.","shortLabel":"extra reistijd tot 30 min.","maximumDurationInMinutes":30},"alternativeTransport":{"label":"er rijden stop- en snelbussen","shortLabel":"er rijden stop- en snelbussen"},"advices":[]}],"alternativeTransportTimespans":[{"start":"2024-09-22T21:30:00+0200","end":"2024-09-23T05:30:00+0200","alternativeTransport":{"location":[{"station":{"coordinate":{"lat":51.5955543518066,"lng":4.78000020980835},"countryCode":"NL","name":"Breda","stationCode":"BD","uicCode":"8400131"},"description":"vanaf de Belcrumzijde"},{"station":{"coordinate":{"lat":51.583610534668,"lng":4.92611122131348},"countryCode":"NL","name":"Gilze-Rijen","stationCode":"GZ","uicCode":"8400251"},"description":"vanaf de OV halte aan het Anne Frankplein, aan de voorzijde van het station"},{"station":{"coordinate":{"lat":51.5605545043945,"lng":5.08361101150513},"countryCode":"NL","name":"Tilburg","stationCode":"TB","uicCode":"8400597"},"description":"vanaf de achterzijde van het station"}],"label":"Er rijden stopbussen tussen Breda, Gilze-Rijen en Tilburg.","shortLabel":"er rijden stopbussen Breda - Gilze-Rijen - Tilburg"}},{"start":"2024-09-22T21:30:00+0200","end":"2024-09-23T05:30:00+0200","alternativeTransport":{"location":[{"station":{"coordinate":{"lat":51.5955543518066,"lng":4.78000020980835},"countryCode":"NL","name":"Breda","stationCode":"BD","uicCode":"8400131"},"description":"vanaf de Belcrumzijde"},{"station":{"coordinate":{"lat":51.583610534668,"lng":4.92611122131348},"countryCode":"NL","name":"Gilze-Rijen","stationCode":"GZ","uicCode":"8400251"},"description":"vanaf de OV halte aan het Anne Frankplein, aan de voorzijde van het station"},{"station":{"coordinate":{"lat":51.5736122131348,"lng":4.99444437026978},"countryCode":"NL","name":"Tilburg Reeshof","stationCode":"TBR","uicCode":"8400598"},"description":"onder het spoorviaduct"},{"station":{"coordinate":{"lat":51.564985,"lng":5.051778},"countryCode":"NL","name":"Tilburg Universiteit","stationCode":"TBU","uicCode":"8400594"},"description":"onder het spoorviaduct"},{"station":{"coordinate":{"lat":51.5605545043945,"lng":5.08361101150513},"countryCode":"NL","name":"Tilburg","stationCode":"TB","uicCode":"8400597"},"description":"vanaf de achterzijde van het station"}],"label":"Er rijden stopbussen tussen Breda, Gilze-Rijen, Tilburg Reeshof, Tilburg Universiteit en Tilburg.","shortLabel":"er rijden stopbussen Breda - Gilze-Rijen - Reeshof - Tilburg Uni. - Tilburg"}},{"start":"2024-09-22T21:30:00+0200","end":"2024-09-23T05:30:00+0200","alternativeTransport":{"location":[{"station":{"coordinate":{"lat":51.5955543518066,"lng":4.78000020980835},"countryCode":"NL","name":"Breda","stationCode":"BD","uicCode":"8400131"},"description":"vanaf de Belcrumzijde"},{"station":{"coordinate":{"lat":51.583610534668,"lng":4.92611122131348},"countryCode":"NL","name":"Gilze-Rijen","stationCode":"GZ","uicCode":"8400251"},"description":"vanaf de OV halte aan het Anne Frankplein, aan de voorzijde van het station"},{"station":{"coordinate":{"lat":51.5605545043945,"lng":5.08361101150513},"countryCode":"NL","name":"Tilburg","stationCode":"TB","uicCode":"8400597"},"description":"vanaf de achterzijde van het station"}],"label":"Er rijden snelbussen tussen Breda, Gilze-Rijen en Tilburg.","shortLabel":"er rijden snelbussen Breda - Gilze-Rijen - Tilburg"}},{"start":"2024-09-23T00:25:00+0200","end":"2024-09-23T01:28:00+0200","alternativeTransport":{"location":[{"station":{"coordinate":{"lat":51.5605545043945,"lng":5.08361101150513},"countryCode":"NL","name":"Tilburg","stationCode":"TB","uicCode":"8400597"},"description":"vanaf de achterzijde van het station"},{"station":{"coordinate":{"lat":51.5955543518066,"lng":4.78000020980835},"countryCode":"NL","name":"Breda","stationCode":"BD","uicCode":"8400131"},"description":"vanaf de Belcrumzijde"},{"station":{"coordinate":{"lat":51.5750007629395,"lng":4.63583326339722},"countryCode":"NL","name":"Etten-Leur","stationCode":"ETN","uicCode":"8400218"},"description":"vanaf de voorzijde van het station"},{"station":{"coordinate":{"lat":51.5402793884277,"lng":4.45833349227905},"countryCode":"NL","name":"Roosendaal","stationCode":"RSD","uicCode":"8400526"},"description":"vanaf de voorzijde van het station"}],"label":"Er rijden snelbussen van Tilburg, Breda, Etten-Leur naar Roosendaal.","shortLabel":"er rijden snelbussen Tilburg -> Breda -> Etten-Leur -> Roosendaal"}}]},{"type":"MAINTENANCE","id":"7005368","title":"Roosendaal - Vlissingen.","isActive":false,"local":false,"titleSections":[[{"type":"STATION","value":"Roosendaal"},{"type":"ICON","value":"MAINTENANCE"},{"type":"STATION","value":"Vlissingen"}]],"registrationTime":"2024-09-16T09:27:13+0200","start":"2024-09-22T23:20:00+0200","releaseTime":"2024-09-16T09:27:13+0200","end":"2024-09-23T05:35:00+0200","period":"Zondag 22 september 23:20 uur t/m maandag 23 september 5:35 uur.","impact":{"value":3},"publicationSections":[{"section":{"stations":[{"coordinate":{"lat":51.5402793884277,"lng":4.45833349227905},"countryCode":"NL","name":"Roosendaal","stationCode":"RSD","uicCode":"8400526"},{"coordinate":{"lat":51.4938888549805,"lng":4.29611110687256},"countryCode":"NL","name":"Bergen op Zoom","stationCode":"BGN","uicCode":"8400108"},{"coordinate":{"lat":51.422779083252,"lng":4.16111087799072},"countryCode":"NL","name":"Rilland-Bath","stationCode":"RB","uicCode":"8400521"},{"coordinate":{"lat":51.4333343505859,"lng":4.11694431304932},"countryCode":"NL","name":"Krabbendijke","stationCode":"KBD","uicCode":"8400367"},{"coordinate":{"lat":51.4650001525879,"lng":4.03722238540649},"countryCode":"NL","name":"Kruiningen-Yerseke","stationCode":"KRG","uicCode":"8400370"},{"coordinate":{"lat":51.4808349609375,"lng":3.95611119270325},"countryCode":"NL","name":"Kapelle-Biezelinge","stationCode":"BZL","uicCode":"8400354"},{"coordinate":{"lat":51.4980545043945,"lng":3.89055562019348},"countryCode":"NL","name":"Goes","stationCode":"GS","uicCode":"8400253"},{"coordinate":{"lat":51.5016670227051,"lng":3.66916656494141},"countryCode":"NL","name":"Arnemuiden","stationCode":"ARN","uicCode":"8400069"},{"coordinate":{"lat":51.4947204589844,"lng":3.61722230911255},"countryCode":"NL","name":"Middelburg","stationCode":"MDB","uicCode":"8400436"},{"coordinate":{"lat":51.4647216796875,"lng":3.59527778625488},"countryCode":"NL","name":"Vlissingen Souburg","stationCode":"VSS","uicCode":"8400653"},{"coordinate":{"lat":51.4458351135254,"lng":3.59527778625488},"countryCode":"NL","name":"Vlissingen","stationCode":"VS","uicCode":"8400652"}],"direction":"BOTH"},"consequence":{"section":{"stations":[{"coordinate":{"lat":51.5402793884277,"lng":4.45833349227905},"countryCode":"NL","name":"Roosendaal","stationCode":"RSD","uicCode":"8400526"},{"coordinate":{"lat":51.4938888549805,"lng":4.29611110687256},"countryCode":"NL","name":"Bergen op Zoom","stationCode":"BGN","uicCode":"8400108"},{"coordinate":{"lat":51.422779083252,"lng":4.16111087799072},"countryCode":"NL","name":"Rilland-Bath","stationCode":"RB","uicCode":"8400521"},{"coordinate":{"lat":51.4333343505859,"lng":4.11694431304932},"countryCode":"NL","name":"Krabbendijke","stationCode":"KBD","uicCode":"8400367"},{"coordinate":{"lat":51.4650001525879,"lng":4.03722238540649},"countryCode":"NL","name":"Kruiningen-Yerseke","stationCode":"KRG","uicCode":"8400370"},{"coordinate":{"lat":51.4808349609375,"lng":3.95611119270325},"countryCode":"NL","name":"Kapelle-Biezelinge","stationCode":"BZL","uicCode":"8400354"},{"coordinate":{"lat":51.4980545043945,"lng":3.89055562019348},"countryCode":"NL","name":"Goes","stationCode":"GS","uicCode":"8400253"},{"coordinate":{"lat":51.5016670227051,"lng":3.66916656494141},"countryCode":"NL","name":"Arnemuiden","stationCode":"ARN","uicCode":"8400069"},{"coordinate":{"lat":51.4947204589844,"lng":3.61722230911255},"countryCode":"NL","name":"Middelburg","stationCode":"MDB","uicCode":"8400436"},{"coordinate":{"lat":51.4647216796875,"lng":3.59527778625488},"countryCode":"NL","name":"Vlissingen Souburg","stationCode":"VSS","uicCode":"8400653"},{"coordinate":{"lat":51.4458351135254,"lng":3.59527778625488},"countryCode":"NL","name":"Vlissingen","stationCode":"VS","uicCode":"8400652"}],"direction":"ONE_WAY"},"description":"rijden bussen","level":"LESS_TRAINS"},"sectionType":"NL"}],"summaryAdditionalTravelTime":{"label":"De extra reistijd is ongeveer 60 minuten.","shortLabel":"Extra reistijd 60 min.","minimumDurationInMinutes":60,"maximumDurationInMinutes":60},"timespans":[{"start":"2024-09-22T23:20:00+0200","end":"2024-09-23T05:35:00+0200","period":"Zondag 22 september 23:20 uur t/m maandag 23 september 5:35 uur.","situation":{"label":"Door werkzaamheden: tussen Roosendaal en Vlissingen rijden er bussen."},"cause":{"label":"werkzaamheden"},"additionalTravelTime":{"label":"De extra reistijd is ongeveer 60 minuten.","shortLabel":"Extra reistijd 60 min.","minimumDurationInMinutes":60,"maximumDurationInMinutes":60},"alternativeTransport":{"label":"er rijden bussen","shortLabel":"er rijden bussen"},"advices":[]}],"alternativeTransportTimespans":[{"start":"2024-09-22T23:20:00+0200","end":"2024-09-23T05:35:00+0200","alternativeTransport":{"location":[{"station":{"coordinate":{"lat":51.5402793884277,"lng":4.45833349227905},"countryCode":"NL","name":"Roosendaal","stationCode":"RSD","uicCode":"8400526"},"description":"vanaf de voorzijde van het station"},{"station":{"coordinate":{"lat":51.4938888549805,"lng":4.29611110687256},"countryCode":"NL","name":"Bergen op Zoom","stationCode":"BGN","uicCode":"8400108"},"description":"vanaf het Stationsplein"},{"station":{"coordinate":{"lat":51.422779083252,"lng":4.16111087799072},"countryCode":"NL","name":"Rilland-Bath","stationCode":"RB","uicCode":"8400521"},"description":"vanaf de provinciale weg"},{"station":{"coordinate":{"lat":51.4333343505859,"lng":4.11694431304932},"countryCode":"NL","name":"Krabbendijke","stationCode":"KBD","uicCode":"8400367"},"description":"vanaf de voorzijde van het station"},{"station":{"coordinate":{"lat":51.4650001525879,"lng":4.03722238540649},"countryCode":"NL","name":"Kruiningen-Yerseke","stationCode":"KRG","uicCode":"8400370"},"description":"vanaf de voorzijde van het station"},{"station":{"coordinate":{"lat":51.4808349609375,"lng":3.95611119270325},"countryCode":"NL","name":"Kapelle-Biezelinge","stationCode":"BZL","uicCode":"8400354"},"description":"vanaf de voorzijde van het station"},{"station":{"coordinate":{"lat":51.4980545043945,"lng":3.89055562019348},"countryCode":"NL","name":"Goes","stationCode":"GS","uicCode":"8400253"},"description":"vanaf de achterzijde van het station"},{"station":{"coordinate":{"lat":51.5016670227051,"lng":3.66916656494141},"countryCode":"NL","name":"Arnemuiden","stationCode":"ARN","uicCode":"8400069"},"description":"vanaf de provinciale weg"},{"station":{"coordinate":{"lat":51.4947204589844,"lng":3.61722230911255},"countryCode":"NL","name":"Middelburg","stationCode":"MDB","uicCode":"8400436"},"description":"vanaf de achterzijde van het station"},{"station":{"coordinate":{"lat":51.4647216796875,"lng":3.59527778625488},"countryCode":"NL","name":"Vlissingen Souburg","stationCode":"VSS","uicCode":"8400653"},"description":"vanaf de achterzijde van het station"},{"station":{"coordinate":{"lat":51.4458351135254,"lng":3.59527778625488},"countryCode":"NL","name":"Vlissingen","stationCode":"VS","uicCode":"8400652"},"description":"vanaf het Stationsplein"}],"label":"Er rijden bussen van Roosendaal, Bergen op Zoom, Rilland-Bath, Krabbendijke, Kruiningen-Yerseke, Kapelle-Biezelinge, Goes, Arnemuiden, Middelburg, Vlissingen Souburg naar Vlissingen.","shortLabel":"Er rijden bussen Roosendaal -> Bergen op Zoom -> Rilland-Bath -> Krabbendijke -> Kruiningen-Y. -> Kapelle-Biezel. -> Goes -> Arnemuiden -> Middelburg -> Souburg -> Vlissingen."}}]},{"type":"MAINTENANCE","id":"7005251","title":"Alphen a/d Rijn - Gouda.","isActive":false,"local":false,"titleSections":[[{"type":"STATION","value":"Alphen a/d Rijn"},{"type":"ICON","value":"MAINTENANCE"},{"type":"STATION","value":"Gouda"}]],"registrationTime":"2024-08-22T10:30:25+0200","start":"2024-09-23T00:30:00+0200","releaseTime":"2024-08-22T10:30:25+0200","end":"2024-09-23T05:50:00+0200","period":"Maandag 23 september 0:30 uur t/m maandag 23 september 5:50 uur.","impact":{"value":3},"publicationSections":[{"section":{"stations":[{"coordinate":{"lat":52.1244430541992,"lng":4.65777778625488},"countryCode":"NL","name":"Alphen a/d Rijn","stationCode":"APN","uicCode":"8400053"},{"coordinate":{"lat":52.0777778625488,"lng":4.64694452285767},"countryCode":"NL","name":"Boskoop","stationCode":"BSK","uicCode":"8400125"},{"coordinate":{"lat":52.067658,"lng":4.646186},"countryCode":"NL","name":"Boskoop Snijdelwijk","stationCode":"BSKS","uicCode":"8400126"},{"coordinate":{"lat":52.0550003051758,"lng":4.64833354949951},"countryCode":"NL","name":"Waddinxveen Noord","stationCode":"WADN","uicCode":"8400674"},{"coordinate":{"lat":52.0441665649414,"lng":4.6497220993042},"countryCode":"NL","name":"Waddinxveen","stationCode":"WAD","uicCode":"8400675"},{"coordinate":{"lat":52.02725,"lng":4.6491},"countryCode":"NL","name":"Waddinxveen Triangel","stationCode":"WADT","uicCode":"8400677"},{"coordinate":{"lat":52.0175018310547,"lng":4.70444440841675},"countryCode":"NL","name":"Gouda","stationCode":"GD","uicCode":"8400258"}],"direction":"ONE_WAY"},"consequence":{"section":{"stations":[{"coordinate":{"lat":52.1244430541992,"lng":4.65777778625488},"countryCode":"NL","name":"Alphen a/d Rijn","stationCode":"APN","uicCode":"8400053"},{"coordinate":{"lat":52.0777778625488,"lng":4.64694452285767},"countryCode":"NL","name":"Boskoop","stationCode":"BSK","uicCode":"8400125"},{"coordinate":{"lat":52.067658,"lng":4.646186},"countryCode":"NL","name":"Boskoop Snijdelwijk","stationCode":"BSKS","uicCode":"8400126"},{"coordinate":{"lat":52.0550003051758,"lng":4.64833354949951},"countryCode":"NL","name":"Waddinxveen Noord","stationCode":"WADN","uicCode":"8400674"},{"coordinate":{"lat":52.0441665649414,"lng":4.6497220993042},"countryCode":"NL","name":"Waddinxveen","stationCode":"WAD","uicCode":"8400675"},{"coordinate":{"lat":52.02725,"lng":4.6491},"countryCode":"NL","name":"Waddinxveen Triangel","stationCode":"WADT","uicCode":"8400677"},{"coordinate":{"lat":52.0175018310547,"lng":4.70444440841675},"countryCode":"NL","name":"Gouda","stationCode":"GD","uicCode":"8400258"}],"direction":"ONE_WAY"},"description":"rijden bussen","level":"LESS_TRAINS"},"sectionType":"NL"},{"section":{"stations":[{"coordinate":{"lat":52.1244430541992,"lng":4.65777778625488},"countryCode":"NL","name":"Alphen a/d Rijn","stationCode":"APN","uicCode":"8400053"},{"coordinate":{"lat":52.0777778625488,"lng":4.64694452285767},"countryCode":"NL","name":"Boskoop","stationCode":"BSK","uicCode":"8400125"},{"coordinate":{"lat":52.067658,"lng":4.646186},"countryCode":"NL","name":"Boskoop Snijdelwijk","stationCode":"BSKS","uicCode":"8400126"},{"coordinate":{"lat":52.0550003051758,"lng":4.64833354949951},"countryCode":"NL","name":"Waddinxveen Noord","stationCode":"WADN","uicCode":"8400674"},{"coordinate":{"lat":52.0441665649414,"lng":4.6497220993042},"countryCode":"NL","name":"Waddinxveen","stationCode":"WAD","uicCode":"8400675"},{"coordinate":{"lat":52.02725,"lng":4.6491},"countryCode":"NL","name":"Waddinxveen Triangel","stationCode":"WADT","uicCode":"8400677"},{"coordinate":{"lat":52.0175018310547,"lng":4.70444440841675},"countryCode":"NL","name":"Gouda","stationCode":"GD","uicCode":"8400258"}],"direction":"ONE_WAY"},"consequence":{"section":{"stations":[{"coordinate":{"lat":52.1244430541992,"lng":4.65777778625488},"countryCode":"NL","name":"Alphen a/d Rijn","stationCode":"APN","uicCode":"8400053"},{"coordinate":{"lat":52.0777778625488,"lng":4.64694452285767},"countryCode":"NL","name":"Boskoop","stationCode":"BSK","uicCode":"8400125"},{"coordinate":{"lat":52.067658,"lng":4.646186},"countryCode":"NL","name":"Boskoop Snijdelwijk","stationCode":"BSKS","uicCode":"8400126"},{"coordinate":{"lat":52.0550003051758,"lng":4.64833354949951},"countryCode":"NL","name":"Waddinxveen Noord","stationCode":"WADN","uicCode":"8400674"},{"coordinate":{"lat":52.0441665649414,"lng":4.6497220993042},"countryCode":"NL","name":"Waddinxveen","stationCode":"WAD","uicCode":"8400675"},{"coordinate":{"lat":52.02725,"lng":4.6491},"countryCode":"NL","name":"Waddinxveen Triangel","stationCode":"WADT","uicCode":"8400677"},{"coordinate":{"lat":52.0175018310547,"lng":4.70444440841675},"countryCode":"NL","name":"Gouda","stationCode":"GD","uicCode":"8400258"}],"direction":"ONE_WAY"},"description":"geen Sprinters","level":"LESS_TRAINS"},"sectionType":"NL"}],"summaryAdditionalTravelTime":{"label":"De extra reistijd kan oplopen tot 30 minuten.","shortLabel":"Extra reistijd tot 30 min.","minimumDurationInMinutes":30,"maximumDurationInMinutes":30},"timespans":[{"start":"2024-09-23T00:30:00+0200","end":"2024-09-23T02:30:00+0200","period":"Maandag 23 september 0:30 uur t/m maandag 23 september 2:30 uur.","situation":{"label":"Door werkzaamheden: van Alphen a/d Rijn naar Gouda rijden er bussen."},"cause":{"label":"werkzaamheden"},"additionalTravelTime":{"label":"De extra reistijd is ongeveer 30 minuten.","shortLabel":"extra reistijd 30 min.","minimumDurationInMinutes":30,"maximumDurationInMinutes":30},"alternativeTransport":{"label":"er rijden stopbussen","shortLabel":"er rijden stopbussen"},"advices":[]},{"start":"2024-09-23T05:00:00+0200","end":"2024-09-23T05:50:00+0200","period":"Maandag 23 september 5:00 uur t/m maandag 23 september 5:50 uur.","situation":{"label":"Door werkzaamheden: van Gouda naar Alphen a/d Rijn rijden er geen Sprinters."},"cause":{"label":"werkzaamheden"},"additionalTravelTime":{"label":"De extra reistijd is ongeveer 30 minuten.","shortLabel":"extra reistijd 30 min.","minimumDurationInMinutes":30,"maximumDurationInMinutes":30},"advices":["Eerste Sprinter van Gouda naar Alphen a/d Rijn rijdt niet. Maak gebruik van de eerstvolgende Sprinter."]}],"alternativeTransportTimespans":[{"start":"2024-09-23T00:30:00+0200","end":"2024-09-23T02:30:00+0200","alternativeTransport":{"location":[{"station":{"coordinate":{"lat":52.1244430541992,"lng":4.65777778625488},"countryCode":"NL","name":"Alphen a/d Rijn","stationCode":"APN","uicCode":"8400053"},"description":"vanaf het busstation, centrumzijde"},{"station":{"coordinate":{"lat":52.0777778625488,"lng":4.64694452285767},"countryCode":"NL","name":"Boskoop","stationCode":"BSK","uicCode":"8400125"},"description":"vanaf de NS Bushalte"},{"station":{"coordinate":{"lat":52.067658,"lng":4.646186},"countryCode":"NL","name":"Boskoop Snijdelwijk","stationCode":"BSKS","uicCode":"8400126"},"description":"vanaf de NS Bushalte"},{"station":{"coordinate":{"lat":52.0550003051758,"lng":4.64833354949951},"countryCode":"NL","name":"Waddinxveen Noord","stationCode":"WADN","uicCode":"8400674"},"description":"vanaf het Stationsplein"},{"station":{"coordinate":{"lat":52.0441665649414,"lng":4.6497220993042},"countryCode":"NL","name":"Waddinxveen","stationCode":"WAD","uicCode":"8400675"},"description":"vanaf de NS Bushalte"},{"station":{"coordinate":{"lat":52.02725,"lng":4.6491},"countryCode":"NL","name":"Waddinxveen Triangel","stationCode":"WADT","uicCode":"8400677"},"description":"vanaf de Coenecoop"},{"station":{"coordinate":{"lat":52.0175018310547,"lng":4.70444440841675},"countryCode":"NL","name":"Gouda","stationCode":"GD","uicCode":"8400258"},"description":"volg de aanwijzingen op het station"}],"label":"Er rijden stopbussen van Alphen a/d Rijn, Boskoop, Boskoop Snijdelwijk, Waddinxveen Noord, Waddinxveen, Waddinxveen Triangel naar Gouda.","shortLabel":"er rijden stopbussen Alphen a/d Rijn -> Boskoop -> Snijdelwijk -> Waddinxveen N. -> Waddinxveen -> Triangel -> Gouda"}}]},{"type":"MAINTENANCE","id":"7005292","title":"Hengelo - Oldenzaal; Zutphen - Hengelo.","isActive":false,"local":false,"titleSections":[[{"type":"STATION","value":"Zutphen"},{"type":"STATION","value":"Delden"},{"type":"ICON","value":"MAINTENANCE"},{"type":"STATION","value":"Oldenzaal"}],[{"type":"STATION","value":"Hengelo"},{"type":"ICON","value":"MAINTENANCE"},{"type":"STATION","value":"Oldenzaal"}]],"registrationTime":"2024-09-05T15:02:55+0200","start":"2024-09-23T04:00:00+0200","releaseTime":"2024-09-05T15:02:55+0200","end":"2024-09-28T02:00:00+0200","period":"Maandag 23 september 4:00 uur t/m zaterdag 28 september 2:00 uur.","impact":{"value":4},"publicationSections":[{"section":{"stations":[{"coordinate":{"lat":52.1452789306641,"lng":6.19416666030884},"countryCode":"NL","name":"Zutphen","stationCode":"ZP","uicCode":"8400744"},{"coordinate":{"lat":52.1666679382324,"lng":6.42638874053955},"countryCode":"NL","name":"Lochem","stationCode":"LC","uicCode":"8400399"},{"coordinate":{"lat":52.2302780151367,"lng":6.58444452285767},"countryCode":"NL","name":"Goor","stationCode":"GO","uicCode":"8400254"},{"coordinate":{"lat":52.2599983215332,"lng":6.7161111831665},"countryCode":"NL","name":"Delden","stationCode":"DDN","uicCode":"8400169"},{"coordinate":{"lat":52.261667,"lng":6.767778},"countryCode":"NL","name":"Hengelo Gezondheidspark","stationCode":"HGLG","uicCode":"8400433"},{"coordinate":{"lat":52.2616653442383,"lng":6.79388904571533},"countryCode":"NL","name":"Hengelo","stationCode":"HGL","uicCode":"8400316"},{"coordinate":{"lat":52.2688903808594,"lng":6.81944465637207},"countryCode":"NL","name":"Hengelo Oost","stationCode":"HGLO","uicCode":"8400312"},{"coordinate":{"lat":52.3063888549805,"lng":6.93472242355347},"countryCode":"NL","name":"Oldenzaal","stationCode":"ODZ","uicCode":"8400483"}],"direction":"BOTH"},"consequence":{"section":{"stations":[{"coordinate":{"lat":52.2599983215332,"lng":6.7161111831665},"countryCode":"NL","name":"Delden","stationCode":"DDN","uicCode":"8400169"},{"coordinate":{"lat":52.261667,"lng":6.767778},"countryCode":"NL","name":"Hengelo Gezondheidspark","stationCode":"HGLG","uicCode":"8400433"},{"coordinate":{"lat":52.2616653442383,"lng":6.79388904571533},"countryCode":"NL","name":"Hengelo","stationCode":"HGL","uicCode":"8400316"},{"coordinate":{"lat":52.2688903808594,"lng":6.81944465637207},"countryCode":"NL","name":"Hengelo Oost","stationCode":"HGLO","uicCode":"8400312"},{"coordinate":{"lat":52.3063888549805,"lng":6.93472242355347},"countryCode":"NL","name":"Oldenzaal","stationCode":"ODZ","uicCode":"8400483"}],"direction":"ONE_WAY"},"description":"rijden bussen","level":"LESS_TRAINS"},"sectionType":"NL"},{"section":{"stations":[{"coordinate":{"lat":52.2616653442383,"lng":6.79388904571533},"countryCode":"NL","name":"Hengelo","stationCode":"HGL","uicCode":"8400316"},{"coordinate":{"lat":52.2688903808594,"lng":6.81944465637207},"countryCode":"NL","name":"Hengelo Oost","stationCode":"HGLO","uicCode":"8400312"},{"coordinate":{"lat":52.3063888549805,"lng":6.93472242355347},"countryCode":"NL","name":"Oldenzaal","stationCode":"ODZ","uicCode":"8400483"}],"direction":"BOTH"},"consequence":{"section":{"stations":[{"coordinate":{"lat":52.2616653442383,"lng":6.79388904571533},"countryCode":"NL","name":"Hengelo","stationCode":"HGL","uicCode":"8400316"},{"coordinate":{"lat":52.2688903808594,"lng":6.81944465637207},"countryCode":"NL","name":"Hengelo Oost","stationCode":"HGLO","uicCode":"8400312"},{"coordinate":{"lat":52.3063888549805,"lng":6.93472242355347},"countryCode":"NL","name":"Oldenzaal","stationCode":"ODZ","uicCode":"8400483"}],"direction":"ONE_WAY"},"description":"rijden bussen","level":"LESS_TRAINS"},"sectionType":"NL"}],"summaryAdditionalTravelTime":{"label":"De extra reistijd ligt tussen 15 en 30 minuten.","shortLabel":"extra reistijd: 15 - 30 min.","minimumDurationInMinutes":15,"maximumDurationInMinutes":30},"timespans":[{"start":"2024-09-23T04:00:00+0200","end":"2024-09-28T02:00:00+0200","period":"Maandag 23 september 4:00 uur t/m zaterdag 28 september 2:00 uur.","situation":{"label":"Door werkzaamheden: tussen Delden en Oldenzaal rijden er bussen en tussen Hengelo en Oldenzaal rijden er bussen."},"cause":{"label":"werkzaamheden"},"additionalTravelTime":{"label":"De extra reistijd ligt tussen 15 en 30 minuten.","shortLabel":"extra reistijd: 15 - 30 min.","minimumDurationInMinutes":15,"maximumDurationInMinutes":30},"alternativeTransport":{"label":"er rijden stopbussen","shortLabel":"er rijden stopbussen"},"advices":["Let op! Ook tussen Almelo, Hengelo en Enschede rijden bussen door werkzaamheden."]}],"alternativeTransportTimespans":[{"start":"2024-09-23T04:00:00+0200","end":"2024-09-28T02:00:00+0200","alternativeTransport":{"location":[{"station":{"coordinate":{"lat":52.2599983215332,"lng":6.7161111831665},"countryCode":"NL","name":"Delden","stationCode":"DDN","uicCode":"8400169"},"description":"vanaf de voorzijde van het station"},{"station":{"coordinate":{"lat":52.261667,"lng":6.767778},"countryCode":"NL","name":"Hengelo Gezondheidspark","stationCode":"HGLG","uicCode":"8400433"},"description":"vanaf de halte bij de hoofdingang van het ziekenhuis"},