[{"id":"6025842","type":"DISRUPTION","registrationTime":"2023-09-24T15:57:00+0200","releaseTime":"2023-09-24T15:57:00+0200","local":false,"title":"Arnhem-Winterswijk","titleSections":[[{"type":"STATION","value":"Arnhem C."},{"type":"STATION","value":"Doetinchem"},{"type":"ICON","value":"DISRUPTION"},{"type":"STATION","value":"Terborg"},{"type":"STATION","value":"Winterswijk"}]],"topic":"disruption_6025842_nl","isActive":true,"start":"2023-09-24T13:12:25+0200","end":"2023-09-24T18:00:00+0200","phase":{"id":"2","label":"Impact bekend"},"impact":{"value":3},"expectedDuration":{"description":"Dit duurt tot ongeveer 18:00 uur.","endTime":"2023-09-24T18:00:00+0200"},"publicationSections":[{"section":{"stations":[{"uicCode":"8400071","stationCode":"AH","name":"Arnhem Centraal","coordinate":{"lat":51.9850006103516,"lng":5.89916658401489},"countryCode":"NL"},{"uicCode":"8400072","stationCode":"AHP","name":"Arnhem Velperpoort","coordinate":{"lat":51.985279083252,"lng":5.91944456100464},"countryCode":"NL"},{"uicCode":"8400688","stationCode":"WTV","name":"Westervoort","coordinate":{"lat":51.96286,"lng":5.9695},"countryCode":"NL"},{"uicCode":"8400193","stationCode":"DVN","name":"Duiven","coordinate":{"lat":51.9433326721191,"lng":6.01472234725952},"countryCode":"NL"},{"uicCode":"8400735","stationCode":"ZV","name":"Zevenaar","coordinate":{"lat":51.9230537414551,"lng":6.07194423675537},"countryCode":"NL"},{"uicCode":"8400174","stationCode":"DID","name":"Didam","coordinate":{"lat":51.933502,"lng":6.1324106},"countryCode":"NL"},{"uicCode":"8400686","stationCode":"WL","name":"Wehl","coordinate":{"lat":51.9578065,"lng":6.213844},"countryCode":"NL"},{"uicCode":"8400184","stationCode":"DTCH","name":"Doetinchem De Huet","coordinate":{"lat":51.9591413,"lng":6.2598521},"countryCode":"NL"},{"uicCode":"8400177","stationCode":"DTC","name":"Doetinchem","coordinate":{"lat":51.9585962,"lng":6.2962148},"countryCode":"NL"},{"uicCode":"8400241","stationCode":"GDR","name":"Gaanderen","coordinate":{"lat":51.93074,"lng":6.3486},"countryCode":"NL"},{"uicCode":"8400592","stationCode":"TBG","name":"Terborg","coordinate":{"lat":51.9224549,"lng":6.3642466},"countryCode":"NL"},{"uicCode":"8400635","stationCode":"VSV","name":"Varsseveld","coordinate":{"lat":51.937257,"lng":6.458839},"countryCode":"NL"},{"uicCode":"8400045","stationCode":"ATN","name":"Aalten","coordinate":{"lat":51.9213265245505,"lng":6.57862722873687},"countryCode":"NL"},{"uicCode":"8400698","stationCode":"WW","name":"Winterswijk","coordinate":{"lat":51.9677307,"lng":6.7155181},"countryCode":"NL"}],"direction":"BOTH"},"consequence":{"section":{"stations":[{"uicCode":"8400177","stationCode":"DTC","name":"Doetinchem","coordinate":{"lat":51.9585962,"lng":6.2962148},"countryCode":"NL"},{"uicCode":"8400241","stationCode":"GDR","name":"Gaanderen","coordinate":{"lat":51.93074,"lng":6.3486},"countryCode":"NL"},{"uicCode":"8400592","stationCode":"TBG","name":"Terborg","coordinate":{"lat":51.9224549,"lng":6.3642466},"countryCode":"NL"}],"direction":"ONE_WAY"},"description":"geen treinen","level":"LESS_TRAINS"},"sectionType":"NL"}],"timespans":[{"start":"2023-09-24T13:12:25+0200","end":"2023-09-24T18:00:00+0200","situation":{"label":"Tussen Doetinchem en Terborg rijden er geen treinen door een sein- en wisselstoring."},"cause":{"label":"Sein- en wisselstoring"},"advices":[]}],"alternativeTransportTimespans":[]},{"id":"7003773","type":"MAINTENANCE","registrationTime":"2023-08-22T17:25:25+0200","releaseTime":"2023-08-22T17:25:25+0200","local":false,"title":"Dordrecht - Roosendaal.","titleSections":[[{"type":"STATION","value":"Dordrecht"},{"type":"STATION","value":"Lage Zwaluwe"},{"type":"ICON","value":"MAINTENANCE"},{"type":"STATION","value":"Roosendaal"}]],"isActive":true,"start":"2023-08-25T04:00:00+0200","end":"2023-09-30T02:00:00+0200","period":"Vrijdag 25-08-2023 04:00 uur t/m zaterdag 30-09-2023 02:00 uur.","impact":{"value":3},"summaryAdditionalTravelTime":{"label":"De extra reistijd is meer dan 30 minuten.","shortLabel":"extra reistijd meer dan 30 min.","minimumDurationInMinutes":30},"publicationSections":[{"section":{"stations":[{"uicCode":"8400180","stationCode":"DDR","name":"Dordrecht","coordinate":{"lat":51.8072204589844,"lng":4.66833353042603},"countryCode":"NL"},{"uicCode":"8400181","stationCode":"DDZD","name":"Dordrecht Zuid","coordinate":{"lat":51.7900009155273,"lng":4.67138910293579},"countryCode":"NL"},{"uicCode":"8400382","stationCode":"ZLW","name":"Lage Zwaluwe","coordinate":{"lat":51.6911125183105,"lng":4.66305541992188},"countryCode":"NL"},{"uicCode":"8400737","stationCode":"ZVB","name":"Zevenbergen","coordinate":{"lat":51.64042,"lng":4.60904},"countryCode":"NL"},{"uicCode":"8400498","stationCode":"ODB","name":"Oudenbosch","coordinate":{"lat":51.587776184082,"lng":4.53333330154419},"countryCode":"NL"},{"uicCode":"8400526","stationCode":"RSD","name":"Roosendaal","coordinate":{"lat":51.5402793884277,"lng":4.45833349227905},"countryCode":"NL"}],"direction":"BOTH"},"consequence":{"section":{"stations":[{"uicCode":"8400382","stationCode":"ZLW","name":"Lage Zwaluwe","coordinate":{"lat":51.6911125183105,"lng":4.66305541992188},"countryCode":"NL"},{"uicCode":"8400737","stationCode":"ZVB","name":"Zevenbergen","coordinate":{"lat":51.64042,"lng":4.60904},"countryCode":"NL"},{"uicCode":"8400498","stationCode":"ODB","name":"Oudenbosch","coordinate":{"lat":51.587776184082,"lng":4.53333330154419},"countryCode":"NL"},{"uicCode":"8400526","stationCode":"RSD","name":"Roosendaal","coordinate":{"lat":51.5402793884277,"lng":4.45833349227905},"countryCode":"NL"}],"direction":"ONE_WAY"},"description":"dienstregeling aangepast","level":"LESS_TRAINS"},"sectionType":"NL"}],"timespans":[{"start":"2023-08-25T04:00:00+0200","end":"2023-09-30T02:00:00+0200","period":"Vrijdag 25-08-2023 04:00 uur t/m zaterdag 30-09-2023 02:00 uur.","situation":{"label":"Om veiligheidsredenen: tussen Lage Zwaluwe en Roosendaal is de dienstregeling aangepast."},"cause":{"label":"veiligheidsredenen"},"additionalTravelTime":{"label":"De extra reistijd is meer dan 30 minuten.","shortLabel":"extra reistijd meer dan 30 min.","minimumDurationInMinutes":30},"alternativeTransport":{"label":"er rijden stopbussen","shortLabel":"er rijden stopbussen"},"advices":["NS-bussen tussen Lage Zwaluwe en Roosendaal. Intercity's Dordrecht-Roosendaal rijden als normaal."]}],"alternativeTransportTimespans":[{"start":"2023-08-25T04:00:00+0200","end":"2023-08-28T02:00:00+0200","alternativeTransport":{"location":[{"station":{"uicCode":"8400382","stationCode":"ZLW","name":"Lage Zwaluwe","coordinate":{"lat":51.6911125183105,"lng":4.66305541992188},"countryCode":"NL"},"description":"vanaf de Westelijke Parallelweg"},{"station":{"uicCode":"8400737","stationCode":"ZVB","name":"Zevenbergen","coordinate":{"lat":51.64042,"lng":4.60904},"countryCode":"NL"},"description":"vanaf de Stationslaan"},{"station":{"uicCode":"8400498","stationCode":"ODB","name":"Oudenbosch","coordinate":{"lat":51.587776184082,"lng":4.53333330154419},"countryCode":"NL"},"description":"vanaf de Stationsstraat"},{"station":{"uicCode":"8400526","stationCode":"RSD","name":"Roosendaal","coordinate":{"lat":51.5402793884277,"lng":4.45833349227905},"countryCode":"NL"},"description":"vanaf de voorzijde van het station"}],"label":"Er rijden stopbussen tussen Lage Zwaluwe, Zevenbergen, Oudenbosch en Roosendaal.","shortLabel":"er rijden stopbussen Lage Zwaluwe - Zevenbergen - Oudenbosch - Roosendaal"}},{"start":"2023-08-28T04:00:00+0200","end":"2023-09-30T02:00:00+0200","alternativeTransport":{"location":[{"station":{"uicCode":"8400382","stationCode":"ZLW","name":"Lage Zwaluwe","coordinate":{"lat":51.6911125183105,"lng":4.66305541992188},"countryCode":"NL"},"description":"vanaf de Westelijke Parallelweg"},{"station":{"uicCode":"8400737","stationCode":"ZVB","name":"Zevenbergen","coordinate":{"lat":51.64042,"lng":4.60904},"countryCode":"NL"},"description":"vanaf de Stationslaan"},{"station":{"uicCode":"8400498","stationCode":"ODB","name":"Oudenbosch","coordinate":{"lat":51.587776184082,"lng":4.53333330154419},"countryCode":"NL"},"description":"vanaf de Stationsstraat"},{"station":{"uicCode":"8400526","stationCode":"RSD","name":"Roosendaal","coordinate":{"lat":51.5402793884277,"lng":4.45833349227905},"countryCode":"NL"},"description":"vanaf de voorzijde van het station"}],"label":"Er rijden stopbussen tussen Lage Zwaluwe, Zevenbergen, Oudenbosch en Roosendaal.","shortLabel":"er rijden stopbussen Lage Zwaluwe - Zevenbergen - Oudenbosch - Roosendaal"}}]},{"id":"7003746","type":"MAINTENANCE","registrationTime":"2023-09-16T18:45:11+0200","releaseTime":"2023-09-16T18:45:11+0200","local":false,"title":"Arnhem - Duisburg - Düsseldorf.","titleSections":[[{"type":"STATION","value":"Arnhem C."},{"type":"ICON","value":"MAINTENANCE"},{"type":"STATION","value":"Duisburg Hbf"},{"type":"STATION","value":"Düsseldorf Hbf"}]],"isActive":true,"start":"2023-08-25T21:00:00+0200","end":"2023-09-24T23:55:00+0200","period":"Vrijdag 25-08-2023 21:00 uur t/m zondag 24-09-2023 23:55 uur.","impact":{"value":3},"summaryAdditionalTravelTime":{"label":"De extra reistijd kan oplopen tot 30 minuten.","shortLabel":"extra reistijd tot 30 min.","maximumDurationInMinutes":30},"publicationSections":[{"section":{"stations":[{"uicCode":"8400071","stationCode":"AH","name":"Arnhem Centraal","coordinate":{"lat":51.9850006103516,"lng":5.89916658401489},"countryCode":"NL"},{"uicCode":"8400072","stationCode":"AHP","name":"Arnhem Velperpoort","coordinate":{"lat":51.985279083252,"lng":5.91944456100464},"countryCode":"NL"},{"uicCode":"8400688","stationCode":"WTV","name":"Westervoort","coordinate":{"lat":51.96286,"lng":5.9695},"countryCode":"NL"},{"uicCode":"8400193","stationCode":"DVN","name":"Duiven","coordinate":{"lat":51.9433326721191,"lng":6.01472234725952},"countryCode":"NL"},{"uicCode":"8400735","stationCode":"ZV","name":"Zevenaar","coordinate":{"lat":51.9230537414551,"lng":6.07194423675537},"countryCode":"NL"},{"uicCode":"8033415","stationCode":"EL","name":"Emmerich-Elten","coordinate":{"lat":51.8743,"lng":6.15417},"countryCode":"D"},{"uicCode":"8010288","stationCode":"EM","name":"Emmerich","coordinate":{"lat":51.834283,"lng":6.255718},"countryCode":"D"},{"uicCode":"8010275","stationCode":"WESEL","name":"Wesel","coordinate":{"lat":51.655833,"lng":6.627222},"countryCode":"D"},{"uicCode":"8010263","stationCode":"OBERH","name":"Oberhausen Hbf","coordinate":{"lat":51.47512,"lng":6.852038},"countryCode":"D"},{"uicCode":"8010316","stationCode":"DUISB","name":"Duisburg Hbf","coordinate":{"lat":51.4297785713316,"lng":6.77590370178222},"countryCode":"D"},{"uicCode":"8039904","stationCode":"KDFFH","name":"Düsseldorf Flughafen","coordinate":{"lat":51.292009,"lng":6.786836},"countryCode":"D"},{"uicCode":"8008094","stationCode":"DUSSEL","name":"Düsseldorf Hbf","coordinate":{"lat":51.220146,"lng":6.793137},"countryCode":"D"}],"direction":"BOTH"},"consequence":{"section":{"stations":[{"uicCode":"8400071","stationCode":"AH","name":"Arnhem Centraal","coordinate":{"lat":51.9850006103516,"lng":5.89916658401489},"countryCode":"NL"},{"uicCode":"8400072","stationCode":"AHP","name":"Arnhem Velperpoort","coordinate":{"lat":51.985279083252,"lng":5.91944456100464},"countryCode":"NL"},{"uicCode":"8400688","stationCode":"WTV","name":"Westervoort","coordinate":{"lat":51.96286,"lng":5.9695},"countryCode":"NL"},{"uicCode":"8400193","stationCode":"DVN","name":"Duiven","coordinate":{"lat":51.9433326721191,"lng":6.01472234725952},"countryCode":"NL"},{"uicCode":"8400735","stationCode":"ZV","name":"Zevenaar","coordinate":{"lat":51.9230537414551,"lng":6.07194423675537},"countryCode":"NL"},{"uicCode":"8033415","stationCode":"EL","name":"Emmerich-Elten","coordinate":{"lat":51.8743,"lng":6.15417},"countryCode":"D"},{"uicCode":"8010288","stationCode":"EM","name":"Emmerich","coordinate":{"lat":51.834283,"lng":6.255718},"countryCode":"D"},{"uicCode":"8010275","stationCode":"WESEL","name":"Wesel","coordinate":{"lat":51.655833,"lng":6.627222},"countryCode":"D"},{"uicCode":"8010263","stationCode":"OBERH","name":"Oberhausen Hbf","coordinate":{"lat":51.47512,"lng":6.852038},"countryCode":"D"},{"uicCode":"8010316","stationCode":"DUISB","name":"Duisburg Hbf","coordinate":{"lat":51.4297785713316,"lng":6.77590370178222},"countryCode":"D"}],"direction":"ONE_WAY"},"description":"rijden bussen","level":"LESS_TRAINS"},"sectionType":"NEIGHBORING_COUNTRY"}],"timespans":[{"start":"2023-08-25T21:00:00+0200","end":"2023-09-24T23:55:00+0200","period":"Vrijdag 25-08-2023 21:00 uur t/m zondag 24-09-2023 23:55 uur.","situation":{"label":"Door werkzaamheden: tussen Arnhem Centraal en Duisburg Hbf rijden er bussen."},"cause":{"label":"werkzaamheden"},"additionalTravelTime":{"label":"De extra reistijd kan oplopen tot 30 minuten.","shortLabel":"extra reistijd tot 30 min.","maximumDurationInMinutes":30},"alternativeTransport":{"label":"er rijden stopbussen","shortLabel":"er rijden stopbussen"},"advices":["Dit kan gevolgen hebben voor uw reis. Plan uw reis in de (Internationale) app."]}],"alternativeTransportTimespans":[{"start":"2023-08-25T21:00:00+0200","end":"2023-09-24T23:55:00+0200","alternativeTransport":{"location":[{"station":{"uicCode":"8400071","stationCode":"AH","name":"Arnhem Centraal","coordinate":{"lat":51.9850006103516,"lng":5.89916658401489},"countryCode":"NL"},"description":"vanaf de bus-terminal"},{"station":{"uicCode":"8400735","stationCode":"ZV","name":"Zevenaar","coordinate":{"lat":51.9230537414551,"lng":6.07194423675537},"countryCode":"NL"},"description":"vanaf het stationsplein bij de Kiss & Ride plaatsen, aan beide zijden van de weg"}],"label":"Er rijden stopbussen tussen Arnhem Centraal, Zevenaar, Emmerich, Oberhausen Hbf en Duisburg Hbf.","shortLabel":"er rijden stopbussen Arnhem C. - Zevenaar - Emmerich - Oberhausen Hbf - Duisburg Hbf"}}]},{"id":"7003915","type":"MAINTENANCE","registrationTime":"2023-08-23T11:01:49+0200","releaseTime":"2023-08-23T11:01:49+0200","local":false,"title":"Deventer - Zutphen.","titleSections":[[{"type":"STATION","value":"Deventer"},{"type":"ICON","value":"MAINTENANCE"},{"type":"STATION","value":"Zutphen"}]],"isActive":true,"start":"2023-09-23T01:00:00+0200","end":"2023-09-25T02:00:00+0200","period":"Zaterdag 23-09-2023 01:00 uur t/m maandag 25-09-2023 02:00 uur.","impact":{"value":4},"summaryAdditionalTravelTime":{"label":"De extra reistijd kan oplopen tot 30 minuten.","shortLabel":"extra reistijd tot 30 min.","maximumDurationInMinutes":30},"publicationSections":[{"section":{"stations":[{"uicCode":"8400173","stationCode":"DV","name":"Deventer","coordinate":{"lat":52.2574996948242,"lng":6.16055536270142},"countryCode":"NL"},{"uicCode":"8400744","stationCode":"ZP","name":"Zutphen","coordinate":{"lat":52.1452789306641,"lng":6.19416666030884},"countryCode":"NL"}],"direction":"BOTH"},"consequence":{"section":{"stations":[{"uicCode":"8400173","stationCode":"DV","name":"Deventer","coordinate":{"lat":52.2574996948242,"lng":6.16055536270142},"countryCode":"NL"},{"uicCode":"8400744","stationCode":"ZP","name":"Zutphen","coordinate":{"lat":52.1452789306641,"lng":6.19416666030884},"countryCode":"NL"}],"direction":"ONE_WAY"},"description":"rijden bussen","level":"LESS_TRAINS"},"sectionType":"NL"}],"timespans":[{"start":"2023-09-23T01:00:00+0200","end":"2023-09-25T02:00:00+0200","period":"Zaterdag 23-09-2023 01:00 uur t/m maandag 25-09-2023 02:00 uur.","situation":{"label":"Door werkzaamheden: tussen Deventer en Zutphen rijden er bussen."},"cause":{"label":"werkzaamheden"},"additionalTravelTime":{"label":"De extra reistijd kan oplopen tot 30 minuten.","shortLabel":"extra reistijd tot 30 min.","maximumDurationInMinutes":30},"alternativeTransport":{"label":"er rijden snelbussen","shortLabel":"er rijden snelbussen"},"advices":["tussen Zwolle en Arnhem C. reist u via Utrecht C."]}],"alternativeTransportTimespans":[{"start":"2023-09-23T01:00:00+0200","end":"2023-09-25T02:00:00+0200","alternativeTransport":{"location":[{"station":{"uicCode":"8400173","stationCode":"DV","name":"Deventer","coordinate":{"lat":52.2574996948242,"lng":6.16055536270142},"countryCode":"NL"},"description":"vanaf de Stationsstraat"},{"station":{"uicCode":"8400744","stationCode":"ZP","name":"Zutphen","coordinate":{"lat":52.1452789306641,"lng":6.19416666030884},"countryCode":"NL"},"description":"vanaf de achterzijde van het station"}],"label":"Er rijden snelbussen tussen Deventer en Zutphen.","shortLabel":"er rijden snelbussen Deventer - Zutphen"}}]},{"id":"7003910","type":"MAINTENANCE","registrationTime":"2023-09-23T09:54:15+0200","releaseTime":"2023-09-23T09:54:15+0200","local":false,"title":"Leiden - Den Haag; Leiden - Den Haag HS.","titleSections":[[{"type":"STATION","value":"Leiden C."},{"type":"ICON","value":"MAINTENANCE"},{"type":"STATION","value":"Den Haag C."}],[{"type":"STATION","value":"Leiden C."},{"type":"ICON","value":"MAINTENANCE"},{"type":"STATION","value":"Den Haag HS"}]],"isActive":true,"start":"2023-09-23T01:00:00+0200","end":"2023-09-25T05:00:00+0200","period":"Zaterdag 23-09-2023 01:00 uur t/m maandag 25-09-2023 05:00 uur.","impact":{"value":4},"summaryAdditionalTravelTime":{"label":"De extra reistijd is meer dan 45 minuten.","shortLabel":"extra reistijd meer dan 45 min.","minimumDurationInMinutes":45},"publicationSections":[{"section":{"stations":[{"uicCode":"8400390","stationCode":"LEDN","name":"Leiden Centraal","coordinate":{"lat":52.1661109924316,"lng":4.48166656494141},"countryCode":"NL"},{"uicCode":"8400188","stationCode":"DVNK","name":"De Vink","coordinate":{"lat":52.1472206115723,"lng":4.4563889503479},"countryCode":"NL"},{"uicCode":"8400659","stationCode":"VST","name":"Voorschoten","coordinate":{"lat":52.1252784729004,"lng":4.43249988555908},"countryCode":"NL"},{"uicCode":"8400278","stationCode":"GVM","name":"Den Haag Mariahoeve","coordinate":{"lat":52.0905570983887,"lng":4.36944437026978},"countryCode":"NL"},{"uicCode":"8400380","stationCode":"LAA","name":"Den Haag Laan v NOI","coordinate":{"lat":52.0786094665527,"lng":4.34277772903442},"countryCode":"NL"},{"uicCode":"8400282","stationCode":"GVC","name":"Den Haag Centraal","coordinate":{"lat":52.0802764892578,"lng":4.32499980926514},"countryCode":"NL"}],"direction":"BOTH"},"consequence":{"section":{"stations":[{"uicCode":"8400390","stationCode":"LEDN","name":"Leiden Centraal","coordinate":{"lat":52.1661109924316,"lng":4.48166656494141},"countryCode":"NL"},{"uicCode":"8400188","stationCode":"DVNK","name":"De Vink","coordinate":{"lat":52.1472206115723,"lng":4.4563889503479},"countryCode":"NL"},{"uicCode":"8400659","stationCode":"VST","name":"Voorschoten","coordinate":{"lat":52.1252784729004,"lng":4.43249988555908},"countryCode":"NL"},{"uicCode":"8400278","stationCode":"GVM","name":"Den Haag Mariahoeve","coordinate":{"lat":52.0905570983887,"lng":4.36944437026978},"countryCode":"NL"},{"uicCode":"8400380","stationCode":"LAA","name":"Den Haag Laan v NOI","coordinate":{"lat":52.0786094665527,"lng":4.34277772903442},"countryCode":"NL"},{"uicCode":"8400282","stationCode":"GVC","name":"Den Haag Centraal","coordinate":{"lat":52.0802764892578,"lng":4.32499980926514},"countryCode":"NL"}],"direction":"ONE_WAY"},"description":"rijden bussen","level":"LESS_TRAINS"},"sectionType":"NL"},{"section":{"stations":[{"uicCode":"8400390","stationCode":"LEDN","name":"Leiden Centraal","coordinate":{"lat":52.1661109924316,"lng":4.48166656494141},"countryCode":"NL"},{"uicCode":"8400188","stationCode":"DVNK","name":"De Vink","coordinate":{"lat":52.1472206115723,"lng":4.4563889503479},"countryCode":"NL"},{"uicCode":"8400659","stationCode":"VST","name":"Voorschoten","coordinate":{"lat":52.1252784729004,"lng":4.43249988555908},"countryCode":"NL"},{"uicCode":"8400278","stationCode":"GVM","name":"Den Haag Mariahoeve","coordinate":{"lat":52.0905570983887,"lng":4.36944437026978},"countryCode":"NL"},{"uicCode":"8400380","stationCode":"LAA","name":"Den Haag Laan v NOI","coordinate":{"lat":52.0786094665527,"lng":4.34277772903442},"countryCode":"NL"},{"uicCode":"8400280","stationCode":"GV","name":"Den Haag HS","coordinate":{"lat":52.0697212219238,"lng":4.32250022888184},"countryCode":"NL"}],"direction":"BOTH"},"consequence":{"section":{"stations":[{"uicCode":"8400390","stationCode":"LEDN","name":"Leiden Centraal","coordinate":{"lat":52.1661109924316,"lng":4.48166656494141},"countryCode":"NL"},{"uicCode":"8400188","stationCode":"DVNK","name":"De Vink","coordinate":{"lat":52.1472206115723,"lng":4.4563889503479},"countryCode":"NL"},{"uicCode":"8400659","stationCode":"VST","name":"Voorschoten","coordinate":{"lat":52.1252784729004,"lng":4.43249988555908},"countryCode":"NL"},{"uicCode":"8400278","stationCode":"GVM","name":"Den Haag Mariahoeve","coordinate":{"lat":52.0905570983887,"lng":4.36944437026978},"countryCode":"NL"},{"uicCode":"8400380","stationCode":"LAA","name":"Den Haag Laan v NOI","coordinate":{"lat":52.0786094665527,"lng":4.34277772903442},"countryCode":"NL"},{"uicCode":"8400280","stationCode":"GV","name":"Den Haag HS","coordinate":{"lat":52.0697212219238,"lng":4.32250022888184},"countryCode":"NL"}],"direction":"ONE_WAY"},"description":"geen treinen","level":"LESS_TRAINS"},"sectionType":"NL"}],"timespans":[{"start":"2023-09-23T01:00:00+0200","end":"2023-09-25T05:00:00+0200","period":"Zaterdag 23-09-2023 01:00 uur t/m maandag 25-09-2023 05:00 uur.","situation":{"label":"Door werkzaamheden: tussen Leiden Centraal en Den Haag Centraal rijden er bussen en tussen Leiden Centraal en Den Haag HS rijden er geen treinen."},"cause":{"label":"werkzaamheden"},"additionalTravelTime":{"label":"De extra reistijd is meer dan 45 minuten.","shortLabel":"extra reistijd meer dan 45 min.","minimumDurationInMinutes":45},"alternativeTransport":{"label":"er rijden stop- en snelbussen","shortLabel":"er rijden stop- en snelbussen"},"advices":["Reis tussen Leiden C en Den Haag C bij voorkeur via Alphen a/d Rijn en Gouda.","tussen Amsterdam C. en Den Haag C. reist u via Woerden","tussen Leiden C. en Den Haag C./Den Haag HS reist u via Alphen a/d Rijn en Gouda"]}],"alternativeTransportTimespans":[{"start":"2023-09-23T01:00:00+0200","end":"2023-09-23T07:10:00+0200","alternativeTransport":{"location":[{"station":{"uicCode":"8400390","stationCode":"LEDN","name":"Leiden Centraal","coordinate":{"lat":52.1661109924316,"lng":4.48166656494141},"countryCode":"NL"},"description":"vanaf het stadsbusstation"},{"station":{"uicCode":"8400280","stationCode":"GV","name":"Den Haag HS","coordinate":{"lat":52.0697212219238,"lng":4.32250022888184},"countryCode":"NL"},"description":"vanaf de achterzijde van het station"}],"label":"Er rijden snelbussen tussen Leiden Centraal en Den Haag HS.","shortLabel":"er rijden snelbussen Leiden C. - Den Haag HS"}},{"start":"2023-09-23T01:15:00+0200","end":"2023-09-23T02:05:00+0200","alternativeTransport":{"location":[{"station":{"uicCode":"8400390","stationCode":"LEDN","name":"Leiden Centraal","coordinate":{"lat":52.1661109924316,"lng":4.48166656494141},"countryCode":"NL"},"description":"vanaf het stadsbusstation"},{"station":{"uicCode":"8400188","stationCode":"DVNK","name":"De Vink","coordinate":{"lat":52.1472206115723,"lng":4.4563889503479},"countryCode":"NL"},"description":"vanaf de OV-halte aan de Trompweg"},{"station":{"uicCode":"8400659","stationCode":"VST","name":"Voorschoten","coordinate":{"lat":52.1252784729004,"lng":4.43249988555908},"countryCode":"NL"},"description":"vanaf de Wijngaardenlaan"},{"station":{"uicCode":"8400278","stationCode":"GVM","name":"Den Haag Mariahoeve","coordinate":{"lat":52.0905570983887,"lng":4.36944437026978},"countryCode":"NL"},"description":"vanaf de voorzijde van het station"},{"station":{"uicCode":"8400380","stationCode":"LAA","name":"Den Haag Laan v NOI","coordinate":{"lat":52.0786094665527,"lng":4.34277772903442},"countryCode":"NL"},"description":"vanaf de Anna van Hannoverstraat"}],"label":"Er rijden stopbussen van Leiden Centraal, De Vink, Voorschoten, Den Haag Mariahoeve, Den Haag Laan v NOI naar Den Haag HS.","shortLabel":"er rijden stopbussen Leiden C. -> De Vink -> Voorschoten -> Mariahoeve -> Laan v NOI -> Den Haag HS"}},{"start":"2023-09-23T05:00:00+0200","end":"2023-09-24T02:00:00+0200","alternativeTransport":{"location":[{"station":{"uicCode":"8400390","stationCode":"LEDN","name":"Leiden Centraal","coordinate":{"lat":52.1661109924316,"lng":4.48166656494141},"countryCode":"NL"},"description":"vanaf het stadsbusstation"},{"station":{"uicCode":"8400188","stationCode":"DVNK","name":"De Vink","coordinate":{"lat":52.1472206115723,"lng":4.4563889503479},"countryCode":"NL"},"description":"vanaf de OV-halte aan de Trompweg"},{"station":{"uicCode":"8400659","stationCode":"VST","name":"Voorschoten","coordinate":{"lat":52.1252784729004,"lng":4.43249988555908},"countryCode":"NL"},"description":"vanaf de Wijngaardenlaan"},{"station":{"uicCode":"8400278","stationCode":"GVM","name":"Den Haag Mariahoeve","coordinate":{"lat":52.0905570983887,"lng":4.36944437026978},"countryCode":"NL"},"description":"vanaf de voorzijde van het station"},{"station":{"uicCode":"8400380","stationCode":"LAA","name":"Den Haag Laan v NOI","coordinate":{"lat":52.0786094665527,"lng":4.34277772903442},"countryCode":"NL"},"description":"vanaf de Anna van Hannoverstraat"}],"label":"Er rijden stopbussen tussen Leiden Centraal, De Vink, Voorschoten, Den Haag Mariahoeve en Den Haag Laan v NOI.","shortLabel":"er rijden stopbussen Leiden C. - De Vink - Voorschoten - Mariahoeve - Laan v NOI"}},{"start":"2023-09-23T05:00:00+0200","end":"2023-09-24T02:00:00+0200","alternativeTransport":{"location":[{"station":{"uicCode":"8400188","stationCode":"DVNK","name":"De Vink","coordinate":{"lat":52.1472206115723,"lng":4.4563889503479},"countryCode":"NL"},"description":"vanaf de OV-halte aan de Trompweg"},{"station":{"uicCode":"8400659","stationCode":"VST","name":"Voorschoten","coordinate":{"lat":52.1252784729004,"lng":4.43249988555908},"countryCode":"NL"},"description":"vanaf de Wijngaardenlaan"},{"station":{"uicCode":"8400278","stationCode":"GVM","name":"Den Haag Mariahoeve","coordinate":{"lat":52.0905570983887,"lng":4.36944437026978},"countryCode":"NL"},"description":"vanaf de voorzijde van het station"},{"station":{"uicCode":"8400380","stationCode":"LAA","name":"Den Haag Laan v NOI","coordinate":{"lat":52.0786094665527,"lng":4.34277772903442},"countryCode":"NL"},"description":"vanaf de Anna van Hannoverstraat"},{"station":{"uicCode":"8400282","stationCode":"GVC","name":"Den Haag Centraal","coordinate":{"lat":52.0802764892578,"lng":4.32499980926514},"countryCode":"NL"},"description":"vanaf het busplatform"}],"label":"Er rijden stopbussen tussen De Vink, Voorschoten, Den Haag Mariahoeve, Den Haag Laan v NOI en Den Haag Centraal.","shortLabel":"er rijden stopbussen De Vink - Voorschoten - Mariahoeve - Laan v NOI - Den Haag C."}},{"start":"2023-09-24T00:45:00+0200","end":"2023-09-24T06:40:00+0200","alternativeTransport":{"location":[{"station":{"uicCode":"8400390","stationCode":"LEDN","name":"Leiden Centraal","coordinate":{"lat":52.1661109924316,"lng":4.48166656494141},"countryCode":"NL"},"description":"vanaf het stadsbusstation"},{"station":{"uicCode":"8400280","stationCode":"GV","name":"Den Haag HS","coordinate":{"lat":52.0697212219238,"lng":4.32250022888184},"countryCode":"NL"},"description":"vanaf de achterzijde van het station"}],"label":"Er rijden snelbussen tussen Leiden Centraal en Den Haag HS.","shortLabel":"er rijden snelbussen Leiden C. - Den Haag HS"}},{"start":"2023-09-24T05:50:00+0200","end":"2023-09-25T02:00:00+0200","alternativeTransport":{"location":[{"station":{"uicCode":"8400390","stationCode":"LEDN","name":"Leiden Centraal","coordinate":{"lat":52.1661109924316,"lng":4.48166656494141},"countryCode":"NL"},"description":"vanaf het stadsbusstation"},{"station":{"uicCode":"8400188","stationCode":"DVNK","name":"De Vink","coordinate":{"lat":52.1472206115723,"lng":4.4563889503479},"countryCode":"NL"},"description":"vanaf de OV-halte aan de Trompweg"},{"station":{"uicCode":"8400659","stationCode":"VST","name":"Voorschoten","coordinate":{"lat":52.1252784729004,"lng":4.43249988555908},"countryCode":"NL"},"description":"vanaf de Wijngaardenlaan"},{"station":{"uicCode":"8400278","stationCode":"GVM","name":"Den Haag Mariahoeve","coordinate":{"lat":52.0905570983887,"lng":4.36944437026978},"countryCode":"NL"},"description":"vanaf de voorzijde van het station"},{"station":{"uicCode":"8400380","stationCode":"LAA","name":"Den Haag Laan v NOI","coordinate":{"lat":52.0786094665527,"lng":4.34277772903442},"countryCode":"NL"},"description":"vanaf de Anna van Hannoverstraat"}],"label":"Er rijden stopbussen tussen Leiden Centraal, De Vink, Voorschoten, Den Haag Mariahoeve en Den Haag Laan v NOI.","shortLabel":"er rijden stopbussen Leiden C. - De Vink - Voorschoten - Mariahoeve - Laan v NOI"}},{"start":"2023-09-24T05:50:00+0200","end":"2023-09-25T02:00:00+0200","alternativeTransport":{"location":[{"station":{"uicCode":"8400188","stationCode":"DVNK","name":"De Vink","coordinate":{"lat":52.1472206115723,"lng":4.4563889503479},"countryCode":"NL"},"description":"vanaf de OV-halte aan de Trompweg"},{"station":{"uicCode":"8400659","stationCode":"VST","name":"Voorschoten","coordinate":{"lat":52.1252784729004,"lng":4.43249988555908},"countryCode":"NL"},"description":"vanaf de Wijngaardenlaan"},{"station":{"uicCode":"8400278","stationCode":"GVM","name":"Den Haag Mariahoeve","coordinate":{"lat":52.0905570983887,"lng":4.36944437026978},"countryCode":"NL"},"description":"vanaf de voorzijde van het station"},{"station":{"uicCode":"8400380","stationCode":"LAA","name":"Den Haag Laan v NOI","coordinate":{"lat":52.0786094665527,"lng":4.34277772903442},"countryCode":"NL"},"description":"vanaf de Anna van Hannoverstraat"},{"station":{"uicCode":"8400282","stationCode":"GVC","name":"Den Haag Centraal","coordinate":{"lat":52.0802764892578,"lng":4.32499980926514},"countryCode":"NL"},"description":"vanaf het busplatform"}],"label":"Er rijden stopbussen tussen De Vink, Voorschoten, Den Haag Mariahoeve, Den Haag Laan v NOI en Den Haag Centraal.","shortLabel":"er rijden stopbussen De Vink - Voorschoten - Mariahoeve - Laan v NOI - Den Haag C."}},{"start":"2023-09-25T00:45:00+0200","end":"2023-09-25T04:40:00+0200","alternativeTransport":{"location":[{"station":{"uicCode":"8400390","stationCode":"LEDN","name":"Leiden Centraal","coordinate":{"lat":52.1661109924316,"lng":4.48166656494141},"countryCode":"NL"},"description":"vanaf het stadsbusstation"},{"station":{"uicCode":"8400280","stationCode":"GV","name":"Den Haag HS","coordinate":{"lat":52.0697212219238,"lng":4.32250022888184},"countryCode":"NL"},"description":"vanaf de achterzijde van het station"}],"label":"Er rijden snelbussen tussen Leiden Centraal en Den Haag HS.","shortLabel":"er rijden snelbussen Leiden C. - Den Haag HS"}}]},{"id":"7003839","type":"MAINTENANCE","registrationTime":"2023-08-23T11:03:57+0200","releaseTime":"2023-08-23T11:03:57+0200","local":false,"title":"Groningen - Leeuwarden.","titleSections":[[{"type":"STATION","value":"Groningen"},{"type":"ICON","value":"MAINTENANCE"},{"type":"STATION","value":"Zuidhorn"},{"type":"STATION","value":"Leeuwarden"}]],"isActive":true,"start":"2023-09-23T01:40:00+0200","end":"2023-09-25T02:00:00+0200","period":"Zaterdag 23-09-2023 01:40 uur t/m maandag 25-09-2023 02:00 uur.","impact":{"value":4},"summaryAdditionalTravelTime":{"label":"De extra reistijd kan oplopen tot 30 minuten.","shortLabel":"extra reistijd tot 30 min.","maximumDurationInMinutes":30},"publicationSections":[{"section":{"stations":[{"uicCode":"8400263","stationCode":"GN","name":"Groningen","coordinate":{"lat":53.2105560302734,"lng":6.56472206115723},"countryCode":"NL"},{"uicCode":"8400743","stationCode":"ZH","name":"Zuidhorn","coordinate":{"lat":53.2486292,"lng":6.4062361},"countryCode":"NL"},{"uicCode":"8400267","stationCode":"GK","name":"Grijpskerk","coordinate":{"lat":53.2557403255735,"lng":6.30977869033813},"countryCode":"NL"},{"uicCode":"8400139","stationCode":"BP","name":"Buitenpost","coordinate":{"lat":53.2564547,"lng":6.1446496},"countryCode":"NL"},{"uicCode":"8400745","stationCode":"DWE","name":"De Westereen","coordinate":{"lat":53.24817,"lng":6.03463},"countryCode":"NL"},{"uicCode":"8400638","stationCode":"FWD","name":"Feanwâlden","coordinate":{"lat":53.2351834,"lng":5.9886615},"countryCode":"NL"},{"uicCode":"8400292","stationCode":"HDG","name":"Hurdegaryp","coordinate":{"lat":53.2187783,"lng":5.934543},"countryCode":"NL"},{"uicCode":"8400389","stationCode":"LWC","name":"Leeuwarden Camminghaburen","coordinate":{"lat":53.2021808,"lng":5.8422968},"countryCode":"NL"},{"uicCode":"8400387","stationCode":"LW","name":"Leeuwarden","coordinate":{"lat":53.1958351135254,"lng":5.79222202301025},"countryCode":"NL"}],"direction":"BOTH"},"consequence":{"section":{"stations":[{"uicCode":"8400263","stationCode":"GN","name":"Groningen","coordinate":{"lat":53.2105560302734,"lng":6.56472206115723},"countryCode":"NL"},{"uicCode":"8400743","stationCode":"ZH","name":"Zuidhorn","coordinate":{"lat":53.2486292,"lng":6.4062361},"countryCode":"NL"}],"direction":"ONE_WAY"},"description":"rijden bussen","level":"LESS_TRAINS"},"sectionType":"NL"}],"timespans":[{"start":"2023-09-23T01:40:00+0200","end":"2023-09-25T02:00:00+0200","period":"Zaterdag 23-09-2023 01:40 uur t/m maandag 25-09-2023 02:00 uur.","situation":{"label":"Door werkzaamheden: tussen Groningen en Zuidhorn rijden er bussen."},"cause":{"label":"werkzaamheden"},"additionalTravelTime":{"label":"De extra reistijd kan oplopen tot 30 minuten.","shortLabel":"extra reistijd tot 30 min.","maximumDurationInMinutes":30},"alternativeTransport":{"label":"er rijden bussen","shortLabel":"er rijden bussen"},"advices":[]}],"alternativeTransportTimespans":[{"start":"2023-09-23T01:40:00+0200","end":"2023-09-25T02:00:00+0200","alternativeTransport":{"location":[{"station":{"uicCode":"8400263","stationCode":"GN","name":"Groningen","coordinate":{"lat":53.2105560302734,"lng":6.56472206115723},"countryCode":"NL"},"description":"vanaf het busstation halte AB"},{"station":{"uicCode":"8400743","stationCode":"ZH","name":"Zuidhorn","coordinate":{"lat":53.2486292,"lng":6.4062361},"countryCode":"NL"},"description":"vanaf het busstation"}],"label":"Er rijden bussen tussen Groningen en Zuidhorn.","shortLabel":"er rijden bussen Groningen - Zuidhorn"}}]},{"id":"7003824","type":"MAINTENANCE","registrationTime":"2023-08-29T18:03:02+0200","releaseTime":"2023-08-29T18:03:02+0200","local":false,"title":"Amsterdam - Rotterdam - Brussel (HSL).","titleSections":[[{"type":"STATION","value":"Amsterdam C."},{"type":"STATION","value":"Breda"},{"type":"ICON","value":"MAINTENANCE"},{"type":"STATION","value":"Brussel-Z. Midi"}]],"isActive":true,"start":"2023-09-23T04:00:00+0200","end":"2023-09-24T23:59:00+0200","period":"Zaterdag 23-09-2023 04:00 uur t/m zondag 24-09-2023 23:59 uur.","impact":{"value":2},"summaryAdditionalTravelTime":{"label":"U heeft geen langere reistijd.","shortLabel":"Geen extra reistijd"},"publicationSections":[{"section":{"stations":[{"uicCode":"8400058","stationCode":"ASD","name":"Amsterdam Centraal","coordinate":{"lat":52.3788871765137,"lng":4.90027761459351},"countryCode":"NL"},{"uicCode":"8400059","stationCode":"ASS","name":"Amsterdam Sloterdijk","coordinate":{"lat":52.3888893127441,"lng":4.83777761459351},"countryCode":"NL"},{"uicCode":"8400079","stationCode":"ASDL","name":"Amsterdam Lelylaan","coordinate":{"lat":52.3577766418457,"lng":4.83388900756836},"countryCode":"NL"},{"uicCode":"8400561","stationCode":"SHL","name":"Schiphol Airport","coordinate":{"lat":52.3094444274902,"lng":4.76194429397583},"countryCode":"NL"},{"uicCode":"8400332","stationCode":"HFD","name":"Hoofddorp","coordinate":{"lat":52.2933349609375,"lng":4.70055532455444},"countryCode":"NL"},{"uicCode":"8400530","stationCode":"RTD","name":"Rotterdam Centraal","coordinate":{"lat":51.9249992370605,"lng":4.46888875961304},"countryCode":"NL"},{"uicCode":"8400529","stationCode":"RTB","name":"Rotterdam Blaak","coordinate":{"lat":51.9202766418457,"lng":4.48888874053955},"countryCode":"NL"},{"uicCode":"8400533","stationCode":"RTZ","name":"Rotterdam Zuid","coordinate":{"lat":51.9044456481934,"lng":4.51027774810791},"countryCode":"NL"},{"uicCode":"8400542","stationCode":"RLB","name":"Rotterdam Lombardijen","coordinate":{"lat":51.8800010681152,"lng":4.53138875961304},"countryCode":"NL"},{"uicCode":"8400132","stationCode":"BDPB","name":"Breda-Prinsenbeek","coordinate":{"lat":51.606388092041,"lng":4.72083330154419},"countryCode":"NL"},{"uicCode":"8400131","stationCode":"BD","name":"Breda","coordinate":{"lat":51.5955543518066,"lng":4.78000020980835},"countryCode":"NL"},{"uicCode":"8821105","stationCode":"NDKP","name":"Noorderkempen","coordinate":{"lat":51.358088,"lng":4.633977},"countryCode":"B"},{"uicCode":"8821063","stationCode":"ATWLB","name":"Antwerpen-Luchtbal","coordinate":{"lat":51.2449375,"lng":4.4251543},"countryCode":"B"},{"uicCode":"8821006","stationCode":"ATW","name":"Antwerpen-Centraal","coordinate":{"lat":51.21686,"lng":4.421242},"countryCode":"B"},{"uicCode":"8821121","stationCode":"BERCH","name":"Antwerpen-Berchem","coordinate":{"lat":51.198914,"lng":4.4332},"countryCode":"B"},{"uicCode":"8822004","stationCode":"MECH","name":"Mechelen","coordinate":{"lat":51.01758,"lng":4.48313},"countryCode":"B"},{"uicCode":"8812005","stationCode":"BRUSN","name":"Brussel-Noord","coordinate":{"lat":50.859658,"lng":4.360854},"countryCode":"B"},{"uicCode":"8813003","stationCode":"BRUSC","name":"Brussel-Centraal","coordinate":{"lat":50.845175,"lng":4.357131},"countryCode":"B"},{"uicCode":"8814001","stationCode":"BRUSZ","name":"Brussel-Zuid Midi","coordinate":{"lat":50.836782,"lng":4.336922},"countryCode":"B"}],"direction":"BOTH"},"consequence":{"section":{"stations":[{"uicCode":"8400131","stationCode":"BD","name":"Breda","coordinate":{"lat":51.5955543518066,"lng":4.78000020980835},"countryCode":"NL"},{"uicCode":"8821105","stationCode":"NDKP","name":"Noorderkempen","coordinate":{"lat":51.358088,"lng":4.633977},"countryCode":"B"},{"uicCode":"8821063","stationCode":"ATWLB","name":"Antwerpen-Luchtbal","coordinate":{"lat":51.2449375,"lng":4.4251543},"countryCode":"B"},{"uicCode":"8821006","stationCode":"ATW","name":"Antwerpen-Centraal","coordinate":{"lat":51.21686,"lng":4.421242},"countryCode":"B"},{"uicCode":"8821121","stationCode":"BERCH","name":"Antwerpen-Berchem","coordinate":{"lat":51.198914,"lng":4.4332},"countryCode":"B"},{"uicCode":"8822004","stationCode":"MECH","name":"Mechelen","coordinate":{"lat":51.01758,"lng":4.48313},"countryCode":"B"},{"uicCode":"8812005","stationCode":"BRUSN","name":"Brussel-Noord","coordinate":{"lat":50.859658,"lng":4.360854},"countryCode":"B"},{"uicCode":"8813003","stationCode":"BRUSC","name":"Brussel-Centraal","coordinate":{"lat":50.845175,"lng":4.357131},"countryCode":"B"},{"uicCode":"8814001","stationCode":"BRUSZ","name":"Brussel-Zuid Midi","coordinate":{"lat":50.836782,"lng":4.336922},"countryCode":"B"}],"direction":"ONE_WAY"},"description":"dienstregeling aangepast","level":"LESS_TRAINS"},"sectionType":"HSL"}],"timespans":[{"start":"2023-09-23T04:00:00+0200","end":"2023-09-24T23:59:00+0200","period":"Zaterdag 23-09-2023 04:00 uur t/m zondag 24-09-2023 23:59 uur.","situation":{"label":"Door werkzaamheden: tussen Breda en Brussel-Zuid Midi is de dienstregeling aangepast."},"cause":{"label":"werkzaamheden"},"additionalTravelTime":{"label":"U heeft geen langere reistijd.","shortLabel":"Geen extra reistijd"},"advices":["Intercity Brussel stopt niet in Antwerpen C.","tussen Breda en Antwerpen-C. reist u via Antw-Berchem"]}],"alternativeTransportTimespans":[]},{"id":"7003909","type":"MAINTENANCE","registrationTime":"2023-08-22T12:01:28+0200","releaseTime":"2023-08-22T12:01:28+0200","local":false,"title":"Amsterdam - Uitgeest; Leiden - Schiphol - Zaandam.","titleSections":[[{"type":"STATION","value":"Amsterdam C."},{"type":"STATION","value":"Sloterdijk"},{"type":"ICON","value":"MAINTENANCE"},{"type":"STATION","value":"Zaandam"},{"type":"STATION","value":"Uitgeest"}],[{"type":"STATION","value":"Leiden C."},{"type":"STATION","value":"Sloterdijk"},{"type":"ICON","value":"MAINTENANCE"},{"type":"STATION","value":"Zaandam"}]],"isActive":true,"start":"2023-09-23T04:00:00+0200","end":"2023-09-25T02:00:00+0200","period":"Zaterdag 23-09-2023 04:00 uur t/m maandag 25-09-2023 02:00 uur.","impact":{"value":2},"summaryAdditionalTravelTime":{"label":"De extra reistijd is ongeveer 15 minuten.","shortLabel":"Extra reistijd 15 min.","minimumDurationInMinutes":15,"maximumDurationInMinutes":15},"publicationSections":[{"section":{"stations":[{"uicCode":"8400058","stationCode":"ASD","name":"Amsterdam Centraal","coordinate":{"lat":52.3788871765137,"lng":4.90027761459351},"countryCode":"NL"},{"uicCode":"8400059","stationCode":"ASS","name":"Amsterdam Sloterdijk","coordinate":{"lat":52.3888893127441,"lng":4.83777761459351},"countryCode":"NL"},{"uicCode":"8400731","stationCode":"ZD","name":"Zaandam","coordinate":{"lat":52.4388885498047,"lng":4.81361103057861},"countryCode":"NL"},{"uicCode":"8400363","stationCode":"KZ","name":"Koog aan de Zaan","coordinate":{"lat":52.458610534668,"lng":4.80555534362793},"countryCode":"NL"},{"uicCode":"8400364","stationCode":"ZZS","name":"Zaandijk Zaanse Schans","coordinate":{"lat":52.469165802002,"lng":4.80499982833862},"countryCode":"NL"},{"uicCode":"8400707","stationCode":"WM","name":"Wormerveer","coordinate":{"lat":52.4891662597656,"lng":4.79222202301025},"countryCode":"NL"},{"uicCode":"8400368","stationCode":"KMA","name":"Krommenie-Assendelft","coordinate":{"lat":52.49511,"lng":4.75417},"countryCode":"NL"},{"uicCode":"8400615","stationCode":"UTG","name":"Uitgeest","coordinate":{"lat":52.5216674804687,"lng":4.70166683197022},"countryCode":"NL"}],"direction":"BOTH"},"consequence":{"section":{"stations":[{"uicCode":"8400059","stationCode":"ASS","name":"Amsterdam Sloterdijk","coordinate":{"lat":52.3888893127441,"lng":4.83777761459351},"countryCode":"NL"},{"uicCode":"8400731","stationCode":"ZD","name":"Zaandam","coordinate":{"lat":52.4388885498047,"lng":4.81361103057861},"countryCode":"NL"}],"direction":"ONE_WAY"},"description":"dienstregeling aangepast","level":"LESS_TRAINS"},"sectionType":"NL"},{"section":{"stations":[{"uicCode":"8400390","stationCode":"LEDN","name":"Leiden Centraal","coordinate":{"lat":52.1661109924316,"lng":4.48166656494141},"countryCode":"NL"},{"uicCode":"8400603","stationCode":"SSH","name":"Sassenheim","coordinate":{"lat":52.215278,"lng":4.517222},"countryCode":"NL"},{"uicCode":"8400460","stationCode":"NVP","name":"Nieuw Vennep","coordinate":{"lat":52.2588882446289,"lng":4.64555549621582},"countryCode":"NL"},{"uicCode":"8400332","stationCode":"HFD","name":"Hoofddorp","coordinate":{"lat":52.2933349609375,"lng":4.70055532455444},"countryCode":"NL"},{"uicCode":"8400561","stationCode":"SHL","name":"Schiphol Airport","coordinate":{"lat":52.3094444274902,"lng":4.76194429397583},"countryCode":"NL"},{"uicCode":"8400079","stationCode":"ASDL","name":"Amsterdam Lelylaan","coordinate":{"lat":52.3577766418457,"lng":4.83388900756836},"countryCode":"NL"},{"uicCode":"8400059","stationCode":"ASS","name":"Amsterdam Sloterdijk","coordinate":{"lat":52.3888893127441,"lng":4.83777761459351},"countryCode":"NL"},{"uicCode":"8400731","stationCode":"ZD","name":"Zaandam","coordinate":{"lat":52.4388885498047,"lng":4.81361103057861},"countryCode":"NL"}],"direction":"BOTH"},"consequence":{"section":{"stations":[{"uicCode":"8400059","stationCode":"ASS","name":"Amsterdam Sloterdijk","coordinate":{"lat":52.3888893127441,"lng":4.83777761459351},"countryCode":"NL"},{"uicCode":"8400731","stationCode":"ZD","name":"Zaandam","coordinate":{"lat":52.4388885498047,"lng":4.81361103057861},"countryCode":"NL"}],"direction":"ONE_WAY"},"description":"dienstregeling aangepast","level":"LESS_TRAINS"},"sectionType":"NL"}],"timespans":[{"start":"2023-09-23T04:00:00+0200","end":"2023-09-25T02:00:00+0200","period":"Zaterdag 23-09-2023 04:00 uur t/m maandag 25-09-2023 02:00 uur.","situation":{"label":"Door werkzaamheden: tussen Amsterdam Sloterdijk en Zaandam is de dienstregeling aangepast."},"cause":{"label":"werkzaamheden"},"additionalTravelTime":{"label":"De extra reistijd is ongeveer 15 minuten.","shortLabel":"Extra reistijd 15 min.","minimumDurationInMinutes":15,"maximumDurationInMinutes":15},"advices":[]}],"alternativeTransportTimespans":[]},{"id":"7003825","type":"MAINTENANCE","registrationTime":"2023-08-18T09:04:31+0200","releaseTime":"2023-08-18T09:04:31+0200","local":false,"title":"Roosendaal - Antwerpen - Puurs.","titleSections":[[{"type":"STATION","value":"Roosendaal"},{"type":"ICON","value":"MAINTENANCE"},{"type":"STATION","value":"Antwerpen-C."},{"type":"STATION","value":"Puurs"}]],"isActive":true,"start":"2023-09-23T04:00:00+0200","end":"2023-09-25T02:00:00+0200","period":"Zaterdag 23-09-2023 04:00 uur t/m maandag 25-09-2023 02:00 uur.","impact":{"value":2},"summaryAdditionalTravelTime":{"label":"De extra reistijd kan oplopen tot 30 minuten.","shortLabel":"Extra reistijd tot 30 min.","maximumDurationInMinutes":30},"publicationSections":[{"section":{"stations":[{"uicCode":"8400526","stationCode":"RSD","name":"Roosendaal","coordinate":{"lat":51.5402793884277,"lng":4.45833349227905},"countryCode":"NL"},{"uicCode":"8821402","stationCode":"ESN","name":"Essen","coordinate":{"lat":51.46261,"lng":4.45129},"countryCode":"B"},{"uicCode":"8821436","stationCode":"GWD","name":"Wildert","coordinate":{"lat":51.4277061,"lng":4.4633962},"countryCode":"B"},{"uicCode":"8821444","stationCode":"FKTH","name":"Kalmthout","coordinate":{"lat":51.3909989,"lng":4.4668202},"countryCode":"B"},{"uicCode":"8821451","stationCode":"GKT","name":"Kijkuit","coordinate":{"lat":51.37867,"lng":4.46722},"countryCode":"B"},{"uicCode":"8821519","stationCode":"MID","name":"Heide (B)","coordinate":{"lat":51.364828,"lng":4.4604308},"countryCode":"B"},{"uicCode":"8821535","stationCode":"LKP","name":"Kapellen","coordinate":{"lat":51.31362,"lng":4.43262},"countryCode":"B"},{"uicCode":"8821006","stationCode":"ATW","name":"Antwerpen-Centraal","coordinate":{"lat":51.21686,"lng":4.421242},"countryCode":"B"},{"uicCode":"8822715","stationCode":"FRP","name":"Puurs","coordinate":{"lat":51.07716,"lng":4.28273},"countryCode":"B"}],"direction":"BOTH"},"consequence":{"section":{"stations":[{"uicCode":"8400526","stationCode":"RSD","name":"Roosendaal","coordinate":{"lat":51.5402793884277,"lng":4.45833349227905},"countryCode":"NL"},{"uicCode":"8821402","stationCode":"ESN","name":"Essen","coordinate":{"lat":51.46261,"lng":4.45129},"countryCode":"B"},{"uicCode":"8821436","stationCode":"GWD","name":"Wildert","coordinate":{"lat":51.4277061,"lng":4.4633962},"countryCode":"B"},{"uicCode":"8821444","stationCode":"FKTH","name":"Kalmthout","coordinate":{"lat":51.3909989,"lng":4.4668202},"countryCode":"B"},{"uicCode":"8821451","stationCode":"GKT","name":"Kijkuit","coordinate":{"lat":51.37867,"lng":4.46722},"countryCode":"B"},{"uicCode":"8821519","stationCode":"MID","name":"Heide (B)","coordinate":{"lat":51.364828,"lng":4.4604308},"countryCode":"B"},{"uicCode":"8821535","stationCode":"LKP","name":"Kapellen","coordinate":{"lat":51.31362,"lng":4.43262},"countryCode":"B"},{"uicCode":"8821006","stationCode":"ATW","name":"Antwerpen-Centraal","coordinate":{"lat":51.21686,"lng":4.421242},"countryCode":"B"}],"direction":"ONE_WAY"},"description":"rijden bussen","level":"LESS_TRAINS"},"sectionType":"NEIGHBORING_COUNTRY"}],"timespans":[{"start":"2023-09-23T04:00:00+0200","end":"2023-09-25T02:00:00+0200","period":"Zaterdag 23-09-2023 04:00 uur t/m maandag 25-09-2023 02:00 uur.","situation":{"label":"Door werkzaamheden: tussen Roosendaal en Antwerpen-Centraal rijden er bussen."},"cause":{"label":"werkzaamheden"},"additionalTravelTime":{"label":"De extra reistijd kan oplopen tot 30 minuten.","shortLabel":"Extra reistijd tot 30 min.","maximumDurationInMinutes":30},"alternativeTransport":{"label":"er rijden stopbussen","shortLabel":"er rijden stopbussen"},"advices":[]}],"alternativeTransportTimespans":[{"start":"2023-09-23T04:00:00+0200","end":"2023-09-25T02:00:00+0200","alternativeTransport":{"location":[{"station":{"uicCode":"8400526","stationCode":"RSD","name":"Roosendaal","coordinate":{"lat":51.5402793884277,"lng":4.45833349227905},"countryCode":"NL"},"description":"vanaf de voorzijde van het station"}],"label":"Er rijden stopbussen tussen Roosendaal, Essen en Antwerpen-Centraal.","shortLabel":"Er rijden stopbussen Roosendaal - Essen - Antwerpen-C."}}]},{"id":"7003891","type":"MAINTENANCE","registrationTime":"2023-08-17T16:13:37+0200","releaseTime":"2023-08-17T16:13:37+0200","local":false,"title":"Amsterdam - Brussel - Paris (HSL).","titleSections":[[{"type":"STATION","value":"Amsterdam C."},{"type":"ICON","value":"MAINTENANCE"},{"type":"STATION","value":"Antwerpen-C."},{"type":"STATION","value":"Paris-Nord"}]],"isActive":true,"start":"2023-09-23T06:00:00+0200","end":"2023-09-24T23:59:00+0200","period":"Zaterdag 23-09-2023 06:00 uur t/m zondag 24-09-2023 23:59 uur.","impact":{"value":2},"summaryAdditionalTravelTime":{"label":"U heeft geen langere reistijd.","shortLabel":"Geen extra reistijd"},"publicationSections":[{"section":{"stations":[{"uicCode":"8400058","stationCode":"ASD","name":"Amsterdam Centraal","coordinate":{"lat":52.3788871765137,"lng":4.90027761459351},"countryCode":"NL"},{"uicCode":"8400059","stationCode":"ASS","name":"Amsterdam Sloterdijk","coordinate":{"lat":52.3888893127441,"lng":4.83777761459351},"countryCode":"NL"},{"uicCode":"8400079","stationCode":"ASDL","name":"Amsterdam Lelylaan","coordinate":{"lat":52.3577766418457,"lng":4.83388900756836},"countryCode":"NL"},{"uicCode":"8400561","stationCode":"SHL","name":"Schiphol Airport","coordinate":{"lat":52.3094444274902,"lng":4.76194429397583},"countryCode":"NL"},{"uicCode":"8400332","stationCode":"HFD","name":"Hoofddorp","coordinate":{"lat":52.2933349609375,"lng":4.70055532455444},"countryCode":"NL"},{"uicCode":"8400530","stationCode":"RTD","name":"Rotterdam Centraal","coordinate":{"lat":51.9249992370605,"lng":4.46888875961304},"countryCode":"NL"},{"uicCode":"8400529","stationCode":"RTB","name":"Rotterdam Blaak","coordinate":{"lat":51.9202766418457,"lng":4.48888874053955},"countryCode":"NL"},{"uicCode":"8400533","stationCode":"RTZ","name":"Rotterdam Zuid","coordinate":{"lat":51.9044456481934,"lng":4.51027774810791},"countryCode":"NL"},{"uicCode":"8400542","stationCode":"RLB","name":"Rotterdam Lombardijen","coordinate":{"lat":51.8800010681152,"lng":4.53138875961304},"countryCode":"NL"},{"uicCode":"8821105","stationCode":"NDKP","name":"Noorderkempen","coordinate":{"lat":51.358088,"lng":4.633977},"countryCode":"B"},{"uicCode":"8821063","stationCode":"ATWLB","name":"Antwerpen-Luchtbal","coordinate":{"lat":51.2449375,"lng":4.4251543},"countryCode":"B"},{"uicCode":"8821006","stationCode":"ATW","name":"Antwerpen-Centraal","coordinate":{"lat":51.21686,"lng":4.421242},"countryCode":"B"},{"uicCode":"8821121","stationCode":"BERCH","name":"Antwerpen-Berchem","coordinate":{"lat":51.198914,"lng":4.4332},"countryCode":"B"},{"uicCode":"8822004","stationCode":"MECH","name":"Mechelen","coordinate":{"lat":51.01758,"lng":4.48313},"countryCode":"B"},{"uicCode":"8812005","stationCode":"BRUSN","name":"Brussel-Noord","coordinate":{"lat":50.859658,"lng":4.360854},"countryCode":"B"},{"uicCode":"8813003","stationCode":"BRUSC","name":"Brussel-Centraal","coordinate":{"lat":50.845175,"lng":4.357131},"countryCode":"B"},{"uicCode":"8814001","stationCode":"BRUSZ","name":"Brussel-Zuid Midi","coordinate":{"lat":50.836782,"lng":4.336922},"countryCode":"B"},{"uicCode":"8727100","stationCode":"PARIS","name":"Paris-Nord","coordinate":{"lat":48.87977,"lng":2.35575},"countryCode":"F"}],"direction":"BOTH"},"consequence":{"section":{"stations":[{"uicCode":"8400058","stationCode":"ASD","name":"Amsterdam Centraal","coordinate":{"lat":52.3788871765137,"lng":4.90027761459351},"countryCode":"NL"},{"uicCode":"8400059","stationCode":"ASS","name":"Amsterdam Sloterdijk","coordinate":{"lat":52.3888893127441,"lng":4.83777761459351},"countryCode":"NL"},{"uicCode":"8400079","stationCode":"ASDL","name":"Amsterdam Lelylaan","coordinate":{"lat":52.3577766418457,"lng":4.83388900756836},"countryCode":"NL"},{"uicCode":"8400561","stationCode":"SHL","name":"Schiphol Airport","coordinate":{"lat":52.3094444274902,"lng":4.76194429397583},"countryCode":"NL"},{"uicCode":"8400332","stationCode":"HFD","name":"Hoofddorp","coordinate":{"lat":52.2933349609375,"lng":4.70055532455444},"countryCode":"NL"},{"uicCode":"8400530","stationCode":"RTD","name":"Rotterdam Centraal","coordinate":{"lat":51.9249992370605,"lng":4.46888875961304},"countryCode":"NL"},{"uicCode":"8400529","stationCode":"RTB","name":"Rotterdam Blaak","coordinate":{"lat":51.9202766418457,"lng":4.48888874053955},"countryCode":"NL"},{"uicCode":"8400533","stationCode":"RTZ","name":"Rotterdam Zuid","coordinate":{"lat":51.9044456481934,"lng":4.51027774810791},"countryCode":"NL"},{"uicCode":"8400542","stationCode":"RLB","name":"Rotterdam Lombardijen","coordinate":{"lat":51.8800010681152,"lng":4.53138875961304},"countryCode":"NL"},{"uicCode":"8821105","stationCode":"NDKP","name":"Noorderkempen","coordinate":{"lat":51.358088,"lng":4.633977},"countryCode":"B"},{"uicCode":"8821063","stationCode":"ATWLB","name":"Antwerpen-Luchtbal","coordinate":{"lat":51.2449375,"lng":4.4251543},"countryCode":"B"},{"uicCode":"8821006","stationCode":"ATW","name":"Antwerpen-Centraal","coordinate":{"lat":51.21686,"lng":4.421242},"countryCode":"B"}],"direction":"ONE_WAY"},"description":"aangepaste internationale dienstregeling","level":"LESS_TRAINS"},"sectionType":"HSL"}],"timespans":[{"start":"2023-09-23T06:00:00+0200","end":"2023-09-24T23:59:00+0200","period":"Zaterdag 23-09-2023 06:00 uur t/m zondag 24-09-2023 23:59 uur.","situation":{"label":"Door werkzaamheden: tussen Amsterdam Centraal en Antwerpen-Centraal is de internationale dienstregeling aangepast."},"cause":{"label":"werkzaamheden"},"additionalTravelTime":{"label":"U heeft geen langere reistijd.","shortLabel":"Geen extra reistijd"},"advices":["Thalys stopt niet in Antwerpen-Centraal"]}],"alternativeTransportTimespans":[]},{"id":"7004001","type":"MAINTENANCE","registrationTime":"2023-09-14T10:27:04+0200","releaseTime":"2023-09-14T10:27:04+0200","local":false,"title":"Enschede - Gronau - Münster.","titleSections":[[{"type":"STATION","value":"Enschede"},{"type":"STATION","value":"Altenberge"},{"type":"ICON","value":"MAINTENANCE"},{"type":"STATION","value":"Münster (Westf)"}]],"isActive":false,"start":"2023-09-25T22:00:00+0200","end":"2023-09-26T02:00:00+0200","period":"Maandag 25-09-2023 22:00 uur t/m dinsdag 26-09-2023 02:00 uur.","impact":{"value":3},"summaryAdditionalTravelTime":{"label":"De extra reistijd kan oplopen tot 30 minuten.","shortLabel":"extra reistijd tot 30 min.","maximumDurationInMinutes":30},"publicationSections":[{"section":{"stations":[{"uicCode":"8400212","stationCode":"ES","name":"Enschede","coordinate":{"lat":52.2224998474121,"lng":6.8899998664856},"countryCode":"NL"},{"uicCode":"8400217","stationCode":"ESE","name":"Enschede De Eschmarke","coordinate":{"lat":52.2213897705078,"lng":6.95111131668091},"countryCode":"NL"},{"uicCode":"8400262","stationCode":"GBR","name":"Glanerbrug","coordinate":{"lat":52.2186126708984,"lng":6.97444438934326},"countryCode":"NL"},{"uicCode":"8021128","stationCode":"G","name":"Gronau (Westf.)","coordinate":{"lat":52.21521,"lng":7.022109},"countryCode":"D"},{"uicCode":"8021152","stationCode":"EOP","name":"Ochtrup","coordinate":{"lat":52.201703,"lng":7.182643},"countryCode":"D"},{"uicCode":"8021151","stationCode":"EMTE","name":"Metelen Land","coordinate":{"lat":52.162444,"lng":7.254423},"countryCode":"D"},{"uicCode":"8021143","stationCode":"EBFT","name":"Steinfurt-Burgsteinfurt","coordinate":{"lat":52.147384,"lng":7.32934},"countryCode":"D"},{"uicCode":"8071069","stationCode":"EGRK","name":"Steinfurt-Grottenkamp","coordinate":{"lat":52.123439,"lng":7.376031},"countryCode":"D"},{"uicCode":"8021150","stationCode":"EBGO","name":"Steinfurt-Borghorst","coordinate":{"lat":52.118791,"lng":7.397581},"countryCode":"D"},{"uicCode":"8021149","stationCode":"ENOW","name":"Nordwalde","coordinate":{"lat":52.077618,"lng":7.461706},"countryCode":"D"},{"uicCode":"8021148","stationCode":"EABG","name":"Altenberge","coordinate":{"lat":52.05223,"lng":7.481202},"countryCode":"D"},{"uicCode":"8021147","stationCode":"ENBE","name":"Münster-Häger","coordinate":{"lat":52.022327,"lng":7.562668},"countryCode":"D"},{"uicCode":"8023783","stationCode":"ENHF","name":"Münster (W) Zentrum Nord","coordinate":{"lat":51.984987,"lng":7.63861},"countryCode":"D"},{"uicCode":"8021011","stationCode":"MUNST","name":"Münster (Westf) Hbf","coordinate":{"lat":51.956892,"lng":7.635895},"countryCode":"D"}],"direction":"BOTH"},"consequence":{"section":{"stations":[{"uicCode":"8021148","stationCode":"EABG","name":"Altenberge","coordinate":{"lat":52.05223,"lng":7.481202},"countryCode":"D"},{"uicCode":"8021147","stationCode":"ENBE","name":"Münster-Häger","coordinate":{"lat":52.022327,"lng":7.562668},"countryCode":"D"},{"uicCode":"8023783","stationCode":"ENHF","name":"Münster (W) Zentrum Nord","coordinate":{"lat":51.984987,"lng":7.63861},"countryCode":"D"},{"uicCode":"8021011","stationCode":"MUNST","name":"Münster (Westf) Hbf","coordinate":{"lat":51.956892,"lng":7.635895},"countryCode":"D"}],"direction":"ONE_WAY"},"description":"rijden bussen","level":"LESS_TRAINS"},"sectionType":"NEIGHBORING_COUNTRY"}],"timespans":[{"start":"2023-09-25T22:00:00+0200","end":"2023-09-26T02:00:00+0200","period":"Maandag 25-09-2023 22:00 uur t/m dinsdag 26-09-2023 02:00 uur.","situation":{"label":"Door werkzaamheden: tussen Altenberge en Münster (Westf) Hbf rijden er bussen."},"cause":{"label":"werkzaamheden"},"additionalTravelTime":{"label":"De extra reistijd kan oplopen tot 30 minuten.","shortLabel":"extra reistijd tot 30 min.","maximumDurationInMinutes":30},"alternativeTransport":{"label":"er rijden stopbussen","shortLabel":"er rijden stopbussen"},"advices":[]}],"alternativeTransportTimespans":[{"start":"2023-09-25T22:00:00+0200","end":"2023-09-26T02:00:00+0200","alternativeTransport":{"location":[],"label":"Er rijden stopbussen tussen Altenberge en Münster (Westf) Hbf.","shortLabel":"er rijden stopbussen Altenberge - Münster (Westf)"}}]},{"id":"7003929","type":"MAINTENANCE","registrationTime":"2023-08-25T10:47:54+0200","releaseTime":"2023-08-25T10:47:54+0200","local":false,"title":"Amsterdam - Enkhuizen.","titleSections":[[{"type":"STATION","value":"Amsterdam C."},{"type":"STATION","value":"Hoorn"},{"type":"ICON","value":"MAINTENANCE"},{"type":"STATION","value":"Enkhuizen"}]],"isActive":false,"start":"2023-09-29T00:00:00+0200","end":"2023-09-29T05:00:00+0200","period":"Vrijdag 29-09-2023 00:00 uur t/m vrijdag 29-09-2023 05:00 uur.","impact":{"value":3},"summaryAdditionalTravelTime":{"label":"De extra reistijd kan oplopen tot 30 minuten.","shortLabel":"extra reistijd tot 30 min.","maximumDurationInMinutes":30},"publicationSections":[{"section":{"stations":[{"uicCode":"8400058","stationCode":"ASD","name":"Amsterdam Centraal","coordinate":{"lat":52.3788871765137,"lng":4.90027761459351},"countryCode":"NL"},{"uicCode":"8400059","stationCode":"ASS","name":"Amsterdam Sloterdijk","coordinate":{"lat":52.3888893127441,"lng":4.83777761459351},"countryCode":"NL"},{"uicCode":"8400731","stationCode":"ZD","name":"Zaandam","coordinate":{"lat":52.4388885498047,"lng":4.81361103057861},"countryCode":"NL"},{"uicCode":"8400728","stationCode":"ZDK","name":"Zaandam Kogerveld","coordinate":{"lat":52.4566650390625,"lng":4.82027769088745},"countryCode":"NL"},{"uicCode":"8400499","stationCode":"PMW","name":"Purmerend Weidevenne","coordinate":{"lat":52.4965906325416,"lng":4.93562936782836},"countryCode":"NL"},{"uicCode":"8400508","stationCode":"PMR","name":"Purmerend","coordinate":{"lat":52.5030555725098,"lng":4.95361089706421},"countryCode":"NL"},{"uicCode":"8400506","stationCode":"PMO","name":"Purmerend Overwhere","coordinate":{"lat":52.5113906860352,"lng":4.96833324432373},"countryCode":"NL"},{"uicCode":"8400337","stationCode":"HN","name":"Hoorn","coordinate":{"lat":52.6447219848633,"lng":5.05555534362793},"countryCode":"NL"},{"uicCode":"8400336","stationCode":"HNK","name":"Hoorn Kersenboogerd","coordinate":{"lat":52.6536102294922,"lng":5.08555555343628},"countryCode":"NL"},{"uicCode":"8400334","stationCode":"HKS","name":"Hoogkarspel","coordinate":{"lat":52.6905555725098,"lng":5.18388891220093},"countryCode":"NL"},{"uicCode":"8400127","stationCode":"BKG","name":"Bovenkarspel-Grootebroek","coordinate":{"lat":52.6949996948242,"lng":5.23777770996094},"countryCode":"NL"},{"uicCode":"8400230","stationCode":"BKF","name":"Bovenkarspel Flora","coordinate":{"lat":52.6961097717285,"lng":5.25277757644653},"countryCode":"NL"},{"uicCode":"8400210","stationCode":"EKZ","name":"Enkhuizen","coordinate":{"lat":52.6991653442383,"lng":5.28638887405396},"countryCode":"NL"}],"direction":"BOTH"},"consequence":{"section":{"stations":[{"uicCode":"8400337","stationCode":"HN","name":"Hoorn","coordinate":{"lat":52.6447219848633,"lng":5.05555534362793},"countryCode":"NL"},{"uicCode":"8400336","stationCode":"HNK","name":"Hoorn Kersenboogerd","coordinate":{"lat":52.6536102294922,"lng":5.08555555343628},"countryCode":"NL"},{"uicCode":"8400334","stationCode":"HKS","name":"Hoogkarspel","coordinate":{"lat":52.6905555725098,"lng":5.18388891220093},"countryCode":"NL"},{"uicCode":"8400127","stationCode":"BKG","name":"Bovenkarspel-Grootebroek","coordinate":{"lat":52.6949996948242,"lng":5.23777770996094},"countryCode":"NL"},{"uicCode":"8400230","stationCode":"BKF","name":"Bovenkarspel Flora","coordinate":{"lat":52.6961097717285,"lng":5.25277757644653},"countryCode":"NL"},{"uicCode":"8400210","stationCode":"EKZ","name":"Enkhuizen","coordinate":{"lat":52.6991653442383,"lng":5.28638887405396},"countryCode":"NL"}],"direction":"ONE_WAY"},"description":"dienstregeling aangepast","level":"LESS_TRAINS"},"sectionType":"NL"}],"timespans":[{"start":"2023-09-29T00:00:00+0200","end":"2023-09-29T05:00:00+0200","period":"Vrijdag 29-09-2023 00:00 uur t/m vrijdag 29-09-2023 05:00 uur.","situation":{"label":"Door werkzaamheden: tussen Hoorn en Enkhuizen is de dienstregeling aangepast."},"cause":{"label":"werkzaamheden"},"additionalTravelTime":{"label":"De extra reistijd kan oplopen tot 30 minuten.","shortLabel":"extra reistijd tot 30 min.","maximumDurationInMinutes":30},"alternativeTransport":{"label":"er rijden stopbussen","shortLabel":"er rijden stopbussen"},"advices":[]}],"alternativeTransportTimespans":[{"start":"2023-09-29T00:00:00+0200","end":"2023-09-29T01:00:00+0200","alternativeTransport":{"location":[{"station":{"uicCode":"8400337","stationCode":"HN","name":"Hoorn","coordinate":{"lat":52.6447219848633,"lng":5.05555534362793},"countryCode":"NL"},"description":"vanaf de voorzijde van het station"},{"station":{"uicCode":"8400336","stationCode":"HNK","name":"Hoorn Kersenboogerd","coordinate":{"lat":52.6536102294922,"lng":5.08555555343628},"countryCode":"NL"},"description":"vanaf de bushalte aan de Rijnweg"},{"station":{"uicCode":"8400334","stationCode":"HKS","name":"Hoogkarspel","coordinate":{"lat":52.6905555725098,"lng":5.18388891220093},"countryCode":"NL"},"description":"vanaf het Stationsplein"},{"station":{"uicCode":"8400127","stationCode":"BKG","name":"Bovenkarspel-Grootebroek","coordinate":{"lat":52.6949996948242,"lng":5.23777770996094},"countryCode":"NL"},"description":"vanaf de Burgemeester J.N. Stuifbergenlaan"},{"station":{"uicCode":"8400230","stationCode":"BKF","name":"Bovenkarspel Flora","coordinate":{"lat":52.6961097717285,"lng":5.25277757644653},"countryCode":"NL"},"description":"vanaf de doorgaande weg"}],"label":"Er rijden stopbussen van Hoorn, Hoorn Kersenboogerd, Hoogkarspel, Bovenkarspel-Grootebroek, Bovenkarspel Flora naar Enkhuizen.","shortLabel":"er rijden stopbussen Hoorn -> Kersenboogerd -> Hoogkarspel -> Bovenkarspel-Gr. -> Bovenkarspel Fl. -> Enkhuizen"}}]},{"id":"7003946","type":"MAINTENANCE","registrationTime":"2023-09-06T15:42:36+0200","releaseTime":"2023-09-06T15:42:36+0200","local":false,"title":"Enschede - Gronau - Dortmund.","titleSections":[[{"type":"STATION","value":"Enschede"},{"type":"STATION","value":"Lünen Hbf"},{"type":"ICON","value":"MAINTENANCE"},{"type":"STATION","value":"Dortmund Hbf"}]],"isActive":false,"start":"2023-09-29T04:00:00+0200","end":"2023-10-11T02:00:00+0200","period":"Vrijdag 29-09-2023 04:00 uur t/m woensdag 11-10-2023 02:00 uur.","impact":{"value":2},"summaryAdditionalTravelTime":{"label":"U heeft geen langere reistijd.","shortLabel":"Geen extra reistijd"},"publicationSections":[{"section":{"stations":[{"uicCode":"8400212","stationCode":"ES","name":"Enschede","coordinate":{"lat":52.2224998474121,"lng":6.8899998664856},"countryCode":"NL"},{"uicCode":"8400217","stationCode":"ESE","name":"Enschede De Eschmarke","coordinate":{"lat":52.2213897705078,"lng":6.95111131668091},"countryCode":"NL"},{"uicCode":"8400262","stationCode":"GBR","name":"Glanerbrug","coordinate":{"lat":52.2186126708984,"lng":6.97444438934326},"countryCode":"NL"},{"uicCode":"8021128","stationCode":"G","name":"Gronau (Westf.)","coordinate":{"lat":52.21521,"lng":7.022109},"countryCode":"D"},{"uicCode":"8021126","stationCode":"EEPE","name":"Epe (Westf)","coordinate":{"lat":52.18346,"lng":7.03009},"countryCode":"D"},{"uicCode":"8021123","stationCode":"EAHS","name":"Ahaus","coordinate":{"lat":52.079796120944,"lng":7.01635837554931},"countryCode":"D"},{"uicCode":"8021122","stationCode":"ELGD","name":"Legden","coordinate":{"lat":52.034924,"lng":7.088538},"countryCode":"D"},{"uicCode":"8021121","stationCode":"EHW","name":"Rosendahl-Holtwick","coordinate":{"lat":51.9994672604096,"lng":7.1215009689331},"countryCode":"D"},{"uicCode":"8021119","stationCode":"ECMF","name":"Coesfeld (Westf)","coordinate":{"lat":51.939,"lng":7.1642},"countryCode":"D"},{"uicCode":"8021117","stationCode":"ELET","name":"Lette (Kr Coesfeld)","coordinate":{"lat":51.8925,"lng":7.187},"countryCode":"D"},{"uicCode":"8021005","stationCode":"EDULH","name":"Dülmen","coordinate":{"lat":51.827927,"lng":7.295756},"countryCode":"D"},{"uicCode":"8021113","stationCode":"ELDH","name":"Lüdinghausen","coordinate":{"lat":51.76184,"lng":7.43165},"countryCode":"D"},{"uicCode":"8021112","stationCode":"ESEM","name":"Selm","coordinate":{"lat":51.707885,"lng":7.453396},"countryCode":"D"},{"uicCode":"8021120","stationCode":"ESEB","name":"Selm-Beifang","coordinate":{"lat":51.692947,"lng":7.454829},"countryCode":"D"},{"uicCode":"8021111","stationCode":"EBOK","name":"Bork (Westf)","coordinate":{"lat":51.66988,"lng":7.45664},"countryCode":"D"},{"uicCode":"8010098","stationCode":"ELUE","name":"Lünen Hbf","coordinate":{"lat":51.61713,"lng":7.52949},"countryCode":"D"},{"uicCode":"8010100","stationCode":"EPRN","name":"Preussen","coordinate":{"lat":51.58833,"lng":7.53933},"countryCode":"D"},{"uicCode":"8010101","stationCode":"EDD","name":"Dortmund Derne","coordinate":{"lat":51.56754,"lng":7.52855},"countryCode":"D"},{"uicCode":"8010102","stationCode":"EDKD","name":"Dortmund Kirchderne","coordinate":{"lat":51.547076,"lng":7.510099},"countryCode":"D"},{"uicCode":"8010053","stationCode":"EDO","name":"Dortmund Hbf","coordinate":{"lat":51.517896,"lng":7.45929},"countryCode":"D"}],"direction":"BOTH"},"consequence":{"section":{"stations":[{"uicCode":"8010098","stationCode":"ELUE","name":"Lünen Hbf","coordinate":{"lat":51.61713,"lng":7.52949},"countryCode":"D"},{"uicCode":"8010100","stationCode":"EPRN","name":"Preussen","coordinate":{"lat":51.58833,"lng":7.53933},"countryCode":"D"},{"uicCode":"8010101","stationCode":"EDD","name":"Dortmund Derne","coordinate":{"lat":51.56754,"lng":7.52855},"countryCode":"D"},{"uicCode":"8010102","stationCode":"EDKD","name":"Dortmund Kirchderne","coordinate":{"lat":51.547076,"lng":7.510099},"countryCode":"D"},{"uicCode":"8010053","stationCode":"EDO","name":"Dortmund Hbf","coordinate":{"lat":51.517896,"lng":7.45929},"countryCode":"D"}],"direction":"ONE_WAY"},"description":"aangepaste internationale dienstregeling","level":"LESS_TRAINS"},"sectionType":"NEIGHBORING_COUNTRY"}],"timespans":[{"start":"2023-09-29T04:00:00+0200","end":"2023-10-11T02:00:00+0200","period":"Vrijdag 29-09-2023 04:00 uur t/m woensdag 11-10-2023 02:00 uur.","situation":{"label":"Door werkzaamheden: tussen Lünen Hbf en Dortmund Hbf is de internationale dienstregeling aangepast."},"cause":{"label":"werkzaamheden"},"additionalTravelTime":{"label":"U heeft geen langere reistijd.","shortLabel":"Geen extra reistijd"},"alternativeTransport":{"label":"er rijden stopbussen","shortLabel":"er rijden stopbussen"},"advices":["Businzet tussen Lünen Hbf en Dortmund Hbf"]}],"alternativeTransportTimespans":[{"start":"2023-09-29T04:00:00+0200","end":"2023-10-11T02:00:00+0200","alternativeTransport":{"location":[],"label":"Er rijden stopbussen tussen Lünen Hbf en Dortmund Hbf.","shortLabel":"er rijden stopbussen Lünen Hbf - Dortmund Hbf"}}]},{"id":"7003928","type":"MAINTENANCE","registrationTime":"2023-09-06T15:39:56+0200","releaseTime":"2023-09-06T15:39:56+0200","local":false,"title":"Haarlem - Den Haag.","titleSections":[[{"type":"STATION","value":"Haarlem"},{"type":"ICON","value":"MAINTENANCE"},{"type":"STATION","value":"Den Haag C."}]],"isActive":false,"start":"2023-09-29T05:10:00+0200","end":"2023-09-29T06:00:00+0200","period":"Vrijdag 29-09-2023 05:10 uur t/m vrijdag 29-09-2023 06:00 uur.","impact":{"value":2},"summaryAdditionalTravelTime":{"label":"De extra reistijd is ongeveer 30 minuten.","shortLabel":"extra reistijd 30 min.","minimumDurationInMinutes":30,"maximumDurationInMinutes":30},"publicationSections":[{"section":{"stations":[{"uicCode":"8400285","stationCode":"HLM","name":"Haarlem","coordinate":{"lat":52.3877792358398,"lng":4.63833332061768},"countryCode":"NL"},{"uicCode":"8400302","stationCode":"HAD","name":"Heemstede-Aerdenhout","coordinate":{"lat":52.3591651916504,"lng":4.60666656494141},"countryCode":"NL"},{"uicCode":"8400329","stationCode":"HIL","name":"Hillegom","coordinate":{"lat":52.3025016784668,"lng":4.56555557250977},"countryCode":"NL"},{"uicCode":"8400655","stationCode":"VH","name":"Voorhout","coordinate":{"lat":52.2244453430176,"lng":4.4844446182251},"countryCode":"NL"},{"uicCode":"8400390","stationCode":"LEDN","name":"Leiden Centraal","coordinate":{"lat":52.1661109924316,"lng":4.48166656494141},"countryCode":"NL"},{"uicCode":"8400188","stationCode":"DVNK","name":"De Vink","coordinate":{"lat":52.1472206115723,"lng":4.4563889503479},"countryCode":"NL"},{"uicCode":"8400659","stationCode":"VST","name":"Voorschoten","coordinate":{"lat":52.1252784729004,"lng":4.43249988555908},"countryCode":"NL"},{"uicCode":"8400278","stationCode":"GVM","name":"Den Haag Mariahoeve","coordinate":{"lat":52.0905570983887,"lng":4.36944437026978},"countryCode":"NL"},{"uicCode":"8400380","stationCode":"LAA","name":"Den Haag Laan v NOI","coordinate":{"lat":52.0786094665527,"lng":4.34277772903442},"countryCode":"NL"},{"uicCode":"8400282","stationCode":"GVC","name":"Den Haag Centraal","coordinate":{"lat":52.0802764892578,"lng":4.32499980926514},"countryCode":"NL"}],"direction":"BOTH"},"consequence":{"section":{"stations":[{"uicCode":"8400285","stationCode":"HLM","name":"Haarlem","coordinate":{"lat":52.3877792358398,"lng":4.63833332061768},"countryCode":"NL"},{"uicCode":"8400302","stationCode":"HAD","name":"Heemstede-Aerdenhout","coordinate":{"lat":52.3591651916504,"lng":4.60666656494141},"countryCode":"NL"},{"uicCode":"8400329","stationCode":"HIL","name":"Hillegom","coordinate":{"lat":52.3025016784668,"lng":4.56555557250977},"countryCode":"NL"},{"uicCode":"8400655","stationCode":"VH","name":"Voorhout","coordinate":{"lat":52.2244453430176,"lng":4.4844446182251},"countryCode":"NL"},{"uicCode":"8400390","stationCode":"LEDN","name":"Leiden Centraal","coordinate":{"lat":52.1661109924316,"lng":4.48166656494141},"countryCode":"NL"},{"uicCode":"8400188","stationCode":"DVNK","name":"De Vink","coordinate":{"lat":52.1472206115723,"lng":4.4563889503479},"countryCode":"NL"},{"uicCode":"8400659","stationCode":"VST","name":"Voorschoten","coordinate":{"lat":52.1252784729004,"lng":4.43249988555908},"countryCode":"NL"},{"uicCode":"8400278","stationCode":"GVM","name":"Den Haag Mariahoeve","coordinate":{"lat":52.0905570983887,"lng":4.36944437026978},"countryCode":"NL"},{"uicCode":"8400380","stationCode":"LAA","name":"Den Haag Laan v NOI","coordinate":{"lat":52.0786094665527,"lng":4.34277772903442},"countryCode":"NL"},{"uicCode":"8400282","stationCode":"GVC","name":"Den Haag Centraal","coordinate":{"lat":52.0802764892578,"lng":4.32499980926514},"countryCode":"NL"}],"direction":"ONE_WAY"},"description":"dienstregeling aangepast","level":"LESS_TRAINS"},"sectionType":"NL"}],"timespans":[{"start":"2023-09-29T05:10:00+0200","end":"2023-09-29T06:00:00+0200","period":"Vrijdag 29-09-2023 05:10 uur t/m vrijdag 29-09-2023 06:00 uur.","situation":{"label":"Door werkzaamheden: tussen Haarlem en Den Haag Centraal is de dienstregeling aangepast."},"cause":{"label":"werkzaamheden"},"additionalTravelTime":{"label":"De extra reistijd is ongeveer 30 minuten.","shortLabel":"extra reistijd 30 min.","minimumDurationInMinutes":30,"maximumDurationInMinutes":30},"advices":["De eerste Sprinter van Haarlem naar Den Haag Centraal rijdt niet."]}],"alternativeTransportTimespans":[]},{"id":"7003880","type":"MAINTENANCE","registrationTime":"2023-09-01T11:05:04+0200","releaseTime":"2023-09-01T11:05:04+0200","local":false,"title":"Amersfoort - Ede-Wageningen.","titleSections":[[{"type":"STATION","value":"Amersfoort C."},{"type":"ICON","value":"MAINTENANCE"},{"type":"STATION","value":"Ede-Wageningen"}]],"isActive":false,"start":"2023-09-30T00:05:00+0200","end":"2023-10-02T02:00:00+0200","period":"Zaterdag 30-09-2023 00:05 uur t/m maandag 02-10-2023 02:00 uur.","impact":{"value":4},"summaryAdditionalTravelTime":{"label":"De extra reistijd kan oplopen tot 30 minuten.","shortLabel":"extra reistijd tot 30 min.","maximumDurationInMinutes":30},"publicationSections":[{"section":{"stations":[{"uicCode":"8400055","stationCode":"AMF","name":"Amersfoort Centraal","coordinate":{"lat":52.1538887023926,"lng":5.37055540084839},"countryCode":"NL"},{"uicCode":"8400490","stationCode":"HVL","name":"Hoevelaken","coordinate":{"lat":52.16652,"lng":5.45718},"countryCode":"NL"},{"uicCode":"8400092","stationCode":"BNN","name":"Barneveld Noord","coordinate":{"lat":52.1613883972168,"lng":5.59805536270142},"countryCode":"NL"},{"uicCode":"8400091","stationCode":"BNC","name":"Barneveld Centrum","coordinate":{"lat":52.1399993896484,"lng":5.59027767181396},"countryCode":"NL"},{"uicCode":"8400115","stationCode":"BNZ","name":"Barneveld Zuid","coordinate":{"lat":52.128853,"lng":5.60246},"countryCode":"NL"},{"uicCode":"8400405","stationCode":"LTN","name":"Lunteren","coordinate":{"lat":52.085277557373,"lng":5.62444448471069},"countryCode":"NL"},{"uicCode":"8400201","stationCode":"EDC","name":"Ede Centrum","coordinate":{"lat":52.0436096191406,"lng":5.66833353042603},"countryCode":"NL"},{"uicCode":"8400200","stationCode":"ED","name":"Ede-Wageningen","coordinate":{"lat":52.0277786254883,"lng":5.67305564880371},"countryCode":"NL"}],"direction":"BOTH"},"consequence":{"section":{"stations":[{"uicCode":"8400055","stationCode":"AMF","name":"Amersfoort Centraal","coordinate":{"lat":52.1538887023926,"lng":5.37055540084839},"countryCode":"NL"},{"uicCode":"8400490","stationCode":"HVL","name":"Hoevelaken","coordinate":{"lat":52.16652,"lng":5.45718},"countryCode":"NL"},{"uicCode":"8400092","stationCode":"BNN","name":"Barneveld Noord","coordinate":{"lat":52.1613883972168,"lng":5.59805536270142},"countryCode":"NL"},{"uicCode":"8400091","stationCode":"BNC","name":"Barneveld Centrum","coordinate":{"lat":52.1399993896484,"lng":5.59027767181396},"countryCode":"NL"},{"uicCode":"8400115","stationCode":"BNZ","name":"Barneveld Zuid","coordinate":{"lat":52.128853,"lng":5.60246},"countryCode":"NL"},{"uicCode":"8400405","stationCode":"LTN","name":"Lunteren","coordinate":{"lat":52.085277557373,"lng":5.62444448471069},"countryCode":"NL"},{"uicCode":"8400201","stationCode":"EDC","name":"Ede Centrum","coordinate":{"lat":52.0436096191406,"lng":5.66833353042603},"countryCode":"NL"},{"uicCode":"8400200","stationCode":"ED","name":"Ede-Wageningen","coordinate":{"lat":52.0277786254883,"lng":5.67305564880371},"countryCode":"NL"}],"direction":"ONE_WAY"},"description":"rijden bussen","level":"LESS_TRAINS"},"sectionType":"NL"}],"timespans":[{"start":"2023-09-30T00:05:00+0200","end":"2023-10-02T02:00:00+0200","period":"Zaterdag 30-09-2023 00:05 uur t/m maandag 02-10-2023 02:00 uur.","situation":{"label":"Door werkzaamheden: tussen Amersfoort Centraal en Ede-Wageningen rijden er bussen."},"cause":{"label":"werkzaamheden"},"additionalTravelTime":{"label":"De extra reistijd kan oplopen tot 30 minuten.","shortLabel":"extra reistijd tot 30 min.","maximumDurationInMinutes":30},"alternativeTransport":{"label":"er rijden stopbussen","shortLabel":"er rijden stopbussen"},"advices":["Let op! Ook werkzaamheden op trajecten rond Amersfoort."]}],"alternativeTransportTimespans":[{"start":"2023-09-30T00:05:00+0200","end":"2023-10-02T02:00:00+0200","alternativeTransport":{"location":[{"station":{"uicCode":"8400055","stationCode":"AMF","name":"Amersfoort Centraal","coordinate":{"lat":52.1538887023926,"lng":5.37055540084839},"countryCode":"NL"},"description":"vanaf het busstation, centrumzijde"},{"station":{"uicCode":"8400490","stationCode":"HVL","name":"Hoevelaken","coordinate":{"lat":52.16652,"lng":5.45718},"countryCode":"NL"},"description":"vanaf de bushalte aan de Stoutenburg"},{"station":{"uicCode":"8400092","stationCode":"BNN","name":"Barneveld Noord","coordinate":{"lat":52.1613883972168,"lng":5.59805536270142},"countryCode":"NL"},"description":"vanaf het Stationsplein"},{"station":{"uicCode":"8400091","stationCode":"BNC","name":"Barneveld Centrum","coordinate":{"lat":52.1399993896484,"lng":5.59027767181396},"countryCode":"NL"},"description":"vanaf de voorzijde van het station"},{"station":{"uicCode":"8400115","stationCode":"BNZ","name":"Barneveld Zuid","coordinate":{"lat":52.128853,"lng":5.60246},"countryCode":"NL"},"description":"vanaf het Stationsplein"},{"station":{"uicCode":"8400405","stationCode":"LTN","name":"Lunteren","coordinate":{"lat":52.085277557373,"lng":5.62444448471069},"countryCode":"NL"},"description":"vanaf het Stationsplein"},{"station":{"uicCode":"8400201","stationCode":"EDC","name":"Ede Centrum","coordinate":{"lat":52.0436096191406,"lng":5.66833353042603},"countryCode":"NL"},"description":"vanaf de bushalte aan de Telefoonweg"},{"station":{"uicCode":"8400200","stationCode":"ED","name":"Ede-Wageningen","coordinate":{"lat":52.0277786254883,"lng":5.67305564880371},"countryCode":"NL"},"description":"vanaf het Noordplein"}],"label":"Er rijden stopbussen tussen Amersfoort Centraal, Hoevelaken, Barneveld Noord, Barneveld Centrum, Barneveld Zuid, Lunteren, Ede Centrum en Ede-Wageningen.","shortLabel":"er rijden stopbussen Amersfoort C. - Hoevelaken - Barneveld Noord - Barneveld C. - Barneveld Zuid - Lunteren - Ede C. - Ede-Wageningen"}}]},{"id":"7003939","type":"MAINTENANCE","registrationTime":"2023-09-05T13:11:24+0200","releaseTime":"2023-09-05T13:11:24+0200","local":false,"title":"Amersfoort Centraal.","titleSections":[[{"type":"STATION","value":"Amersfoort C."}]],"isActive":false,"start":"2023-09-30T01:00:00+0200","end":"2023-10-02T04:40:00+0200","period":"Zaterdag 30-09-2023 01:00 uur t/m maandag 02-10-2023 04:40 uur.","impact":{"value":4},"summaryAdditionalTravelTime":{"label":"De extra reistijd kan oplopen tot 30 minuten.","shortLabel":"extra reistijd tot 30 min.","maximumDurationInMinutes":30},"publicationSections":[{"section":{"stations":[{"uicCode":"8400055","stationCode":"AMF","name":"Amersfoort Centraal","coordinate":{"lat":52.1538887023926,"lng":5.37055540084839},"countryCode":"NL"},{"uicCode":"8400490","stationCode":"HVL","name":"Hoevelaken","coordinate":{"lat":52.16652,"lng":5.45718},"countryCode":"NL"},{"uicCode":"8400066","stationCode":"APD","name":"Apeldoorn","coordinate":{"lat":52.2091674804687,"lng":5.97027778625488},"countryCode":"NL"},{"uicCode":"8400229","stationCode":"APDO","name":"Apeldoorn Osseveld","coordinate":{"lat":52.2152786254883,"lng":6.00444459915161},"countryCode":"NL"},{"uicCode":"8400599","stationCode":"TWL","name":"Twello","coordinate":{"lat":52.2377777099609,"lng":6.09861087799072},"countryCode":"NL"},{"uicCode":"8400173","stationCode":"DV","name":"Deventer","coordinate":{"lat":52.2574996948242,"lng":6.16055536270142},"countryCode":"NL"}],"direction":"BOTH"},"consequence":{"section":{"stations":[{"uicCode":"8400055","stationCode":"AMF","name":"Amersfoort Centraal","coordinate":{"lat":52.1538887023926,"lng":5.37055540084839},"countryCode":"NL"}],"direction":"ONE_WAY"},"description":"aangep. dienstregeling en businzet","level":"LESS_TRAINS"},"sectionType":"NL"},{"section":{"stations":[{"uicCode":"8400621","stationCode":"UT","name":"Utrecht Centraal","coordinate":{"lat":52.0888900756836,"lng":5.11027765274048},"countryCode":"NL"},{"uicCode":"8400620","stationCode":"UTO","name":"Utrecht Overvecht","coordinate":{"lat":52.1100006103516,"lng":5.12472200393677},"countryCode":"NL"},{"uicCode":"8400114","stationCode":"BHV","name":"Bilthoven","coordinate":{"lat":52.1300010681152,"lng":5.20388889312744},"countryCode":"NL"},{"uicCode":"8400179","stationCode":"DLD","name":"Den Dolder","coordinate":{"lat":52.1402778625488,"lng":5.24277782440186},"countryCode":"NL"},{"uicCode":"8400055","stationCode":"AMF","name":"Amersfoort Centraal","coordinate":{"lat":52.1538887023926,"lng":5.37055540084839},"countryCode":"NL"}],"direction":"BOTH"},"consequence":{"section":{"stations":[{"uicCode":"8400055","stationCode":"AMF","name":"Amersfoort Centraal","coordinate":{"lat":52.1538887023926,"lng":5.37055540084839},"countryCode":"NL"}],"direction":"ONE_WAY"},"description":"aangep. dienstregeling en businzet","level":"LESS_TRAINS"},"sectionType":"NL"},{"section":{"stations":[{"uicCode":"8400055","stationCode":"AMF","name":"Amersfoort Centraal","coordinate":{"lat":52.1538887023926,"lng":5.37055540084839},"countryCode":"NL"},{"uicCode":"8400054","stationCode":"AMFS","name":"Amersfoort Schothorst","coordinate":{"lat":52.1748221374512,"lng":5.40388870239258},"countryCode":"NL"},{"uicCode":"8400228","stationCode":"AVAT","name":"Amersfoort Vathorst","coordinate":{"lat":52.1927795410156,"lng":5.43388891220093},"countryCode":"NL"},{"uicCode":"8400469","stationCode":"NKK","name":"Nijkerk","coordinate":{"lat":52.2222213745117,"lng":5.49388885498047},"countryCode":"NL"},{"uicCode":"8400509","stationCode":"PT","name":"Putten","coordinate":{"lat":52.2649993896484,"lng":5.57527780532837},"countryCode":"NL"},{"uicCode":"8400216","stationCode":"EML","name":"Ermelo","coordinate":{"lat":52.3016662597656,"lng":5.61472225189209},"countryCode":"NL"},{"uicCode":"8400294","stationCode":"HD","name":"Harderwijk","coordinate":{"lat":52.3375015258789,"lng":5.61972236633301},"countryCode":"NL"},{"uicCode":"8400466","stationCode":"NS","name":"Nunspeet","coordinate":{"lat":52.3708343505859,"lng":5.78527784347534},"countryCode":"NL"},{"uicCode":"8400388","stationCode":"HDE","name":"'t Harde","coordinate":{"lat":52.4091682,"lng":5.893611},"countryCode":"NL"},{"uicCode":"8400690","stationCode":"WZ","name":"Wezep","coordinate":{"lat":52.4541664123535,"lng":6.00250005722046},"countryCode":"NL"},{"uicCode":"8400747","stationCode":"ZL","name":"Zwolle","coordinate":{"lat":52.5047225952148,"lng":6.09194421768188},"countryCode":"NL"}],"direction":"BOTH"},"consequence":{"section":{"stations":[{"uicCode":"8400055","stationCode":"AMF","name":"Amersfoort Centraal","coordinate":{"lat":52.1538887023926,"lng":5.37055540084839},"countryCode":"NL"}],"direction":"ONE_WAY"},"description":"aangep. dienstregeling en businzet","level":"LESS_TRAINS"},"sectionType":"NL"},{"section":{"stations":[{"uicCode":"8400322","stationCode":"HVS","name":"Hilversum","coordinate":{"lat":52.2258338928223,"lng":5.18194437026978},"countryCode":"NL"},{"uicCode":"8400086","stationCode":"BRN","name":"Baarn","coordinate":{"lat":52.2083320617676,"lng":5.28083324432373},"countryCode":"NL"},{"uicCode":"8400055","stationCode":"AMF","name":"Amersfoort Centraal","coordinate":{"lat":52.1538887023926,"lng":5.37055540084839},"countryCode":"NL"}],"direction":"BOTH"},"consequence":{"section":{"stations":[{"uicCode":"8400055","stationCode":"AMF","name":"Amersfoort Centraal","coordinate":{"lat":52.1538887023926,"lng":5.37055540084839},"countryCode":"NL"}],"direction":"ONE_WAY"},"description":"aangep. dienstregeling en businzet","level":"LESS_TRAINS"},"sectionType":"NL"}],"timespans":[{"start":"2023-09-30T01:00:00+0200","end":"2023-10-02T04:40:00+0200","period":"Zaterdag 30-09-2023 01:00 uur t/m maandag 02-10-2023 04:40 uur.","situation":{"label":"Door werkzaamheden: van, via en naar Amersfoort Centraal is de dienstregeling aangepast en rijden er bussen."},"cause":{"label":"werkzaamheden"},"additionalTravelTime":{"label":"De extra reistijd kan oplopen tot 30 minuten.","shortLabel":"extra reistijd tot 30 min.","maximumDurationInMinutes":30},"alternativeTransport":{"label":"er rijden stop- en snelbussen","shortLabel":"er rijden stop- en snelbussen"},"advices":["NS verwacht drukte in de bussen. Houd rekening met extra reistijd en ga zo mogelijk eerder op reis.","tussen Utrecht C. en Amersfoort C. reist u via Driebergen-Zeist","tussen Utrecht C. en Deventer/Zwolle reist u via Arnhem C."]}],"alternativeTransportTimespans":[{"start":"2023-09-30T01:00:00+0200","end":"2023-09-30T02:30:00+0200","alternativeTransport":{"location":[{"station":{"uicCode":"8400086","stationCode":"BRN","name":"Baarn","coordinate":{"lat":52.2083320617676,"lng":5.28083324432373},"countryCode":"NL"},"description":"vanaf het Stationsplein"}],"label":"Er rijden stopbussen van Baarn naar Amersfoort Centraal.","shortLabel":"er rijden stopbussen Baarn -> Amersfoort C."}},{"start":"2023-09-30T04:00:00+0200","end":"2023-10-02T02:30:00+0200","alternativeTransport":{"location":[{"station":{"uicCode":"8400086","stationCode":"BRN","name":"Baarn","coordinate":{"lat":52.2083320617676,"lng":5.28083324432373},"countryCode":"NL"},"description":"vanaf het Stationsplein"},{"station":{"uicCode":"8400055","stationCode":"AMF","name":"Amersfoort Centraal","coordinate":{"lat":52.1538887023926,"lng":5.37055540084839},"countryCode":"NL"},"description":"vanaf het busstation, centrumzijde"}],"label":"Er rijden stopbussen tussen Baarn en Amersfoort Centraal.","shortLabel":"er rijden stopbussen Baarn - Amersfoort C."}},{"start":"2023-09-30T04:00:00+0200","end":"2023-10-02T02:30:00+0200","alternativeTransport":{"location":[{"station":{"uicCode":"8400055","stationCode":"AMF","name":"Amersfoort Centraal","coordinate":{"lat":52.1538887023926,"lng":5.37055540084839},"countryCode":"NL"},"description":"vanaf het busstation, centrumzijde"},{"station":{"uicCode":"8400509","stationCode":"PT","name":"Putten","coordinate":{"lat":52.2649993896484,"lng":5.57527780532837},"countryCode":"NL"},"description":"vanaf de bushalte"}],"label":"Er rijden snelbussen tussen Amersfoort Centraal en Putten.","shortLabel":"er rijden snelbussen Amersfoort C. - Putten"}},{"start":"2023-09-30T04:00:00+0200","end":"2023-10-02T02:30:00+0200","alternativeTransport":{"location":[{"station":{"uicCode":"8400055","stationCode":"AMF","name":"Amersfoort Centraal","coordinate":{"lat":52.1538887023926,"lng":5.37055540084839},"countryCode":"NL"},"description":"vanaf het busstation, centrumzijde"},{"station":{"uicCode":"8400054","stationCode":"AMFS","name":"Amersfoort Schothorst","coordinate":{"lat":52.1748221374512,"lng":5.40388870239258},"countryCode":"NL"},"description":"vanaf het busstation"},{"station":{"uicCode":"8400228","stationCode":"AVAT","name":"Amersfoort Vathorst","coordinate":{"lat":52.1927795410156,"lng":5.43388891220093},"countryCode":"NL"},"description":"vanaf de voorzijde van het station"},{"station":{"uicCode":"8400469","stationCode":"NKK","name":"Nijkerk","coordinate":{"lat":52.2222213745117,"lng":5.49388885498047},"countryCode":"NL"},"description":"vanaf de voorzijde van het station"},{"station":{"uicCode":"8400509","stationCode":"PT","name":"Putten","coordinate":{"lat":52.2649993896484,"lng":5.57527780532837},"countryCode":"NL"},"description":"vanaf de bushalte"}],"label":"Er rijden stopbussen tussen Amersfoort Centraal, Amersfoort Schothorst, Amersfoort Vathorst, Nijkerk en Putten.","shortLabel":"er rijden stopbussen Amersfoort C. - Schothorst - Vathorst - Nijkerk - Putten"}},{"start":"2023-09-30T04:00:00+0200","end":"2023-10-02T02:30:00+0200","alternativeTransport":{"location":[{"station":{"uicCode":"8400055","stationCode":"AMF","name":"Amersfoort Centraal","coordinate":{"lat":52.1538887023926,"lng":5.37055540084839},"countryCode":"NL"},"description":"vanaf het busstation, centrumzijde"},{"station":{"uicCode":"8400066","stationCode":"APD","name":"Apeldoorn","coordinate":{"lat":52.2091674804687,"lng":5.97027778625488},"countryCode":"NL"},"description":"vanaf de voorzijde van het station"}],"label":"Er rijden snelbussen tussen Amersfoort Centraal en Apeldoorn.","shortLabel":"er rijden snelbussen Amersfoort C. - Apeldoorn"}},{"start":"2023-10-02T04:15:00+0200","end":"2023-10-02T04:40:00+0200","alternativeTransport":{"location":[{"station":{"uicCode":"8400086","stationCode":"BRN","name":"Baarn","coordinate":{"lat":52.2083320617676,"lng":5.28083324432373},"countryCode":"NL"},"description":"vanaf het Stationsplein"}],"label":"Er rijden stopbussen van Baarn naar Amersfoort Centraal.","shortLabel":"er rijden stopbussen Baarn -> Amersfoort C."}}]},{"id":"7003952","type":"MAINTENANCE","registrationTime":"2023-08-29T09:17:40+0200","releaseTime":"2023-08-29T09:17:40+0200","local":false,"title":"Utrecht - Amersfoort.","titleSections":[[{"type":"STATION","value":"Utrecht C."},{"type":"ICON","value":"MAINTENANCE"},{"type":"STATION","value":"Amersfoort C."}]],"isActive":false,"start":"2023-09-30T01:45:00+0200","end":"2023-09-30T03:15:00+0200","period":"Zaterdag 30-09-2023 01:45 uur t/m zaterdag 30-09-2023 03:15 uur.","impact":{"value":2},"summaryAdditionalTravelTime":{"label":"De extra reistijd is ongeveer 15 minuten.","shortLabel":"extra reistijd 15 min.","minimumDurationInMinutes":15,"maximumDurationInMinutes":15},"publicationSections":[{"section":{"stations":[{"uicCode":"8400621","stationCode":"UT","name":"Utrecht Centraal","coordinate":{"lat":52.0888900756836,"lng":5.11027765274048},"countryCode":"NL"},{"uicCode":"8400620","stationCode":"UTO","name":"Utrecht Overvecht","coordinate":{"lat":52.1100006103516,"lng":5.12472200393677},"countryCode":"NL"},{"uicCode":"8400114","stationCode":"BHV","name":"Bilthoven","coordinate":{"lat":52.1300010681152,"lng":5.20388889312744},"countryCode":"NL"},{"uicCode":"8400179","stationCode":"DLD","name":"Den Dolder","coordinate":{"lat":52.1402778625488,"lng":5.24277782440186},"countryCode":"NL"},{"uicCode":"8400055","stationCode":"AMF","name":"Amersfoort Centraal","coordinate":{"lat":52.1538887023926,"lng":5.37055540084839},"countryCode":"NL"}],"direction":"BOTH"},"consequence":{"section":{"stations":[{"uicCode":"8400621","stationCode":"UT","name":"Utrecht Centraal","coordinate":{"lat":52.0888900756836,"lng":5.11027765274048},"countryCode":"NL"},{"uicCode":"8400620","stationCode":"UTO","name":"Utrecht Overvecht","coordinate":{"lat":52.1100006103516,"lng":5.12472200393677},"countryCode":"NL"},{"uicCode":"8400114","stationCode":"BHV","name":"Bilthoven","coordinate":{"lat":52.1300010681152,"lng":5.20388889312744},"countryCode":"NL"},{"uicCode":"8400179","stationCode":"DLD","name":"Den Dolder","coordinate":{"lat":52.1402778625488,"lng":5.24277782440186},"countryCode":"NL"},{"uicCode":"8400055","stationCode":"AMF","name":"Amersfoort Centraal","coordinate":{"lat":52.1538887023926,"lng":5.37055540084839},"countryCode":"NL"}],"direction":"ONE_WAY"},"description":"rijden bussen","level":"LESS_TRAINS"},"sectionType":"NL"}],"timespans":[{"start":"2023-09-30T01:45:00+0200","end":"2023-09-30T03:15:00+0200","period":"Zaterdag 30-09-2023 01:45 uur t/m zaterdag 30-09-2023 03:15 uur.","situation":{"label":"Door werkzaamheden: tussen Utrecht Centraal en Amersfoort Centraal rijden er bussen."},"cause":{"label":"werkzaamheden"},"additionalTravelTime":{"label":"De extra reistijd is ongeveer 15 minuten.","shortLabel":"extra reistijd 15 min.","minimumDurationInMinutes":15,"maximumDurationInMinutes":15},"alternativeTransport":{"label":"er rijden snelbussen","shortLabel":"er rijden snelbussen"},"advices":[]}],"alternativeTransportTimespans":[{"start":"2023-09-30T01:45:00+0200","end":"2023-09-30T03:15:00+0200","alternativeTransport":{"location":[{"station":{"uicCode":"8400621","stationCode":"UT","name":"Utrecht Centraal","coordinate":{"lat":52.0888900756836,"lng":5.11027765274048},"countryCode":"NL"},"description":"vanaf de Jaarbeurszijde"},{"station":{"uicCode":"8400055","stationCode":"AMF","name":"Amersfoort Centraal","coordinate":{"lat":52.1538887023926,"lng":5.37055540084839},"countryCode":"NL"},"description":"vanaf het busstation, centrumzijde"}],"label":"Er rijden snelbussen tussen Utrecht Centraal en Amersfoort Centraal.","shortLabel":"er rijden snelbussen Utrecht C. - Amersfoort C."}}]},{"id":"7003772","type":"MAINTENANCE","registrationTime":"2023-08-22T14:42:52+0200","releaseTime":"2023-08-22T14:42:52+0200","local":false,"title":"Heerlen - Aachen Hbf.","titleSections":[[{"type":"STATION","value":"Heerlen"},{"type":"ICON","value":"MAINTENANCE"},{"type":"STATION","value":"Aachen Hbf"}]],"isActive":false,"start":"2023-09-30T04:00:00+0200","end":"2023-10-01T22:30:00+0200","period":"Zaterdag 30-09-2023 04:00 uur t/m zondag 01-10-2023 22:30 uur.","impact":{"value":2},"summaryAdditionalTravelTime":{"label":"De extra reistijd is ongeveer 30 minuten.","shortLabel":"extra reistijd 30 min.","minimumDurationInMinutes":30,"maximumDurationInMinutes":30},"publicationSections":[{"section":{"stations":[{"uicCode":"8400307","stationCode":"HRL","name":"Heerlen","coordinate":{"lat":50.8908348083496,"lng":5.97499990463257},"countryCode":"NL"},{"uicCode":"8400548","stationCode":"LG","name":"Landgraaf","coordinate":{"lat":50.8963890075684,"lng":6.01916646957398},"countryCode":"NL"},{"uicCode":"8400234","stationCode":"EGHM","name":"Eygelshoven Markt","coordinate":{"lat":50.8960498196442,"lng":6.0602474212646396},"countryCode":"NL"},{"uicCode":"8015190","stationCode":"HZ","name":"Herzogenrath","coordinate":{"lat":50.870916,"lng":6.094486},"countryCode":"D"},{"uicCode":"8015345","stationCode":"AHBF","name":"Aachen Hbf","coordinate":{"lat":50.7678,"lng":6.091499},"countryCode":"D"}],"direction":"BOTH"},"consequence":{"section":{"stations":[{"uicCode":"8400307","stationCode":"HRL","name":"Heerlen","coordinate":{"lat":50.8908348083496,"lng":5.97499990463257},"countryCode":"NL"},{"uicCode":"8400548","stationCode":"LG","name":"Landgraaf","coordinate":{"lat":50.8963890075684,"lng":6.01916646957398},"countryCode":"NL"},{"uicCode":"8400234","stationCode":"EGHM","name":"Eygelshoven Markt","coordinate":{"lat":50.8960498196442,"lng":6.0602474212646396},"countryCode":"NL"},{"uicCode":"8015190","stationCode":"HZ","name":"Herzogenrath","coordinate":{"lat":50.870916,"lng":6.094486},"countryCode":"D"},{"uicCode":"8015345","stationCode":"AHBF","name":"Aachen Hbf","coordinate":{"lat":50.7678,"lng":6.091499},"countryCode":"D"}],"direction":"ONE_WAY"},"description":"rijden bussen","level":"LESS_TRAINS"},"sectionType":"NEIGHBORING_COUNTRY"}],"timespans":[{"start":"2023-09-30T04:00:00+0200","end":"2023-10-01T22:30:00+0200","period":"Zaterdag 30-09-2023 04:00 uur t/m zondag 01-10-2023 22:30 uur.","situation":{"label":"Door werkzaamheden: tussen Heerlen en Aachen Hbf rijden er bussen."},"cause":{"label":"werkzaamheden"},"additionalTravelTime":{"label":"De extra reistijd is ongeveer 30 minuten.","shortLabel":"extra reistijd 30 min.","minimumDurationInMinutes":30,"maximumDurationInMinutes":30},"alternativeTransport":{"label":"er rijden stopbussen","shortLabel":"er rijden stopbussen"},"advices":[]}],"alternativeTransportTimespans":[{"start":"2023-09-30T04:00:00+0200","end":"2023-10-01T22:30:00+0200","alternativeTransport":{"location":[{"station":{"uicCode":"8400307","stationCode":"HRL","name":"Heerlen","coordinate":{"lat":50.8908348083496,"lng":5.97499990463257},"countryCode":"NL"},"description":"vanaf de achterzijde van het station"},{"station":{"uicCode":"8400548","stationCode":"LG","name":"Landgraaf","coordinate":{"lat":50.8963890075684,"lng":6.01916646957398},"countryCode":"NL"},"description":"vanaf de voorzijde van het station"},{"station":{"uicCode":"8400234","stationCode":"EGHM","name":"Eygelshoven Markt","coordinate":{"lat":50.8960498196442,"lng":6.0602474212646396},"countryCode":"NL"},"description":"vanaf de voorzijde van het station"}],"label":"Er rijden stopbussen tussen Heerlen, Landgraaf, Eygelshoven Markt, Herzogenrath, Aachen West en Aachen Hbf.","shortLabel":"er rijden stopbussen Heerlen - Landgraaf - Eygelshoven Mrkt - Herzogenrath - Aachen West - Aachen Hbf"}}]},{"id":"7003989","type":"MAINTENANCE","registrationTime":"2023-09-12T11:55:24+0200","releaseTime":"2023-09-12T11:55:24+0200","local":false,"title":"Zwolle - Emmen; Almelo - Hardenberg.","titleSections":[[{"type":"STATION","value":"Zwolle"},{"type":"ICON","value":"MAINTENANCE"},{"type":"STATION","value":"Emmen"}],[{"type":"STATION","value":"Almelo"},{"type":"ICON","value":"MAINTENANCE"},{"type":"STATION","value":"Mariënberg"},{"type":"STATION","value":"Hardenberg"}]],"isActive":false,"start":"2023-09-30T04:00:00+0200","end":"2023-10-02T02:00:00+0200","period":"Zaterdag 30-09-2023 04:00 uur t/m maandag 02-10-2023 02:00 uur.","impact":{"value":4},"summaryAdditionalTravelTime":{"label":"De extra reistijd kan oplopen tot 45 minuten.","shortLabel":"extra reistijd tot 45 min.","maximumDurationInMinutes":45},"publicationSections":[{"section":{"stations":[{"uicCode":"8400747","stationCode":"ZL","name":"Zwolle","coordinate":{"lat":52.5047225952148,"lng":6.09194421768188},"countryCode":"NL"},{"uicCode":"8400167","stationCode":"DL","name":"Dalfsen","coordinate":{"lat":52.4983329772949,"lng":6.25861120223999},"countryCode":"NL"},{"uicCode":"8400487","stationCode":"OMN","name":"Ommen","coordinate":{"lat":52.5094451904297,"lng":6.41583347320557},"countryCode":"NL"},{"uicCode":"8400428","stationCode":"MRB","name":"Mariënberg","coordinate":{"lat":52.5094451904297,"lng":6.57527780532837},"countryCode":"NL"},{"uicCode":"8400293","stationCode":"HDB","name":"Hardenberg","coordinate":{"lat":52.5727767944336,"lng":6.62861108779907},"countryCode":"NL"},{"uicCode":"8400259","stationCode":"GBG","name":"Gramsbergen","coordinate":{"lat":52.6091651916504,"lng":6.67583322525024},"countryCode":"NL"},{"uicCode":"8400153","stationCode":"CO","name":"Coevorden","coordinate":{"lat":52.6636123657227,"lng":6.73555564880371},"countryCode":"NL"},{"uicCode":"8400161","stationCode":"DLN","name":"Dalen","coordinate":{"lat":52.6941680908203,"lng":6.75805568695068},"countryCode":"NL"},{"uicCode":"8400454","stationCode":"NA","name":"Nieuw Amsterdam","coordinate":{"lat":52.7186126708984,"lng":6.84861087799072},"countryCode":"NL"},{"uicCode":"8400407","stationCode":"EMNZ","name":"Emmen Zuid","coordinate":{"lat":52.7488663746914,"lng":6.87478065490722},"countryCode":"NL"},{"uicCode":"8400208","stationCode":"EMN","name":"Emmen","coordinate":{"lat":52.7900009155273,"lng":6.89944458007812},"countryCode":"NL"}],"direction":"BOTH"},"consequence":{"section":{"stations":[{"uicCode":"8400747","stationCode":"ZL","name":"Zwolle","coordinate":{"lat":52.5047225952148,"lng":6.09194421768188},"countryCode":"NL"},{"uicCode":"8400167","stationCode":"DL","name":"Dalfsen","coordinate":{"lat":52.4983329772949,"lng":6.25861120223999},"countryCode":"NL"},{"uicCode":"8400487","stationCode":"OMN","name":"Ommen","coordinate":{"lat":52.5094451904297,"lng":6.41583347320557},"countryCode":"NL"},