[{"id":"c711cd2f-d9f8-409c-a0bd-b58133901508","title":"Dutch Grand Prix in Zandvoort en Landelijk gewijzigde dienstregeling vrijdag 2 t/m zondag 4 sept.","topic":"disruption_c711cd2f-d9f8-409c-a0bd-b58133901508_nl","description":"Vanwege de te verwachte drukte door de Dutch Grand Prix in Zandvoort rijden extra treinen tussen Amsterdam Centraal en Zandvoort aan Zee. Het meenemen van fietsen is niet mogelijk. \r\nDe dienstregeling is gewijzigd op meerdere trajecten. Plan je reis vooraf in de reisplanner en houd rekening met langere overstap- en wachttijden dan gewoonlijk.","priority":"PRIO_2","lastUpdated":"2022-08-31T23:33:00+0200","bodyItems":[],"buttons":{"position":["BOTTOM"],"items":[{"label":"Meer info","type":"EXTERNAL","accessibilityLabel":"Meer info","url":"https://www.ns.nl/reisinformatie/dutch-grand-prix"}]},"url":"https://www.ns.nl/reisinformatie/calamiteiten/dutch-grand-prix-in-zandvoort-en-landelijk-gewijzigde-dienstregeling-vrijdag-2-t-m-zondag-4-sept.html","type":"CALAMITY","isActive":true},{"id":"6018530","type":"DISRUPTION","registrationTime":"2022-09-02T16:14:03+0200","releaseTime":"2022-09-02T16:14:03+0200","local":false,"title":"Almere-Zwolle","titleSections":[[{"type":"STATION","value":"Almere C."},{"type":"STATION","value":"Lelystad C."},{"type":"ICON","value":"DISRUPTION"},{"type":"STATION","value":"Dronten"},{"type":"STATION","value":"Zwolle"}]],"topic":"disruption_6018530_nl","isActive":true,"start":"2022-09-02T15:23:37+0200","end":"2022-09-02T20:30:00+0200","phase":{"id":"2","label":"Impact bekend"},"impact":{"value":4},"expectedDuration":{"description":"Dit duurt tot ongeveer 20:30 uur.","endTime":"2022-09-02T20:30:00+0200"},"publicationSections":[{"section":{"stations":[{"uicCode":"8400080","stationCode":"ALM","name":"Almere Centrum","coordinate":{"lat":52.37503,"lng":5.21764},"countryCode":"NL"},{"uicCode":"8400104","stationCode":"ALMP","name":"Almere Parkwijk","coordinate":{"lat":52.3766670227051,"lng":5.24472236633301},"countryCode":"NL"},{"uicCode":"8400081","stationCode":"ALMB","name":"Almere Buiten","coordinate":{"lat":52.3941650390625,"lng":5.2780556678772},"countryCode":"NL"},{"uicCode":"8400226","stationCode":"ALMO","name":"Almere Oostvaarders","coordinate":{"lat":52.4033317565918,"lng":5.30055570602417},"countryCode":"NL"},{"uicCode":"8400394","stationCode":"LLS","name":"Lelystad Centrum","coordinate":{"lat":52.5077781677246,"lng":5.47277784347534},"countryCode":"NL"},{"uicCode":"8400198","stationCode":"DRON","name":"Dronten","coordinate":{"lat":52.5344,"lng":5.72089},"countryCode":"NL"},{"uicCode":"8400360","stationCode":"KPNZ","name":"Kampen Zuid","coordinate":{"lat":52.5331,"lng":5.91309},"countryCode":"NL"},{"uicCode":"8400747","stationCode":"ZL","name":"Zwolle","coordinate":{"lat":52.5047225952148,"lng":6.09194421768188},"countryCode":"NL"}],"direction":"BOTH"},"consequence":{"section":{"stations":[{"uicCode":"8400394","stationCode":"LLS","name":"Lelystad Centrum","coordinate":{"lat":52.5077781677246,"lng":5.47277784347534},"countryCode":"NL"},{"uicCode":"8400198","stationCode":"DRON","name":"Dronten","coordinate":{"lat":52.5344,"lng":5.72089},"countryCode":"NL"}],"direction":"ONE_WAY"},"description":"geen treinen","level":"NO_OR_MUCH_LESS_TRAINS"},"sectionType":"NL"}],"timespans":[{"start":"2022-09-02T15:23:37+0200","end":"2022-09-02T20:30:00+0200","situation":{"label":"Tussen Lelystad Centrum en Dronten rijden er geen treinen door een defecte bovenleiding."},"cause":{"label":"Defecte bovenleiding"},"advices":[]}],"alternativeTransportTimespans":[]},{"id":"b7c23c72-a350-40f3-a618-095ccbee14ba","title":"Holendrecht/Bijlmer Arena/Duivendrecht, za 3 sept","topic":"disruption_b7c23c72-a350-40f3-a618-095ccbee14ba_nl","description":"Om veiligheidsredenen stoppen op zaterdag 3 september tussen 14.15 en 20.30 uur geen treinen in Amsterdam Holendrecht, Amsterdam Bijlmer Arena en zeer beperkt in Duivendrecht. Plan je reis vooraf met de reisplanner.","priority":"PRIO_3","lastUpdated":"2022-09-01T08:29:00+0200","bodyItems":[],"buttons":{"position":["BOTTOM"],"items":[{"label":"Plan je reis","type":"PLANNER","accessibilityLabel":"Plan je reis","url":"https://www.ns.nl/reisplanner"}]},"url":"https://www.ns.nl/reisinformatie/calamiteiten/holendrecht-bijlmer-arena-duivendrecht-za-3-sept.html","type":"CALAMITY","isActive":true},{"id":"7002705","type":"MAINTENANCE","registrationTime":"2022-09-01T09:03:05+0200","releaseTime":"2022-09-01T09:03:05+0200","local":false,"title":"Eindhoven - Sittard; Roermond - Maastricht - Maastricht Randwyck","titleSections":[[{"type":"STATION","value":"Eindhoven C."},{"type":"ICON","value":"MAINTENANCE"},{"type":"STATION","value":"Sittard"}],[{"type":"STATION","value":"Roermond"},{"type":"ICON","value":"MAINTENANCE"},{"type":"STATION","value":"Sittard"},{"type":"STATION","value":"Randwyck"}]],"isActive":true,"start":"2022-08-16T14:30:00+0200","end":"2022-09-23T02:00:00+0200","period":"Dinsdag 16-08-2022 14:30 uur t/m vrijdag 23-09-2022 02:00 uur.","impact":{"value":3},"summaryAdditionalTravelTime":{"label":"U heeft geen langere reistijd.","shortLabel":"Geen extra reistijd"},"publicationSections":[{"section":{"stations":[{"uicCode":"8400206","stationCode":"EHV","name":"Eindhoven Centraal","coordinate":{"lat":51.4433326721191,"lng":5.48138904571533},"countryCode":"NL"},{"uicCode":"8400245","stationCode":"GP","name":"Geldrop","coordinate":{"lat":51.4197235107422,"lng":5.55055570602417},"countryCode":"NL"},{"uicCode":"8400308","stationCode":"HZE","name":"Heeze","coordinate":{"lat":51.3849983215332,"lng":5.56944465637207},"countryCode":"NL"},{"uicCode":"8400432","stationCode":"MZ","name":"Maarheeze","coordinate":{"lat":51.304986,"lng":5.629796},"countryCode":"NL"},{"uicCode":"8400684","stationCode":"WT","name":"Weert","coordinate":{"lat":51.2486114501953,"lng":5.70361089706421},"countryCode":"NL"},{"uicCode":"8400523","stationCode":"RM","name":"Roermond","coordinate":{"lat":51.1930541992188,"lng":5.9941668510437},"countryCode":"NL"},{"uicCode":"8400195","stationCode":"EC","name":"Echt","coordinate":{"lat":51.1005554199219,"lng":5.87888908386231},"countryCode":"NL"},{"uicCode":"8400582","stationCode":"SRN","name":"Susteren","coordinate":{"lat":51.0613899230957,"lng":5.86305570602417},"countryCode":"NL"},{"uicCode":"8400564","stationCode":"STD","name":"Sittard","coordinate":{"lat":51.0016670227051,"lng":5.85861110687256},"countryCode":"NL"}],"direction":"BOTH"},"consequence":{"section":{"stations":[{"uicCode":"8400206","stationCode":"EHV","name":"Eindhoven Centraal","coordinate":{"lat":51.4433326721191,"lng":5.48138904571533},"countryCode":"NL"},{"uicCode":"8400245","stationCode":"GP","name":"Geldrop","coordinate":{"lat":51.4197235107422,"lng":5.55055570602417},"countryCode":"NL"},{"uicCode":"8400308","stationCode":"HZE","name":"Heeze","coordinate":{"lat":51.3849983215332,"lng":5.56944465637207},"countryCode":"NL"},{"uicCode":"8400432","stationCode":"MZ","name":"Maarheeze","coordinate":{"lat":51.304986,"lng":5.629796},"countryCode":"NL"},{"uicCode":"8400684","stationCode":"WT","name":"Weert","coordinate":{"lat":51.2486114501953,"lng":5.70361089706421},"countryCode":"NL"},{"uicCode":"8400523","stationCode":"RM","name":"Roermond","coordinate":{"lat":51.1930541992188,"lng":5.9941668510437},"countryCode":"NL"},{"uicCode":"8400195","stationCode":"EC","name":"Echt","coordinate":{"lat":51.1005554199219,"lng":5.87888908386231},"countryCode":"NL"},{"uicCode":"8400582","stationCode":"SRN","name":"Susteren","coordinate":{"lat":51.0613899230957,"lng":5.86305570602417},"countryCode":"NL"},{"uicCode":"8400564","stationCode":"STD","name":"Sittard","coordinate":{"lat":51.0016670227051,"lng":5.85861110687256},"countryCode":"NL"}],"direction":"ONE_WAY"},"description":"dienstregeling aangepast","level":"LESS_TRAINS"},"sectionType":"NL"},{"section":{"stations":[{"uicCode":"8400523","stationCode":"RM","name":"Roermond","coordinate":{"lat":51.1930541992188,"lng":5.9941668510437},"countryCode":"NL"},{"uicCode":"8400195","stationCode":"EC","name":"Echt","coordinate":{"lat":51.1005554199219,"lng":5.87888908386231},"countryCode":"NL"},{"uicCode":"8400582","stationCode":"SRN","name":"Susteren","coordinate":{"lat":51.0613899230957,"lng":5.86305570602417},"countryCode":"NL"},{"uicCode":"8400564","stationCode":"STD","name":"Sittard","coordinate":{"lat":51.0016670227051,"lng":5.85861110687256},"countryCode":"NL"},{"uicCode":"8400248","stationCode":"LUT","name":"Geleen-Lutterade","coordinate":{"lat":50.9755554199219,"lng":5.82472229003906},"countryCode":"NL"},{"uicCode":"8400096","stationCode":"BK","name":"Beek-Elsloo","coordinate":{"lat":50.9474983215332,"lng":5.78666687011719},"countryCode":"NL"},{"uicCode":"8400140","stationCode":"BDE","name":"Bunde","coordinate":{"lat":50.8969459533691,"lng":5.73666667938232},"countryCode":"NL"},{"uicCode":"8400424","stationCode":"MT","name":"Maastricht","coordinate":{"lat":50.8502769470215,"lng":5.70555543899536},"countryCode":"NL"},{"uicCode":"8400426","stationCode":"MTR","name":"Maastricht Randwyck","coordinate":{"lat":50.8386116027832,"lng":5.71722221374512},"countryCode":"NL"}],"direction":"BOTH"},"consequence":{"section":{"stations":[{"uicCode":"8400523","stationCode":"RM","name":"Roermond","coordinate":{"lat":51.1930541992188,"lng":5.9941668510437},"countryCode":"NL"},{"uicCode":"8400195","stationCode":"EC","name":"Echt","coordinate":{"lat":51.1005554199219,"lng":5.87888908386231},"countryCode":"NL"},{"uicCode":"8400582","stationCode":"SRN","name":"Susteren","coordinate":{"lat":51.0613899230957,"lng":5.86305570602417},"countryCode":"NL"},{"uicCode":"8400564","stationCode":"STD","name":"Sittard","coordinate":{"lat":51.0016670227051,"lng":5.85861110687256},"countryCode":"NL"}],"direction":"ONE_WAY"},"description":"dienstregeling aangepast","level":"LESS_TRAINS"},"sectionType":"NL"}],"timespans":[{"start":"2022-08-16T14:30:00+0200","end":"2022-09-23T02:00:00+0200","period":"Dinsdag 16-08-2022 14:30 uur t/m vrijdag 23-09-2022 02:00 uur.","situation":{"label":"Door werkzaamheden: tussen Eindhoven Centraal en Sittard is de dienstregeling aangepast en tussen Roermond en Sittard is de dienstregeling aangepast."},"cause":{"label":"Werkzaamheden"},"additionalTravelTime":{"label":"U heeft geen langere reistijd.","shortLabel":"Geen extra reistijd"},"alternativeTransport":{"label":"Er rijden stopbussen.","shortLabel":"er rijden stopbussen"},"advices":[]}],"alternativeTransportTimespans":[{"start":"2022-09-01T09:15:00+0200","end":"2022-09-23T02:00:00+0200","alternativeTransport":{"location":[{"station":{"uicCode":"8400523","stationCode":"RM","name":"Roermond","coordinate":{"lat":51.1930541992188,"lng":5.9941668510437},"countryCode":"NL"},"description":"vanaf het busstation"},{"station":{"uicCode":"8400195","stationCode":"EC","name":"Echt","coordinate":{"lat":51.1005554199219,"lng":5.87888908386231},"countryCode":"NL"},"description":"vanaf de voorzijde van het station"},{"station":{"uicCode":"8400582","stationCode":"SRN","name":"Susteren","coordinate":{"lat":51.0613899230957,"lng":5.86305570602417},"countryCode":"NL"},"description":"vanaf de voorzijde van het station"},{"station":{"uicCode":"8400564","stationCode":"STD","name":"Sittard","coordinate":{"lat":51.0016670227051,"lng":5.85861110687256},"countryCode":"NL"},"description":"vanaf de achterzijde van het station"}],"label":"Er rijden stopbussen tussen Roermond, Echt, Susteren en Sittard.","shortLabel":"Er rijden stopbussen Roermond - Echt - Susteren - Sittard"}}]},{"id":"7002579","type":"MAINTENANCE","registrationTime":"2022-09-01T01:58:41+0200","releaseTime":"2022-09-01T01:58:41+0200","local":false,"title":"Amsterdam - Passau - Wien","titleSections":[[{"type":"STATION","value":"Amsterdam C."},{"type":"ICON","value":"MAINTENANCE"},{"type":"STATION","value":"Wien Hbf"}]],"isActive":true,"start":"2022-08-26T19:25:00+0200","end":"2022-09-09T20:35:00+0200","period":"Vrijdag 26-08-2022 19:25 uur t/m vrijdag 09-09-2022 20:35 uur.","impact":{"value":2},"summaryAdditionalTravelTime":{"label":"U heeft geen langere reistijd.","shortLabel":"Geen extra reistijd"},"publicationSections":[{"section":{"stations":[{"uicCode":"8400058","stationCode":"ASD","name":"Amsterdam Centraal","coordinate":{"lat":52.3788871765137,"lng":4.90027761459351},"countryCode":"NL"},{"uicCode":"8400060","stationCode":"ASDM","name":"Amsterdam Muiderpoort","coordinate":{"lat":52.3605537414551,"lng":4.93111133575439},"countryCode":"NL"},{"uicCode":"8400057","stationCode":"ASA","name":"Amsterdam Amstel","coordinate":{"lat":52.3466682434082,"lng":4.91777801513672},"countryCode":"NL"},{"uicCode":"8400194","stationCode":"DVD","name":"Duivendrecht","coordinate":{"lat":52.3233337402344,"lng":4.93638896942139},"countryCode":"NL"},{"uicCode":"8400074","stationCode":"ASB","name":"Amsterdam Bijlmer ArenA","coordinate":{"lat":52.3122215270996,"lng":4.94694423675537},"countryCode":"NL"},{"uicCode":"8400231","stationCode":"ASHD","name":"Amsterdam Holendrecht","coordinate":{"lat":52.29844,"lng":4.95972},"countryCode":"NL"},{"uicCode":"8400047","stationCode":"AC","name":"Abcoude","coordinate":{"lat":52.2785,"lng":4.977},"countryCode":"NL"},{"uicCode":"8400133","stationCode":"BKL","name":"Breukelen","coordinate":{"lat":52.17149,"lng":4.9906},"countryCode":"NL"},{"uicCode":"8400419","stationCode":"MAS","name":"Maarssen","coordinate":{"lat":52.1352767944336,"lng":5.03361129760742},"countryCode":"NL"},{"uicCode":"8400613","stationCode":"UTZL","name":"Utrecht Zuilen","coordinate":{"lat":52.103055,"lng":5.09},"countryCode":"NL"},{"uicCode":"8400621","stationCode":"UT","name":"Utrecht Centraal","coordinate":{"lat":52.0888900756836,"lng":5.11027765274048},"countryCode":"NL"},{"uicCode":"8400606","stationCode":"UTVR","name":"Utrecht Vaartsche Rijn","coordinate":{"lat":52.078889,"lng":5.121667},"countryCode":"NL"},{"uicCode":"8400141","stationCode":"BNK","name":"Bunnik","coordinate":{"lat":52.0630569458008,"lng":5.19444465637207},"countryCode":"NL"},{"uicCode":"8400182","stationCode":"DB","name":"Driebergen-Zeist","coordinate":{"lat":52.0652770996094,"lng":5.25861120223999},"countryCode":"NL"},{"uicCode":"8400417","stationCode":"MRN","name":"Maarn","coordinate":{"lat":52.0641670227051,"lng":5.36999988555908},"countryCode":"NL"},{"uicCode":"8400637","stationCode":"KLP","name":"Veenendaal-De Klomp","coordinate":{"lat":52.0458335876465,"lng":5.57388877868652},"countryCode":"NL"},{"uicCode":"8400200","stationCode":"ED","name":"Ede-Wageningen","coordinate":{"lat":52.0277786254883,"lng":5.67305564880371},"countryCode":"NL"},{"uicCode":"8400704","stationCode":"WF","name":"Wolfheze","coordinate":{"lat":52.0055541992188,"lng":5.7936110496521},"countryCode":"NL"},{"uicCode":"8400489","stationCode":"OTB","name":"Oosterbeek","coordinate":{"lat":51.9949989318848,"lng":5.84000015258789},"countryCode":"NL"},{"uicCode":"8400071","stationCode":"AH","name":"Arnhem Centraal","coordinate":{"lat":51.9850006103516,"lng":5.89916658401489},"countryCode":"NL"},{"uicCode":"8400072","stationCode":"AHP","name":"Arnhem Velperpoort","coordinate":{"lat":51.985279083252,"lng":5.91944456100464},"countryCode":"NL"},{"uicCode":"8400688","stationCode":"WTV","name":"Westervoort","coordinate":{"lat":51.96286,"lng":5.9695},"countryCode":"NL"},{"uicCode":"8400193","stationCode":"DVN","name":"Duiven","coordinate":{"lat":51.9433326721191,"lng":6.01472234725952},"countryCode":"NL"},{"uicCode":"8400735","stationCode":"ZV","name":"Zevenaar","coordinate":{"lat":51.9230537414551,"lng":6.07194423675537},"countryCode":"NL"},{"uicCode":"8033415","stationCode":"EL","name":"Emmerich-Elten","coordinate":{"lat":51.8743,"lng":6.15417},"countryCode":"D"},{"uicCode":"8010288","stationCode":"EM","name":"Emmerich","coordinate":{"lat":51.834283,"lng":6.255718},"countryCode":"D"},{"uicCode":"8010263","stationCode":"OBERH","name":"Oberhausen Hbf","coordinate":{"lat":51.47512,"lng":6.852038},"countryCode":"D"},{"uicCode":"8010316","stationCode":"DUISB","name":"Duisburg Hbf","coordinate":{"lat":51.4297785713316,"lng":6.77590370178222},"countryCode":"D"},{"uicCode":"8008094","stationCode":"DUSSEL","name":"Düsseldorf Hbf","coordinate":{"lat":51.220146,"lng":6.793137},"countryCode":"D"},{"uicCode":"8015561","stationCode":"KKD","name":"Köln Messe/Deutz","coordinate":{"lat":50.940874,"lng":6.975001},"countryCode":"D"},{"uicCode":"8015458","stationCode":"KOLN","name":"Köln Hbf","coordinate":{"lat":50.9432158,"lng":6.9589214},"countryCode":"D"},{"uicCode":"8015485","stationCode":"BONN","name":"Bonn Hbf","coordinate":{"lat":50.7320141646745,"lng":7.09712505340576},"countryCode":"D"},{"uicCode":"8019051","stationCode":"FMZ","name":"Mainz Hbf","coordinate":{"lat":50.001117,"lng":8.25872},"countryCode":"D"},{"uicCode":"8061676","stationCode":"FNAF","name":"Frankfurt Flughafen Fernb","coordinate":{"lat":50.0531710299286,"lng":8.570237159729},"countryCode":"D"},{"uicCode":"8022534","stationCode":"WURZB","name":"Würzburg Hbf","coordinate":{"lat":49.80179,"lng":9.9358},"countryCode":"D"},{"uicCode":"8022193","stationCode":"NURNB","name":"Nürnberg Hbf","coordinate":{"lat":49.4449634,"lng":11.0826087},"countryCode":"D"},{"uicCode":"8026294","stationCode":"REGENB","name":"Regensburg Hbf","coordinate":{"lat":49.011672,"lng":12.099617},"countryCode":"D"},{"uicCode":"8026506","stationCode":"PASS","name":"Passau Hbf","coordinate":{"lat":48.5734269523465,"lng":13.450870513916},"countryCode":"D"},{"uicCode":"8101081","stationCode":"WELS","name":"Wels Hbf","coordinate":{"lat":48.166111,"lng":14.026667},"countryCode":"A"},{"uicCode":"8101073","stationCode":"LINZ","name":"Linz Hbf","coordinate":{"lat":48.29018,"lng":14.29213},"countryCode":"A"},{"uicCode":"8101032","stationCode":"POLTEN","name":"St.Pölten Hbf","coordinate":{"lat":48.20769,"lng":15.62591},"countryCode":"A"},{"uicCode":"8101003","stationCode":"WBF","name":"Wien Hbf","coordinate":{"lat":48.185,"lng":16.375833},"countryCode":"A"}],"direction":"BOTH"},"consequence":{"section":{"stations":[{"uicCode":"8400058","stationCode":"ASD","name":"Amsterdam Centraal","coordinate":{"lat":52.3788871765137,"lng":4.90027761459351},"countryCode":"NL"},{"uicCode":"8400060","stationCode":"ASDM","name":"Amsterdam Muiderpoort","coordinate":{"lat":52.3605537414551,"lng":4.93111133575439},"countryCode":"NL"},{"uicCode":"8400057","stationCode":"ASA","name":"Amsterdam Amstel","coordinate":{"lat":52.3466682434082,"lng":4.91777801513672},"countryCode":"NL"},{"uicCode":"8400194","stationCode":"DVD","name":"Duivendrecht","coordinate":{"lat":52.3233337402344,"lng":4.93638896942139},"countryCode":"NL"},{"uicCode":"8400074","stationCode":"ASB","name":"Amsterdam Bijlmer ArenA","coordinate":{"lat":52.3122215270996,"lng":4.94694423675537},"countryCode":"NL"},{"uicCode":"8400231","stationCode":"ASHD","name":"Amsterdam Holendrecht","coordinate":{"lat":52.29844,"lng":4.95972},"countryCode":"NL"},{"uicCode":"8400047","stationCode":"AC","name":"Abcoude","coordinate":{"lat":52.2785,"lng":4.977},"countryCode":"NL"},{"uicCode":"8400133","stationCode":"BKL","name":"Breukelen","coordinate":{"lat":52.17149,"lng":4.9906},"countryCode":"NL"},{"uicCode":"8400419","stationCode":"MAS","name":"Maarssen","coordinate":{"lat":52.1352767944336,"lng":5.03361129760742},"countryCode":"NL"},{"uicCode":"8400613","stationCode":"UTZL","name":"Utrecht Zuilen","coordinate":{"lat":52.103055,"lng":5.09},"countryCode":"NL"},{"uicCode":"8400621","stationCode":"UT","name":"Utrecht Centraal","coordinate":{"lat":52.0888900756836,"lng":5.11027765274048},"countryCode":"NL"},{"uicCode":"8400606","stationCode":"UTVR","name":"Utrecht Vaartsche Rijn","coordinate":{"lat":52.078889,"lng":5.121667},"countryCode":"NL"},{"uicCode":"8400141","stationCode":"BNK","name":"Bunnik","coordinate":{"lat":52.0630569458008,"lng":5.19444465637207},"countryCode":"NL"},{"uicCode":"8400182","stationCode":"DB","name":"Driebergen-Zeist","coordinate":{"lat":52.0652770996094,"lng":5.25861120223999},"countryCode":"NL"},{"uicCode":"8400417","stationCode":"MRN","name":"Maarn","coordinate":{"lat":52.0641670227051,"lng":5.36999988555908},"countryCode":"NL"},{"uicCode":"8400637","stationCode":"KLP","name":"Veenendaal-De Klomp","coordinate":{"lat":52.0458335876465,"lng":5.57388877868652},"countryCode":"NL"},{"uicCode":"8400200","stationCode":"ED","name":"Ede-Wageningen","coordinate":{"lat":52.0277786254883,"lng":5.67305564880371},"countryCode":"NL"},{"uicCode":"8400704","stationCode":"WF","name":"Wolfheze","coordinate":{"lat":52.0055541992188,"lng":5.7936110496521},"countryCode":"NL"},{"uicCode":"8400489","stationCode":"OTB","name":"Oosterbeek","coordinate":{"lat":51.9949989318848,"lng":5.84000015258789},"countryCode":"NL"},{"uicCode":"8400071","stationCode":"AH","name":"Arnhem Centraal","coordinate":{"lat":51.9850006103516,"lng":5.89916658401489},"countryCode":"NL"},{"uicCode":"8400072","stationCode":"AHP","name":"Arnhem Velperpoort","coordinate":{"lat":51.985279083252,"lng":5.91944456100464},"countryCode":"NL"},{"uicCode":"8400688","stationCode":"WTV","name":"Westervoort","coordinate":{"lat":51.96286,"lng":5.9695},"countryCode":"NL"},{"uicCode":"8400193","stationCode":"DVN","name":"Duiven","coordinate":{"lat":51.9433326721191,"lng":6.01472234725952},"countryCode":"NL"},{"uicCode":"8400735","stationCode":"ZV","name":"Zevenaar","coordinate":{"lat":51.9230537414551,"lng":6.07194423675537},"countryCode":"NL"},{"uicCode":"8033415","stationCode":"EL","name":"Emmerich-Elten","coordinate":{"lat":51.8743,"lng":6.15417},"countryCode":"D"},{"uicCode":"8010288","stationCode":"EM","name":"Emmerich","coordinate":{"lat":51.834283,"lng":6.255718},"countryCode":"D"},{"uicCode":"8010263","stationCode":"OBERH","name":"Oberhausen Hbf","coordinate":{"lat":51.47512,"lng":6.852038},"countryCode":"D"},{"uicCode":"8010316","stationCode":"DUISB","name":"Duisburg Hbf","coordinate":{"lat":51.4297785713316,"lng":6.77590370178222},"countryCode":"D"},{"uicCode":"8008094","stationCode":"DUSSEL","name":"Düsseldorf Hbf","coordinate":{"lat":51.220146,"lng":6.793137},"countryCode":"D"},{"uicCode":"8015561","stationCode":"KKD","name":"Köln Messe/Deutz","coordinate":{"lat":50.940874,"lng":6.975001},"countryCode":"D"},{"uicCode":"8015458","stationCode":"KOLN","name":"Köln Hbf","coordinate":{"lat":50.9432158,"lng":6.9589214},"countryCode":"D"},{"uicCode":"8015485","stationCode":"BONN","name":"Bonn Hbf","coordinate":{"lat":50.7320141646745,"lng":7.09712505340576},"countryCode":"D"},{"uicCode":"8019051","stationCode":"FMZ","name":"Mainz Hbf","coordinate":{"lat":50.001117,"lng":8.25872},"countryCode":"D"},{"uicCode":"8061676","stationCode":"FNAF","name":"Frankfurt Flughafen Fernb","coordinate":{"lat":50.0531710299286,"lng":8.570237159729},"countryCode":"D"},{"uicCode":"8022534","stationCode":"WURZB","name":"Würzburg Hbf","coordinate":{"lat":49.80179,"lng":9.9358},"countryCode":"D"},{"uicCode":"8022193","stationCode":"NURNB","name":"Nürnberg Hbf","coordinate":{"lat":49.4449634,"lng":11.0826087},"countryCode":"D"},{"uicCode":"8026294","stationCode":"REGENB","name":"Regensburg Hbf","coordinate":{"lat":49.011672,"lng":12.099617},"countryCode":"D"},{"uicCode":"8026506","stationCode":"PASS","name":"Passau Hbf","coordinate":{"lat":48.5734269523465,"lng":13.450870513916},"countryCode":"D"},{"uicCode":"8101081","stationCode":"WELS","name":"Wels Hbf","coordinate":{"lat":48.166111,"lng":14.026667},"countryCode":"A"},{"uicCode":"8101073","stationCode":"LINZ","name":"Linz Hbf","coordinate":{"lat":48.29018,"lng":14.29213},"countryCode":"A"},{"uicCode":"8101032","stationCode":"POLTEN","name":"St.Pölten Hbf","coordinate":{"lat":48.20769,"lng":15.62591},"countryCode":"A"},{"uicCode":"8101003","stationCode":"WBF","name":"Wien Hbf","coordinate":{"lat":48.185,"lng":16.375833},"countryCode":"A"}],"direction":"ONE_WAY"},"description":"aangepaste internationale dienstregeling","level":"LESS_TRAINS"},"sectionType":"NEIGHBORING_COUNTRY"}],"timespans":[{"start":"2022-08-26T19:25:00+0200","end":"2022-09-09T20:35:00+0200","period":"Vrijdag 26-08-2022 19:25 uur t/m vrijdag 09-09-2022 20:35 uur.","situation":{"label":"Door werkzaamheden: tussen Amsterdam Centraal en Wien Hbf is de internationale dienstregeling aangepast."},"cause":{"label":"Werkzaamheden"},"additionalTravelTime":{"label":"U heeft geen langere reistijd.","shortLabel":"Geen extra reistijd"},"advices":["Dit kan gevolgen hebben voor uw reis. Plan uw reis in de (Internationale) app."]}],"alternativeTransportTimespans":[]},{"id":"7002693","type":"MAINTENANCE","registrationTime":"2022-09-01T07:22:53+0200","releaseTime":"2022-09-01T07:22:53+0200","local":false,"title":"Arnhem - Duisburg - Düsseldorf","titleSections":[[{"type":"STATION","value":"Arnhem C."},{"type":"ICON","value":"MAINTENANCE"},{"type":"STATION","value":"Oberhausen Hbf"},{"type":"STATION","value":"Düsseldorf Hbf"}]],"isActive":true,"start":"2022-08-26T20:00:00+0200","end":"2022-09-09T21:30:00+0200","period":"Vrijdag 26-08-2022 20:00 uur t/m vrijdag 09-09-2022 21:30 uur.","impact":{"value":5},"summaryAdditionalTravelTime":{"label":"De extra reistijd kan oplopen tot 30 minuten.","shortLabel":"Extra reistijd tot 30 min.","maximumDurationInMinutes":30},"publicationSections":[{"section":{"stations":[{"uicCode":"8400071","stationCode":"AH","name":"Arnhem Centraal","coordinate":{"lat":51.9850006103516,"lng":5.89916658401489},"countryCode":"NL"},{"uicCode":"8400072","stationCode":"AHP","name":"Arnhem Velperpoort","coordinate":{"lat":51.985279083252,"lng":5.91944456100464},"countryCode":"NL"},{"uicCode":"8400688","stationCode":"WTV","name":"Westervoort","coordinate":{"lat":51.96286,"lng":5.9695},"countryCode":"NL"},{"uicCode":"8400193","stationCode":"DVN","name":"Duiven","coordinate":{"lat":51.9433326721191,"lng":6.01472234725952},"countryCode":"NL"},{"uicCode":"8400735","stationCode":"ZV","name":"Zevenaar","coordinate":{"lat":51.9230537414551,"lng":6.07194423675537},"countryCode":"NL"},{"uicCode":"8033415","stationCode":"EL","name":"Emmerich-Elten","coordinate":{"lat":51.8743,"lng":6.15417},"countryCode":"D"},{"uicCode":"8010288","stationCode":"EM","name":"Emmerich","coordinate":{"lat":51.834283,"lng":6.255718},"countryCode":"D"},{"uicCode":"8010275","stationCode":"WESEL","name":"Wesel","coordinate":{"lat":51.655833,"lng":6.627222},"countryCode":"D"},{"uicCode":"8010263","stationCode":"OBERH","name":"Oberhausen Hbf","coordinate":{"lat":51.47512,"lng":6.852038},"countryCode":"D"},{"uicCode":"8010316","stationCode":"DUISB","name":"Duisburg Hbf","coordinate":{"lat":51.4297785713316,"lng":6.77590370178222},"countryCode":"D"},{"uicCode":"8039904","stationCode":"KDFFH","name":"Düsseldorf Flughafen","coordinate":{"lat":51.292009,"lng":6.786836},"countryCode":"D"},{"uicCode":"8008094","stationCode":"DUSSEL","name":"Düsseldorf Hbf","coordinate":{"lat":51.220146,"lng":6.793137},"countryCode":"D"}],"direction":"BOTH"},"consequence":{"section":{"stations":[{"uicCode":"8400071","stationCode":"AH","name":"Arnhem Centraal","coordinate":{"lat":51.9850006103516,"lng":5.89916658401489},"countryCode":"NL"},{"uicCode":"8400072","stationCode":"AHP","name":"Arnhem Velperpoort","coordinate":{"lat":51.985279083252,"lng":5.91944456100464},"countryCode":"NL"},{"uicCode":"8400688","stationCode":"WTV","name":"Westervoort","coordinate":{"lat":51.96286,"lng":5.9695},"countryCode":"NL"},{"uicCode":"8400193","stationCode":"DVN","name":"Duiven","coordinate":{"lat":51.9433326721191,"lng":6.01472234725952},"countryCode":"NL"},{"uicCode":"8400735","stationCode":"ZV","name":"Zevenaar","coordinate":{"lat":51.9230537414551,"lng":6.07194423675537},"countryCode":"NL"},{"uicCode":"8033415","stationCode":"EL","name":"Emmerich-Elten","coordinate":{"lat":51.8743,"lng":6.15417},"countryCode":"D"},{"uicCode":"8010288","stationCode":"EM","name":"Emmerich","coordinate":{"lat":51.834283,"lng":6.255718},"countryCode":"D"},{"uicCode":"8010275","stationCode":"WESEL","name":"Wesel","coordinate":{"lat":51.655833,"lng":6.627222},"countryCode":"D"},{"uicCode":"8010263","stationCode":"OBERH","name":"Oberhausen Hbf","coordinate":{"lat":51.47512,"lng":6.852038},"countryCode":"D"}],"direction":"ONE_WAY"},"description":"rijden bussen","level":"NO_OR_MUCH_LESS_TRAINS"},"sectionType":"NEIGHBORING_COUNTRY"}],"timespans":[{"start":"2022-08-26T20:00:00+0200","end":"2022-09-09T21:30:00+0200","period":"Vrijdag 26-08-2022 20:00 uur t/m vrijdag 09-09-2022 21:30 uur.","situation":{"label":"Door werkzaamheden: tussen Arnhem Centraal en Oberhausen Hbf rijden er bussen."},"cause":{"label":"Werkzaamheden"},"additionalTravelTime":{"label":"De extra reistijd kan oplopen tot 30 minuten.","shortLabel":"Extra reistijd tot 30 min.","maximumDurationInMinutes":30},"alternativeTransport":{"label":"Er rijden bussen.","shortLabel":"er rijden bussen"},"advices":[]}],"alternativeTransportTimespans":[{"start":"2022-08-26T20:00:00+0200","end":"2022-09-09T21:30:00+0200","alternativeTransport":{"location":[{"station":{"uicCode":"8400071","stationCode":"AH","name":"Arnhem Centraal","coordinate":{"lat":51.9850006103516,"lng":5.89916658401489},"countryCode":"NL"},"description":"vanaf het streekbusstation"},{"station":{"uicCode":"8400735","stationCode":"ZV","name":"Zevenaar","coordinate":{"lat":51.9230537414551,"lng":6.07194423675537},"countryCode":"NL"},"description":"vanaf de voorzijde van het station"}],"label":"Er rijden bussen tussen Arnhem Centraal, Zevenaar, Emmerich-Elten, Emmerich, Wesel en Oberhausen Hbf.","shortLabel":"Er rijden bussen Arnhem C. - Zevenaar - Emmerich-Elten - Emmerich - Wesel - Oberhausen Hbf"}}]},{"id":"7002578","type":"MAINTENANCE","registrationTime":"2022-09-01T01:58:48+0200","releaseTime":"2022-09-01T01:58:48+0200","local":false,"title":"Amsterdam - München - Innsbruck","titleSections":[[{"type":"STATION","value":"Amsterdam C."},{"type":"ICON","value":"MAINTENANCE"},{"type":"STATION","value":"Innsbruck Hbf"}]],"isActive":true,"start":"2022-08-26T20:25:00+0200","end":"2022-09-09T22:00:00+0200","period":"Vrijdag 26-08-2022 20:25 uur t/m vrijdag 09-09-2022 22:00 uur.","impact":{"value":2},"summaryAdditionalTravelTime":{"label":"U heeft geen langere reistijd.","shortLabel":"Geen extra reistijd"},"publicationSections":[{"section":{"stations":[{"uicCode":"8400058","stationCode":"ASD","name":"Amsterdam Centraal","coordinate":{"lat":52.3788871765137,"lng":4.90027761459351},"countryCode":"NL"},{"uicCode":"8400060","stationCode":"ASDM","name":"Amsterdam Muiderpoort","coordinate":{"lat":52.3605537414551,"lng":4.93111133575439},"countryCode":"NL"},{"uicCode":"8400057","stationCode":"ASA","name":"Amsterdam Amstel","coordinate":{"lat":52.3466682434082,"lng":4.91777801513672},"countryCode":"NL"},{"uicCode":"8400194","stationCode":"DVD","name":"Duivendrecht","coordinate":{"lat":52.3233337402344,"lng":4.93638896942139},"countryCode":"NL"},{"uicCode":"8400074","stationCode":"ASB","name":"Amsterdam Bijlmer ArenA","coordinate":{"lat":52.3122215270996,"lng":4.94694423675537},"countryCode":"NL"},{"uicCode":"8400231","stationCode":"ASHD","name":"Amsterdam Holendrecht","coordinate":{"lat":52.29844,"lng":4.95972},"countryCode":"NL"},{"uicCode":"8400047","stationCode":"AC","name":"Abcoude","coordinate":{"lat":52.2785,"lng":4.977},"countryCode":"NL"},{"uicCode":"8400133","stationCode":"BKL","name":"Breukelen","coordinate":{"lat":52.17149,"lng":4.9906},"countryCode":"NL"},{"uicCode":"8400419","stationCode":"MAS","name":"Maarssen","coordinate":{"lat":52.1352767944336,"lng":5.03361129760742},"countryCode":"NL"},{"uicCode":"8400613","stationCode":"UTZL","name":"Utrecht Zuilen","coordinate":{"lat":52.103055,"lng":5.09},"countryCode":"NL"},{"uicCode":"8400621","stationCode":"UT","name":"Utrecht Centraal","coordinate":{"lat":52.0888900756836,"lng":5.11027765274048},"countryCode":"NL"},{"uicCode":"8400606","stationCode":"UTVR","name":"Utrecht Vaartsche Rijn","coordinate":{"lat":52.078889,"lng":5.121667},"countryCode":"NL"},{"uicCode":"8400141","stationCode":"BNK","name":"Bunnik","coordinate":{"lat":52.0630569458008,"lng":5.19444465637207},"countryCode":"NL"},{"uicCode":"8400182","stationCode":"DB","name":"Driebergen-Zeist","coordinate":{"lat":52.0652770996094,"lng":5.25861120223999},"countryCode":"NL"},{"uicCode":"8400417","stationCode":"MRN","name":"Maarn","coordinate":{"lat":52.0641670227051,"lng":5.36999988555908},"countryCode":"NL"},{"uicCode":"8400637","stationCode":"KLP","name":"Veenendaal-De Klomp","coordinate":{"lat":52.0458335876465,"lng":5.57388877868652},"countryCode":"NL"},{"uicCode":"8400200","stationCode":"ED","name":"Ede-Wageningen","coordinate":{"lat":52.0277786254883,"lng":5.67305564880371},"countryCode":"NL"},{"uicCode":"8400704","stationCode":"WF","name":"Wolfheze","coordinate":{"lat":52.0055541992188,"lng":5.7936110496521},"countryCode":"NL"},{"uicCode":"8400489","stationCode":"OTB","name":"Oosterbeek","coordinate":{"lat":51.9949989318848,"lng":5.84000015258789},"countryCode":"NL"},{"uicCode":"8400071","stationCode":"AH","name":"Arnhem Centraal","coordinate":{"lat":51.9850006103516,"lng":5.89916658401489},"countryCode":"NL"},{"uicCode":"8400072","stationCode":"AHP","name":"Arnhem Velperpoort","coordinate":{"lat":51.985279083252,"lng":5.91944456100464},"countryCode":"NL"},{"uicCode":"8400688","stationCode":"WTV","name":"Westervoort","coordinate":{"lat":51.96286,"lng":5.9695},"countryCode":"NL"},{"uicCode":"8400193","stationCode":"DVN","name":"Duiven","coordinate":{"lat":51.9433326721191,"lng":6.01472234725952},"countryCode":"NL"},{"uicCode":"8400735","stationCode":"ZV","name":"Zevenaar","coordinate":{"lat":51.9230537414551,"lng":6.07194423675537},"countryCode":"NL"},{"uicCode":"8033415","stationCode":"EL","name":"Emmerich-Elten","coordinate":{"lat":51.8743,"lng":6.15417},"countryCode":"D"},{"uicCode":"8010288","stationCode":"EM","name":"Emmerich","coordinate":{"lat":51.834283,"lng":6.255718},"countryCode":"D"},{"uicCode":"8010263","stationCode":"OBERH","name":"Oberhausen Hbf","coordinate":{"lat":51.47512,"lng":6.852038},"countryCode":"D"},{"uicCode":"8010316","stationCode":"DUISB","name":"Duisburg Hbf","coordinate":{"lat":51.4297785713316,"lng":6.77590370178222},"countryCode":"D"},{"uicCode":"8008094","stationCode":"DUSSEL","name":"Düsseldorf Hbf","coordinate":{"lat":51.220146,"lng":6.793137},"countryCode":"D"},{"uicCode":"8015561","stationCode":"KKD","name":"Köln Messe/Deutz","coordinate":{"lat":50.940874,"lng":6.975001},"countryCode":"D"},{"uicCode":"8015458","stationCode":"KOLN","name":"Köln Hbf","coordinate":{"lat":50.9432158,"lng":6.9589214},"countryCode":"D"},{"uicCode":"8015468","stationCode":"KKW","name":"Köln West","coordinate":{"lat":50.943611,"lng":6.934444},"countryCode":"D"},{"uicCode":"8015485","stationCode":"BONN","name":"Bonn Hbf","coordinate":{"lat":50.7320141646745,"lng":7.09712505340576},"countryCode":"D"},{"uicCode":"8019051","stationCode":"FMZ","name":"Mainz Hbf","coordinate":{"lat":50.001117,"lng":8.25872},"countryCode":"D"},{"uicCode":"8061676","stationCode":"FNAF","name":"Frankfurt Flughafen Fernb","coordinate":{"lat":50.0531710299286,"lng":8.570237159729},"countryCode":"D"},{"uicCode":"8011065","stationCode":"FFS","name":"Frankfurt (Main) Süd","coordinate":{"lat":50.099444,"lng":8.686389},"countryCode":"D"},{"uicCode":"8022534","stationCode":"WURZB","name":"Würzburg Hbf","coordinate":{"lat":49.80179,"lng":9.9358},"countryCode":"D"},{"uicCode":"8022193","stationCode":"NURNB","name":"Nürnberg Hbf","coordinate":{"lat":49.4449634,"lng":11.0826087},"countryCode":"D"},{"uicCode":"8002140","stationCode":"MA","name":"Augsburg Hbf","coordinate":{"lat":48.3654307143927,"lng":10.88547706604},"countryCode":"D"},{"uicCode":"8020347","stationCode":"MUNCHH","name":"München Hbf","coordinate":{"lat":48.1402033359505,"lng":11.558346748352},"countryCode":"D"},{"uicCode":"8020174","stationCode":"ROSENH","name":"Rosenheim","coordinate":{"lat":47.85,"lng":12.119167},"countryCode":"D"},{"uicCode":"8102184","stationCode":"KUFST","name":"Kufstein","coordinate":{"lat":47.5831,"lng":12.16568},"countryCode":"A"},{"uicCode":"8101170","stationCode":"WORGL","name":"Wörgl","coordinate":{"lat":47.49178,"lng":12.06059},"countryCode":"A"},{"uicCode":"8101176","stationCode":"JENBAC","name":"Jenbach","coordinate":{"lat":47.38844,"lng":11.77841},"countryCode":"A"},{"uicCode":"8101187","stationCode":"INNSB","name":"Innsbruck Hbf","coordinate":{"lat":47.26328,"lng":11.401},"countryCode":"A"}],"direction":"BOTH"},"consequence":{"section":{"stations":[{"uicCode":"8400058","stationCode":"ASD","name":"Amsterdam Centraal","coordinate":{"lat":52.3788871765137,"lng":4.90027761459351},"countryCode":"NL"},{"uicCode":"8400060","stationCode":"ASDM","name":"Amsterdam Muiderpoort","coordinate":{"lat":52.3605537414551,"lng":4.93111133575439},"countryCode":"NL"},{"uicCode":"8400057","stationCode":"ASA","name":"Amsterdam Amstel","coordinate":{"lat":52.3466682434082,"lng":4.91777801513672},"countryCode":"NL"},{"uicCode":"8400194","stationCode":"DVD","name":"Duivendrecht","coordinate":{"lat":52.3233337402344,"lng":4.93638896942139},"countryCode":"NL"},{"uicCode":"8400074","stationCode":"ASB","name":"Amsterdam Bijlmer ArenA","coordinate":{"lat":52.3122215270996,"lng":4.94694423675537},"countryCode":"NL"},{"uicCode":"8400231","stationCode":"ASHD","name":"Amsterdam Holendrecht","coordinate":{"lat":52.29844,"lng":4.95972},"countryCode":"NL"},{"uicCode":"8400047","stationCode":"AC","name":"Abcoude","coordinate":{"lat":52.2785,"lng":4.977},"countryCode":"NL"},{"uicCode":"8400133","stationCode":"BKL","name":"Breukelen","coordinate":{"lat":52.17149,"lng":4.9906},"countryCode":"NL"},{"uicCode":"8400419","stationCode":"MAS","name":"Maarssen","coordinate":{"lat":52.1352767944336,"lng":5.03361129760742},"countryCode":"NL"},{"uicCode":"8400613","stationCode":"UTZL","name":"Utrecht Zuilen","coordinate":{"lat":52.103055,"lng":5.09},"countryCode":"NL"},{"uicCode":"8400621","stationCode":"UT","name":"Utrecht Centraal","coordinate":{"lat":52.0888900756836,"lng":5.11027765274048},"countryCode":"NL"},{"uicCode":"8400606","stationCode":"UTVR","name":"Utrecht Vaartsche Rijn","coordinate":{"lat":52.078889,"lng":5.121667},"countryCode":"NL"},{"uicCode":"8400141","stationCode":"BNK","name":"Bunnik","coordinate":{"lat":52.0630569458008,"lng":5.19444465637207},"countryCode":"NL"},{"uicCode":"8400182","stationCode":"DB","name":"Driebergen-Zeist","coordinate":{"lat":52.0652770996094,"lng":5.25861120223999},"countryCode":"NL"},{"uicCode":"8400417","stationCode":"MRN","name":"Maarn","coordinate":{"lat":52.0641670227051,"lng":5.36999988555908},"countryCode":"NL"},{"uicCode":"8400637","stationCode":"KLP","name":"Veenendaal-De Klomp","coordinate":{"lat":52.0458335876465,"lng":5.57388877868652},"countryCode":"NL"},{"uicCode":"8400200","stationCode":"ED","name":"Ede-Wageningen","coordinate":{"lat":52.0277786254883,"lng":5.67305564880371},"countryCode":"NL"},{"uicCode":"8400704","stationCode":"WF","name":"Wolfheze","coordinate":{"lat":52.0055541992188,"lng":5.7936110496521},"countryCode":"NL"},{"uicCode":"8400489","stationCode":"OTB","name":"Oosterbeek","coordinate":{"lat":51.9949989318848,"lng":5.84000015258789},"countryCode":"NL"},{"uicCode":"8400071","stationCode":"AH","name":"Arnhem Centraal","coordinate":{"lat":51.9850006103516,"lng":5.89916658401489},"countryCode":"NL"},{"uicCode":"8400072","stationCode":"AHP","name":"Arnhem Velperpoort","coordinate":{"lat":51.985279083252,"lng":5.91944456100464},"countryCode":"NL"},{"uicCode":"8400688","stationCode":"WTV","name":"Westervoort","coordinate":{"lat":51.96286,"lng":5.9695},"countryCode":"NL"},{"uicCode":"8400193","stationCode":"DVN","name":"Duiven","coordinate":{"lat":51.9433326721191,"lng":6.01472234725952},"countryCode":"NL"},{"uicCode":"8400735","stationCode":"ZV","name":"Zevenaar","coordinate":{"lat":51.9230537414551,"lng":6.07194423675537},"countryCode":"NL"},{"uicCode":"8033415","stationCode":"EL","name":"Emmerich-Elten","coordinate":{"lat":51.8743,"lng":6.15417},"countryCode":"D"},{"uicCode":"8010288","stationCode":"EM","name":"Emmerich","coordinate":{"lat":51.834283,"lng":6.255718},"countryCode":"D"},{"uicCode":"8010263","stationCode":"OBERH","name":"Oberhausen Hbf","coordinate":{"lat":51.47512,"lng":6.852038},"countryCode":"D"},{"uicCode":"8010316","stationCode":"DUISB","name":"Duisburg Hbf","coordinate":{"lat":51.4297785713316,"lng":6.77590370178222},"countryCode":"D"},{"uicCode":"8008094","stationCode":"DUSSEL","name":"Düsseldorf Hbf","coordinate":{"lat":51.220146,"lng":6.793137},"countryCode":"D"},{"uicCode":"8015561","stationCode":"KKD","name":"Köln Messe/Deutz","coordinate":{"lat":50.940874,"lng":6.975001},"countryCode":"D"},{"uicCode":"8015458","stationCode":"KOLN","name":"Köln Hbf","coordinate":{"lat":50.9432158,"lng":6.9589214},"countryCode":"D"},{"uicCode":"8015468","stationCode":"KKW","name":"Köln West","coordinate":{"lat":50.943611,"lng":6.934444},"countryCode":"D"},{"uicCode":"8015485","stationCode":"BONN","name":"Bonn Hbf","coordinate":{"lat":50.7320141646745,"lng":7.09712505340576},"countryCode":"D"},{"uicCode":"8019051","stationCode":"FMZ","name":"Mainz Hbf","coordinate":{"lat":50.001117,"lng":8.25872},"countryCode":"D"},{"uicCode":"8061676","stationCode":"FNAF","name":"Frankfurt Flughafen Fernb","coordinate":{"lat":50.0531710299286,"lng":8.570237159729},"countryCode":"D"},{"uicCode":"8011065","stationCode":"FFS","name":"Frankfurt (Main) Süd","coordinate":{"lat":50.099444,"lng":8.686389},"countryCode":"D"},{"uicCode":"8022534","stationCode":"WURZB","name":"Würzburg Hbf","coordinate":{"lat":49.80179,"lng":9.9358},"countryCode":"D"},{"uicCode":"8022193","stationCode":"NURNB","name":"Nürnberg Hbf","coordinate":{"lat":49.4449634,"lng":11.0826087},"countryCode":"D"},{"uicCode":"8002140","stationCode":"MA","name":"Augsburg Hbf","coordinate":{"lat":48.3654307143927,"lng":10.88547706604},"countryCode":"D"},{"uicCode":"8020347","stationCode":"MUNCHH","name":"München Hbf","coordinate":{"lat":48.1402033359505,"lng":11.558346748352},"countryCode":"D"},{"uicCode":"8020174","stationCode":"ROSENH","name":"Rosenheim","coordinate":{"lat":47.85,"lng":12.119167},"countryCode":"D"},{"uicCode":"8102184","stationCode":"KUFST","name":"Kufstein","coordinate":{"lat":47.5831,"lng":12.16568},"countryCode":"A"},{"uicCode":"8101170","stationCode":"WORGL","name":"Wörgl","coordinate":{"lat":47.49178,"lng":12.06059},"countryCode":"A"},{"uicCode":"8101176","stationCode":"JENBAC","name":"Jenbach","coordinate":{"lat":47.38844,"lng":11.77841},"countryCode":"A"},{"uicCode":"8101187","stationCode":"INNSB","name":"Innsbruck Hbf","coordinate":{"lat":47.26328,"lng":11.401},"countryCode":"A"}],"direction":"ONE_WAY"},"description":"aangepaste internationale dienstregeling","level":"LESS_TRAINS"},"sectionType":"NEIGHBORING_COUNTRY"}],"timespans":[{"start":"2022-08-26T20:25:00+0200","end":"2022-09-09T22:00:00+0200","period":"Vrijdag 26-08-2022 20:25 uur t/m vrijdag 09-09-2022 22:00 uur.","situation":{"label":"Door werkzaamheden: tussen Amsterdam Centraal en Innsbruck Hbf is de internationale dienstregeling aangepast."},"cause":{"label":"Werkzaamheden"},"additionalTravelTime":{"label":"U heeft geen langere reistijd.","shortLabel":"Geen extra reistijd"},"advices":["Dit kan gevolgen hebben voor uw reis. Plan uw reis in de (Internationale) app."]}],"alternativeTransportTimespans":[]},{"id":"7002675","type":"MAINTENANCE","registrationTime":"2022-09-01T01:58:24+0200","releaseTime":"2022-09-01T01:58:24+0200","local":false,"title":"Amsterdam - Hannover - Berlin","titleSections":[[{"type":"STATION","value":"Amsterdam C."},{"type":"STATION","value":"Bad Bentheim"},{"type":"ICON","value":"MAINTENANCE"},{"type":"STATION","value":"Berlin Hbf"}]],"isActive":true,"start":"2022-08-27T04:00:00+0200","end":"2022-09-17T02:00:00+0200","period":"Zaterdag 27-08-2022 04:00 uur t/m zaterdag 17-09-2022 02:00 uur.","impact":{"value":2},"summaryAdditionalTravelTime":{"label":"De extra reistijd kan oplopen tot 0 minuten.","shortLabel":"Extra reistijd tot 0 min.","maximumDurationInMinutes":0},"publicationSections":[{"section":{"stations":[{"uicCode":"8400058","stationCode":"ASD","name":"Amsterdam Centraal","coordinate":{"lat":52.3788871765137,"lng":4.90027761459351},"countryCode":"NL"},{"uicCode":"8400060","stationCode":"ASDM","name":"Amsterdam Muiderpoort","coordinate":{"lat":52.3605537414551,"lng":4.93111133575439},"countryCode":"NL"},{"uicCode":"8400235","stationCode":"ASSP","name":"Amsterdam Science Park","coordinate":{"lat":52.35526,"lng":4.94651},"countryCode":"NL"},{"uicCode":"8400165","stationCode":"DMN","name":"Diemen","coordinate":{"lat":52.34515,"lng":4.967566},"countryCode":"NL"},{"uicCode":"8400685","stationCode":"WP","name":"Weesp","coordinate":{"lat":52.3127784729004,"lng":5.04305553436279},"countryCode":"NL"},{"uicCode":"8400452","stationCode":"NDB","name":"Naarden-Bussum","coordinate":{"lat":52.2802772521973,"lng":5.15694427490234},"countryCode":"NL"},{"uicCode":"8400145","stationCode":"BSMZ","name":"Bussum Zuid","coordinate":{"lat":52.2658348083496,"lng":5.16305541992188},"countryCode":"NL"},{"uicCode":"8400324","stationCode":"HVSM","name":"Hilversum Media Park","coordinate":{"lat":52.2380561828613,"lng":5.17388868331909},"countryCode":"NL"},{"uicCode":"8400322","stationCode":"HVS","name":"Hilversum","coordinate":{"lat":52.2258338928223,"lng":5.18194437026978},"countryCode":"NL"},{"uicCode":"8400086","stationCode":"BRN","name":"Baarn","coordinate":{"lat":52.2083320617676,"lng":5.28083324432373},"countryCode":"NL"},{"uicCode":"8400055","stationCode":"AMF","name":"Amersfoort Centraal","coordinate":{"lat":52.1538887023926,"lng":5.37055540084839},"countryCode":"NL"},{"uicCode":"8400490","stationCode":"HVL","name":"Hoevelaken","coordinate":{"lat":52.16652,"lng":5.45718},"countryCode":"NL"},{"uicCode":"8400066","stationCode":"APD","name":"Apeldoorn","coordinate":{"lat":52.2091674804687,"lng":5.97027778625488},"countryCode":"NL"},{"uicCode":"8400229","stationCode":"APDO","name":"Apeldoorn Osseveld","coordinate":{"lat":52.2152786254883,"lng":6.00444459915161},"countryCode":"NL"},{"uicCode":"8400599","stationCode":"TWL","name":"Twello","coordinate":{"lat":52.2377777099609,"lng":6.09861087799072},"countryCode":"NL"},{"uicCode":"8400173","stationCode":"DV","name":"Deventer","coordinate":{"lat":52.2574996948242,"lng":6.16055536270142},"countryCode":"NL"},{"uicCode":"8400185","stationCode":"DVC","name":"Deventer Colmschate","coordinate":{"lat":52.2502784729004,"lng":6.21444463729858},"countryCode":"NL"},{"uicCode":"8400328","stationCode":"HON","name":"Holten","coordinate":{"lat":52.2838897705078,"lng":6.42027759552002},"countryCode":"NL"},{"uicCode":"8400538","stationCode":"RSN","name":"Rijssen","coordinate":{"lat":52.3122215270996,"lng":6.52027797698975},"countryCode":"NL"},{"uicCode":"8400691","stationCode":"WDN","name":"Wierden","coordinate":{"lat":52.3613891601562,"lng":6.59166669845581},"countryCode":"NL"},{"uicCode":"8400051","stationCode":"AML","name":"Almelo","coordinate":{"lat":52.3580551147461,"lng":6.65388870239258},"countryCode":"NL"},{"uicCode":"8400520","stationCode":"AMRI","name":"Almelo de Riet","coordinate":{"lat":52.3419456481934,"lng":6.66666650772095},"countryCode":"NL"},{"uicCode":"8400124","stationCode":"BN","name":"Borne","coordinate":{"lat":52.2988891601562,"lng":6.74805545806885},"countryCode":"NL"},{"uicCode":"8400316","stationCode":"HGL","name":"Hengelo","coordinate":{"lat":52.2616653442383,"lng":6.79388904571533},"countryCode":"NL"},{"uicCode":"8400312","stationCode":"HGLO","name":"Hengelo Oost","coordinate":{"lat":52.2688903808594,"lng":6.81944465637207},"countryCode":"NL"},{"uicCode":"8400483","stationCode":"ODZ","name":"Oldenzaal","coordinate":{"lat":52.3063888549805,"lng":6.93472242355347},"countryCode":"NL"},{"uicCode":"8021156","stationCode":"BH","name":"Bad Bentheim","coordinate":{"lat":52.309685595156,"lng":7.15853691101074},"countryCode":"D"},{"uicCode":"8021067","stationCode":"RHEINE","name":"Rheine","coordinate":{"lat":52.276299,"lng":7.434255},"countryCode":"D"},{"uicCode":"8021025","stationCode":"OSNH","name":"Osnabrück Hbf","coordinate":{"lat":52.272851,"lng":8.061781},"countryCode":"D"},{"uicCode":"8013552","stationCode":"HANN","name":"Hannover Hbf","coordinate":{"lat":52.3770401,"lng":9.7416759},"countryCode":"D"},{"uicCode":"8065969","stationCode":"BERHBL","name":"Berlin Hbf","coordinate":{"lat":52.52503,"lng":13.36946},"countryCode":"D"}],"direction":"BOTH"},"consequence":{"section":{"stations":[{"uicCode":"8021156","stationCode":"BH","name":"Bad Bentheim","coordinate":{"lat":52.309685595156,"lng":7.15853691101074},"countryCode":"D"},{"uicCode":"8021067","stationCode":"RHEINE","name":"Rheine","coordinate":{"lat":52.276299,"lng":7.434255},"countryCode":"D"},{"uicCode":"8021025","stationCode":"OSNH","name":"Osnabrück Hbf","coordinate":{"lat":52.272851,"lng":8.061781},"countryCode":"D"},{"uicCode":"8013552","stationCode":"HANN","name":"Hannover Hbf","coordinate":{"lat":52.3770401,"lng":9.7416759},"countryCode":"D"},{"uicCode":"8065969","stationCode":"BERHBL","name":"Berlin Hbf","coordinate":{"lat":52.52503,"lng":13.36946},"countryCode":"D"}],"direction":"ONE_WAY"},"description":"aangepaste internationale dienstregeling","level":"LESS_TRAINS"},"sectionType":"NEIGHBORING_COUNTRY"}],"timespans":[{"start":"2022-08-27T04:00:00+0200","end":"2022-09-17T02:00:00+0200","period":"Zaterdag 27-08-2022 04:00 uur t/m zaterdag 17-09-2022 02:00 uur.","situation":{"label":"Door werkzaamheden: tussen Bad Bentheim en Berlin Hbf is de internationale dienstregeling aangepast."},"cause":{"label":"Werkzaamheden"},"additionalTravelTime":{"label":"De extra reistijd kan oplopen tot 0 minuten.","shortLabel":"Extra reistijd tot 0 min.","maximumDurationInMinutes":0},"advices":["Dit kan gevolgen hebben voor uw reis. Plan uw reis in de internationale app."]}],"alternativeTransportTimespans":[]},{"id":"7002617","type":"MAINTENANCE","registrationTime":"2022-07-18T09:50:31+0200","releaseTime":"2022-07-18T09:50:31+0200","local":false,"title":"Heerlen - Maastricht Randwyck","titleSections":[[{"type":"STATION","value":"Heerlen"},{"type":"ICON","value":"MAINTENANCE"},{"type":"STATION","value":"Valkenburg"},{"type":"STATION","value":"Randwyck"}]],"isActive":true,"start":"2022-08-29T04:00:00+0200","end":"2022-09-03T02:00:00+0200","period":"Maandag 29-08-2022 04:00 uur t/m zaterdag 03-09-2022 02:00 uur.","impact":{"value":5},"summaryAdditionalTravelTime":{"label":"De extra reistijd kan oplopen tot 30 minuten.","shortLabel":"Extra reistijd tot 30 min.","maximumDurationInMinutes":30},"publicationSections":[{"section":{"stations":[{"uicCode":"8400307","stationCode":"HRL","name":"Heerlen","coordinate":{"lat":50.8908348083496,"lng":5.97499990463257},"countryCode":"NL"},{"uicCode":"8400404","stationCode":"HRLW","name":"Heerlen Woonboulevard","coordinate":{"lat":50.896667,"lng":5.952222},"countryCode":"NL"},{"uicCode":"8400656","stationCode":"VDL","name":"Voerendaal","coordinate":{"lat":50.8872222900391,"lng":5.93027782440186},"countryCode":"NL"},{"uicCode":"8400362","stationCode":"KMR","name":"Klimmen-Ransdaal","coordinate":{"lat":50.8663902282715,"lng":5.8905553817749},"countryCode":"NL"},{"uicCode":"8400555","stationCode":"SOG","name":"Schin op Geul","coordinate":{"lat":50.856388092041,"lng":5.87222242355347},"countryCode":"NL"},{"uicCode":"8400632","stationCode":"VK","name":"Valkenburg","coordinate":{"lat":50.8697204589844,"lng":5.83222198486328},"countryCode":"NL"},{"uicCode":"8400341","stationCode":"SGL","name":"Houthem-St. Gerlach","coordinate":{"lat":50.8733329772949,"lng":5.79722213745117},"countryCode":"NL"},{"uicCode":"8400434","stationCode":"MES","name":"Meerssen","coordinate":{"lat":50.882879392551,"lng":5.75099945068359},"countryCode":"NL"},{"uicCode":"8400449","stationCode":"MTN","name":"Maastricht Noord","coordinate":{"lat":50.87087,"lng":5.71774},"countryCode":"NL"},{"uicCode":"8400424","stationCode":"MT","name":"Maastricht","coordinate":{"lat":50.8502769470215,"lng":5.70555543899536},"countryCode":"NL"},{"uicCode":"8400426","stationCode":"MTR","name":"Maastricht Randwyck","coordinate":{"lat":50.8386116027832,"lng":5.71722221374512},"countryCode":"NL"}],"direction":"BOTH"},"consequence":{"section":{"stations":[{"uicCode":"8400307","stationCode":"HRL","name":"Heerlen","coordinate":{"lat":50.8908348083496,"lng":5.97499990463257},"countryCode":"NL"},{"uicCode":"8400404","stationCode":"HRLW","name":"Heerlen Woonboulevard","coordinate":{"lat":50.896667,"lng":5.952222},"countryCode":"NL"},{"uicCode":"8400656","stationCode":"VDL","name":"Voerendaal","coordinate":{"lat":50.8872222900391,"lng":5.93027782440186},"countryCode":"NL"},{"uicCode":"8400362","stationCode":"KMR","name":"Klimmen-Ransdaal","coordinate":{"lat":50.8663902282715,"lng":5.8905553817749},"countryCode":"NL"},{"uicCode":"8400555","stationCode":"SOG","name":"Schin op Geul","coordinate":{"lat":50.856388092041,"lng":5.87222242355347},"countryCode":"NL"},{"uicCode":"8400632","stationCode":"VK","name":"Valkenburg","coordinate":{"lat":50.8697204589844,"lng":5.83222198486328},"countryCode":"NL"}],"direction":"ONE_WAY"},"description":"rijden bussen","level":"NO_OR_MUCH_LESS_TRAINS"},"sectionType":"NL"}],"timespans":[{"start":"2022-08-29T04:00:00+0200","end":"2022-09-03T02:00:00+0200","period":"Maandag 29-08-2022 04:00 uur t/m zaterdag 03-09-2022 02:00 uur.","situation":{"label":"Door werkzaamheden: tussen Heerlen en Valkenburg rijden er bussen."},"cause":{"label":"Werkzaamheden"},"additionalTravelTime":{"label":"De extra reistijd kan oplopen tot 30 minuten.","shortLabel":"Extra reistijd tot 30 min.","maximumDurationInMinutes":30},"alternativeTransport":{"label":"Maak gebruik van het vervangende vervoer.","shortLabel":"gebruik het vervangende vervoer"},"advices":["Tussen Heerlen en Schin op Geul/Klimmen-Ransdaal reist u via Valkenburg"]}],"alternativeTransportTimespans":[{"start":"2022-08-29T04:00:00+0200","end":"2022-09-03T02:00:00+0200","alternativeTransport":{"location":[{"station":{"uicCode":"8400632","stationCode":"VK","name":"Valkenburg","coordinate":{"lat":50.8697204589844,"lng":5.83222198486328},"countryCode":"NL"},"description":"vanaf de voorzijde van het station"},{"station":{"uicCode":"8400656","stationCode":"VDL","name":"Voerendaal","coordinate":{"lat":50.8872222900391,"lng":5.93027782440186},"countryCode":"NL"},"description":"vanaf de voorzijde van het station"},{"station":{"uicCode":"8400404","stationCode":"HRLW","name":"Heerlen Woonboulevard","coordinate":{"lat":50.896667,"lng":5.952222},"countryCode":"NL"},"description":"vanaf In de Cramer"},{"station":{"uicCode":"8400307","stationCode":"HRL","name":"Heerlen","coordinate":{"lat":50.8908348083496,"lng":5.97499990463257},"countryCode":"NL"},"description":"vanaf de voorzijde van het station"}],"label":"Er rijden bussen tussen Valkenburg, Voerendaal, Heerlen Woonboulevard en Heerlen.","shortLabel":"Er rijden bussen Valkenburg - Voerendaal - Hrl Woonblvd - Heerlen"}},{"start":"2022-08-29T04:00:00+0200","end":"2022-09-03T02:00:00+0200","alternativeTransport":{"location":[{"station":{"uicCode":"8400632","stationCode":"VK","name":"Valkenburg","coordinate":{"lat":50.8697204589844,"lng":5.83222198486328},"countryCode":"NL"},"description":"vanaf de voorzijde van het station"},{"station":{"uicCode":"8400555","stationCode":"SOG","name":"Schin op Geul","coordinate":{"lat":50.856388092041,"lng":5.87222242355347},"countryCode":"NL"},"description":"vanaf de Vinkenbergstraat"},{"station":{"uicCode":"8400362","stationCode":"KMR","name":"Klimmen-Ransdaal","coordinate":{"lat":50.8663902282715,"lng":5.8905553817749},"countryCode":"NL"},"description":"vanaf de voorzijde van het station"}],"label":"Er rijden taxibusjes tussen Valkenburg, Schin op Geul en Klimmen-Ransdaal.","shortLabel":"Er rijden taxibusjes Valkenburg - Schin op Geul - Klimmen-Ransdaal"}}]},{"id":"7002630","type":"MAINTENANCE","registrationTime":"2022-08-08T12:07:02+0200","releaseTime":"2022-08-08T12:07:02+0200","local":false,"title":"Utrecht - Hilversum; Utrecht - Almere","titleSections":[[{"type":"STATION","value":"Utrecht C."},{"type":"ICON","value":"MAINTENANCE"},{"type":"STATION","value":"Hilversum"}],[{"type":"STATION","value":"Utrecht C."},{"type":"STATION","value":"Hilversum"},{"type":"ICON","value":"MAINTENANCE"},{"type":"STATION","value":"Almere C."}]],"isActive":false,"start":"2022-09-03T01:15:00+0200","end":"2022-09-05T02:00:00+0200","period":"Zaterdag 03-09-2022 01:15 uur t/m maandag 05-09-2022 02:00 uur.","impact":{"value":4},"summaryAdditionalTravelTime":{"label":"De extra reistijd kan oplopen tot 30 minuten.","shortLabel":"Extra reistijd tot 30 min.","maximumDurationInMinutes":30},"publicationSections":[{"section":{"stations":[{"uicCode":"8400621","stationCode":"UT","name":"Utrecht Centraal","coordinate":{"lat":52.0888900756836,"lng":5.11027765274048},"countryCode":"NL"},{"uicCode":"8400620","stationCode":"UTO","name":"Utrecht Overvecht","coordinate":{"lat":52.1100006103516,"lng":5.12472200393677},"countryCode":"NL"},{"uicCode":"8400327","stationCode":"HOR","name":"Hollandsche Rading","coordinate":{"lat":52.1777763366699,"lng":5.17916679382324},"countryCode":"NL"},{"uicCode":"8400570","stationCode":"HVSP","name":"Hilversum Sportpark","coordinate":{"lat":52.2161102294922,"lng":5.18722200393677},"countryCode":"NL"},{"uicCode":"8400322","stationCode":"HVS","name":"Hilversum","coordinate":{"lat":52.2258338928223,"lng":5.18194437026978},"countryCode":"NL"}],"direction":"BOTH"},"consequence":{"section":{"stations":[{"uicCode":"8400621","stationCode":"UT","name":"Utrecht Centraal","coordinate":{"lat":52.0888900756836,"lng":5.11027765274048},"countryCode":"NL"},{"uicCode":"8400620","stationCode":"UTO","name":"Utrecht Overvecht","coordinate":{"lat":52.1100006103516,"lng":5.12472200393677},"countryCode":"NL"},{"uicCode":"8400327","stationCode":"HOR","name":"Hollandsche Rading","coordinate":{"lat":52.1777763366699,"lng":5.17916679382324},"countryCode":"NL"},{"uicCode":"8400570","stationCode":"HVSP","name":"Hilversum Sportpark","coordinate":{"lat":52.2161102294922,"lng":5.18722200393677},"countryCode":"NL"},{"uicCode":"8400322","stationCode":"HVS","name":"Hilversum","coordinate":{"lat":52.2258338928223,"lng":5.18194437026978},"countryCode":"NL"}],"direction":"ONE_WAY"},"description":"rijden bussen","level":"NO_OR_MUCH_LESS_TRAINS"},"sectionType":"NL"},{"section":{"stations":[{"uicCode":"8400621","stationCode":"UT","name":"Utrecht Centraal","coordinate":{"lat":52.0888900756836,"lng":5.11027765274048},"countryCode":"NL"},{"uicCode":"8400620","stationCode":"UTO","name":"Utrecht Overvecht","coordinate":{"lat":52.1100006103516,"lng":5.12472200393677},"countryCode":"NL"},{"uicCode":"8400327","stationCode":"HOR","name":"Hollandsche Rading","coordinate":{"lat":52.1777763366699,"lng":5.17916679382324},"countryCode":"NL"},{"uicCode":"8400570","stationCode":"HVSP","name":"Hilversum Sportpark","coordinate":{"lat":52.2161102294922,"lng":5.18722200393677},"countryCode":"NL"},{"uicCode":"8400322","stationCode":"HVS","name":"Hilversum","coordinate":{"lat":52.2258338928223,"lng":5.18194437026978},"countryCode":"NL"},{"uicCode":"8400324","stationCode":"HVSM","name":"Hilversum Media Park","coordinate":{"lat":52.2380561828613,"lng":5.17388868331909},"countryCode":"NL"},{"uicCode":"8400145","stationCode":"BSMZ","name":"Bussum Zuid","coordinate":{"lat":52.2658348083496,"lng":5.16305541992188},"countryCode":"NL"},{"uicCode":"8400452","stationCode":"NDB","name":"Naarden-Bussum","coordinate":{"lat":52.2802772521973,"lng":5.15694427490234},"countryCode":"NL"},{"uicCode":"8400450","stationCode":"AMPO","name":"Almere Poort","coordinate":{"lat":52.342778,"lng":5.151944},"countryCode":"NL"},{"uicCode":"8400082","stationCode":"ALMM","name":"Almere Muziekwijk","coordinate":{"lat":52.3675003051758,"lng":5.19027757644653},"countryCode":"NL"},{"uicCode":"8400080","stationCode":"ALM","name":"Almere Centrum","coordinate":{"lat":52.37503,"lng":5.21764},"countryCode":"NL"}],"direction":"BOTH"},"consequence":{"section":{"stations":[{"uicCode":"8400322","stationCode":"HVS","name":"Hilversum","coordinate":{"lat":52.2258338928223,"lng":5.18194437026978},"countryCode":"NL"},{"uicCode":"8400324","stationCode":"HVSM","name":"Hilversum Media Park","coordinate":{"lat":52.2380561828613,"lng":5.17388868331909},"countryCode":"NL"},{"uicCode":"8400145","stationCode":"BSMZ","name":"Bussum Zuid","coordinate":{"lat":52.2658348083496,"lng":5.16305541992188},"countryCode":"NL"},{"uicCode":"8400452","stationCode":"NDB","name":"Naarden-Bussum","coordinate":{"lat":52.2802772521973,"lng":5.15694427490234},"countryCode":"NL"},{"uicCode":"8400450","stationCode":"AMPO","name":"Almere Poort","coordinate":{"lat":52.342778,"lng":5.151944},"countryCode":"NL"},{"uicCode":"8400082","stationCode":"ALMM","name":"Almere Muziekwijk","coordinate":{"lat":52.3675003051758,"lng":5.19027757644653},"countryCode":"NL"},{"uicCode":"8400080","stationCode":"ALM","name":"Almere Centrum","coordinate":{"lat":52.37503,"lng":5.21764},"countryCode":"NL"}],"direction":"ONE_WAY"},"description":"dienstregeling aangepast","level":"LESS_TRAINS"},"sectionType":"NL"}],"timespans":[{"start":"2022-09-03T01:15:00+0200","end":"2022-09-05T02:00:00+0200","period":"Zaterdag 03-09-2022 01:15 uur t/m maandag 05-09-2022 02:00 uur.","situation":{"label":"Door werkzaamheden: tussen Utrecht Centraal en Hilversum rijden er bussen en tussen Hilversum en Almere Centrum is de dienstregeling aangepast."},"cause":{"label":"Werkzaamheden"},"additionalTravelTime":{"label":"De extra reistijd kan oplopen tot 30 minuten.","shortLabel":"Extra reistijd tot 30 min.","maximumDurationInMinutes":30},"alternativeTransport":{"label":"Er rijden bussen.","shortLabel":"er rijden bussen"},"advices":["Er zijn ook werkzaamheden tussen Den Dolder en Baarn. Plan uw reis in de app."]}],"alternativeTransportTimespans":[{"start":"2022-09-03T01:15:00+0200","end":"2022-09-05T02:00:00+0200","alternativeTransport":{"location":[{"station":{"uicCode":"8400621","stationCode":"UT","name":"Utrecht Centraal","coordinate":{"lat":52.0888900756836,"lng":5.11027765274048},"countryCode":"NL"},"description":"vanaf de Jaarbeurszijde"},{"station":{"uicCode":"8400620","stationCode":"UTO","name":"Utrecht Overvecht","coordinate":{"lat":52.1100006103516,"lng":5.12472200393677},"countryCode":"NL"},"description":"vanaf de bushalte"},{"station":{"uicCode":"8400327","stationCode":"HOR","name":"Hollandsche Rading","coordinate":{"lat":52.1777763366699,"lng":5.17916679382324},"countryCode":"NL"},"description":"vanaf de bushalte"},{"station":{"uicCode":"8400570","stationCode":"HVSP","name":"Hilversum Sportpark","coordinate":{"lat":52.2161102294922,"lng":5.18722200393677},"countryCode":"NL"},"description":"vanaf de bushalte"},{"station":{"uicCode":"8400322","stationCode":"HVS","name":"Hilversum","coordinate":{"lat":52.2258338928223,"lng":5.18194437026978},"countryCode":"NL"},"description":"vanaf de voorzijde van het station"}],"label":"Er rijden bussen tussen Utrecht Centraal, Utrecht Overvecht, Hollandsche Rading, Hilversum Sportpark en Hilversum.","shortLabel":"Er rijden bussen Utrecht C. - Overvecht - Holl. Rading - Sportpark - Hilversum"}},{"start":"2022-09-03T04:10:00+0200","end":"2022-09-03T06:10:00+0200","alternativeTransport":{"location":[{"station":{"uicCode":"8400621","stationCode":"UT","name":"Utrecht Centraal","coordinate":{"lat":52.0888900756836,"lng":5.11027765274048},"countryCode":"NL"},"description":"vanaf de Jaarbeurszijde"},{"station":{"uicCode":"8400620","stationCode":"UTO","name":"Utrecht Overvecht","coordinate":{"lat":52.1100006103516,"lng":5.12472200393677},"countryCode":"NL"},"description":"vanaf de bushalte"},{"station":{"uicCode":"8400327","stationCode":"HOR","name":"Hollandsche Rading","coordinate":{"lat":52.1777763366699,"lng":5.17916679382324},"countryCode":"NL"},"description":"vanaf de bushalte"},{"station":{"uicCode":"8400570","stationCode":"HVSP","name":"Hilversum Sportpark","coordinate":{"lat":52.2161102294922,"lng":5.18722200393677},"countryCode":"NL"},"description":"vanaf de bushalte"},{"station":{"uicCode":"8400322","stationCode":"HVS","name":"Hilversum","coordinate":{"lat":52.2258338928223,"lng":5.18194437026978},"countryCode":"NL"},"description":"vanaf de voorzijde van het station"},{"station":{"uicCode":"8400324","stationCode":"HVSM","name":"Hilversum Media Park","coordinate":{"lat":52.2380561828613,"lng":5.17388868331909},"countryCode":"NL"},"description":"vanaf de bushalte"},{"station":{"uicCode":"8400145","stationCode":"BSMZ","name":"Bussum Zuid","coordinate":{"lat":52.2658348083496,"lng":5.16305541992188},"countryCode":"NL"},"description":"vanaf de OV-halte"},{"station":{"uicCode":"8400452","stationCode":"NDB","name":"Naarden-Bussum","coordinate":{"lat":52.2802772521973,"lng":5.15694427490234},"countryCode":"NL"},"description":"vanaf de voorzijde van het station"}],"label":"Er rijden bussen van Utrecht Centraal, Utrecht Overvecht, Hollandsche Rading, Hilversum Sportpark, Hilversum, Hilversum Media Park, Bussum Zuid, Naarden-Bussum naar Weesp.","shortLabel":"Er rijden bussen Utrecht C. -> Overvecht -> Holl. Rading -> Sportpark -> Hilversum -> Media Park -> Bussum Zuid -> Naarden-Bussum -> Weesp"}},{"start":"2022-09-04T04:10:00+0200","end":"2022-09-04T06:10:00+0200","alternativeTransport":{"location":[{"station":{"uicCode":"8400621","stationCode":"UT","name":"Utrecht Centraal","coordinate":{"lat":52.0888900756836,"lng":5.11027765274048},"countryCode":"NL"},"description":"vanaf de Jaarbeurszijde"},{"station":{"uicCode":"8400620","stationCode":"UTO","name":"Utrecht Overvecht","coordinate":{"lat":52.1100006103516,"lng":5.12472200393677},"countryCode":"NL"},"description":"vanaf de bushalte"},{"station":{"uicCode":"8400327","stationCode":"HOR","name":"Hollandsche Rading","coordinate":{"lat":52.1777763366699,"lng":5.17916679382324},"countryCode":"NL"},"description":"vanaf de bushalte"},{"station":{"uicCode":"8400570","stationCode":"HVSP","name":"Hilversum Sportpark","coordinate":{"lat":52.2161102294922,"lng":5.18722200393677},"countryCode":"NL"},"description":"vanaf de bushalte"},{"station":{"uicCode":"8400322","stationCode":"HVS","name":"Hilversum","coordinate":{"lat":52.2258338928223,"lng":5.18194437026978},"countryCode":"NL"},"description":"vanaf de voorzijde van het station"},{"station":{"uicCode":"8400324","stationCode":"HVSM","name":"Hilversum Media Park","coordinate":{"lat":52.2380561828613,"lng":5.17388868331909},"countryCode":"NL"},"description":"vanaf de bushalte"},{"station":{"uicCode":"8400145","stationCode":"BSMZ","name":"Bussum Zuid","coordinate":{"lat":52.2658348083496,"lng":5.16305541992188},"countryCode":"NL"},"description":"vanaf de OV-halte"},{"station":{"uicCode":"8400452","stationCode":"NDB","name":"Naarden-Bussum","coordinate":{"lat":52.2802772521973,"lng":5.15694427490234},"countryCode":"NL"},"description":"vanaf de voorzijde van het station"}],"label":"Er rijden bussen van Utrecht Centraal, Utrecht Overvecht, Hollandsche Rading, Hilversum Sportpark, Hilversum, Hilversum Media Park, Bussum Zuid, Naarden-Bussum naar Weesp.","shortLabel":"Er rijden bussen Utrecht C. -> Overvecht -> Holl. Rading -> Sportpark -> Hilversum -> Media Park -> Bussum Zuid -> Naarden-Bussum -> Weesp"}}]},{"id":"7002664","type":"MAINTENANCE","registrationTime":"2022-08-15T10:20:02+0200","releaseTime":"2022-08-15T10:20:02+0200","local":false,"title":"Zwolle - Groningen; Zwolle - Leeuwarden","titleSections":[[{"type":"STATION","value":"Zwolle"},{"type":"ICON","value":"MAINTENANCE"},{"type":"STATION","value":"Meppel"},{"type":"STATION","value":"Groningen"}],[{"type":"STATION","value":"Zwolle"},{"type":"ICON","value":"MAINTENANCE"},{"type":"STATION","value":"Meppel"},{"type":"STATION","value":"Leeuwarden"}]],"isActive":false,"start":"2022-09-03T01:45:00+0200","end":"2022-09-05T09:15:00+0200","period":"Zaterdag 03-09-2022 01:45 uur t/m maandag 05-09-2022 09:15 uur.","impact":{"value":4},"summaryAdditionalTravelTime":{"label":"De extra reistijd kan oplopen tot 30 minuten.","shortLabel":"Extra reistijd tot 30 min.","maximumDurationInMinutes":30},"publicationSections":[{"section":{"stations":[{"uicCode":"8400747","stationCode":"ZL","name":"Zwolle","coordinate":{"lat":52.5047225952148,"lng":6.09194421768188},"countryCode":"NL"},{"uicCode":"8400435","stationCode":"MP","name":"Meppel","coordinate":{"lat":52.6908340454102,"lng":6.19750022888184},"countryCode":"NL"},{"uicCode":"8400330","stationCode":"HGV","name":"Hoogeveen","coordinate":{"lat":52.7338905334473,"lng":6.47361087799072},"countryCode":"NL"},{"uicCode":"8400100","stationCode":"BL","name":"Beilen","coordinate":{"lat":52.8547210693359,"lng":6.52111101150513},"countryCode":"NL"},{"uicCode":"8400073","stationCode":"ASN","name":"Assen","coordinate":{"lat":52.9916648864746,"lng":6.57083320617676},"countryCode":"NL"},{"uicCode":"8400297","stationCode":"HRN","name":"Haren","coordinate":{"lat":53.1761093139648,"lng":6.61722230911255},"countryCode":"NL"},{"uicCode":"8400238","stationCode":"GERP","name":"Groningen Europapark","coordinate":{"lat":53.20480027,"lng":6.5854178},"countryCode":"NL"},{"uicCode":"8400263","stationCode":"GN","name":"Groningen","coordinate":{"lat":53.2105560302734,"lng":6.56472206115723},"countryCode":"NL"}],"direction":"BOTH"},"consequence":{"section":{"stations":[{"uicCode":"8400747","stationCode":"ZL","name":"Zwolle","coordinate":{"lat":52.5047225952148,"lng":6.09194421768188},"countryCode":"NL"},{"uicCode":"8400435","stationCode":"MP","name":"Meppel","coordinate":{"lat":52.6908340454102,"lng":6.19750022888184},"countryCode":"NL"}],"direction":"ONE_WAY"},"description":"rijden bussen","level":"NO_OR_MUCH_LESS_TRAINS"},"sectionType":"NL"},{"section":{"stations":[{"uicCode":"8400747","stationCode":"ZL","name":"Zwolle","coordinate":{"lat":52.5047225952148,"lng":6.09194421768188},"countryCode":"NL"},{"uicCode":"8400435","stationCode":"MP","name":"Meppel","coordinate":{"lat":52.6908340454102,"lng":6.19750022888184},"countryCode":"NL"},{"uicCode":"8400578","stationCode":"SWK","name":"Steenwijk","coordinate":{"lat":52.7915109924316,"lng":6.11455576324463},"countryCode":"NL"},{"uicCode":"8400705","stationCode":"WV","name":"Wolvega","coordinate":{"lat":52.8808326721191,"lng":6.00361108779907},"countryCode":"NL"},{"uicCode":"8400305","stationCode":"HR","name":"Heerenveen","coordinate":{"lat":52.9613876342773,"lng":5.91416645050049},"countryCode":"NL"},{"uicCode":"8400049","stationCode":"AKM","name":"Akkrum","coordinate":{"lat":53.0463905334473,"lng":5.84361124038696},"countryCode":"NL"},{"uicCode":"8400266","stationCode":"GW","name":"Grou-Jirnsum","coordinate":{"lat":53.0888900756836,"lng":5.82250022888184},"countryCode":"NL"},{"uicCode":"8400387","stationCode":"LW","name":"Leeuwarden","coordinate":{"lat":53.1958351135254,"lng":5.79222202301025},"countryCode":"NL"}],"direction":"BOTH"},"consequence":{"section":{"stations":[{"uicCode":"8400747","stationCode":"ZL","name":"Zwolle","coordinate":{"lat":52.5047225952148,"lng":6.09194421768188},"countryCode":"NL"},{"uicCode":"8400435","stationCode":"MP","name":"Meppel","coordinate":{"lat":52.6908340454102,"lng":6.19750022888184},"countryCode":"NL"}],"direction":"ONE_WAY"},"description":"rijden bussen","level":"NO_OR_MUCH_LESS_TRAINS"},"sectionType":"NL"}],"timespans":[{"start":"2022-09-03T01:45:00+0200","end":"2022-09-05T09:15:00+0200","period":"Zaterdag 03-09-2022 01:45 uur t/m maandag 05-09-2022 09:15 uur.","situation":{"label":"Door werkzaamheden: tussen Zwolle en Meppel rijden er bussen."},"cause":{"label":"Werkzaamheden"},"additionalTravelTime":{"label":"De extra reistijd kan oplopen tot 30 minuten.","shortLabel":"Extra reistijd tot 30 min.","maximumDurationInMinutes":30},"alternativeTransport":{"label":"Er rijden bussen.","shortLabel":"er rijden bussen"},"advices":[]}],"alternativeTransportTimespans":[{"start":"2022-09-03T01:45:00+0200","end":"2022-09-03T04:20:00+0200","alternativeTransport":{"location":[{"station":{"uicCode":"8400747","stationCode":"ZL","name":"Zwolle","coordinate":{"lat":52.5047225952148,"lng":6.09194421768188},"countryCode":"NL"},"description":"vanaf de Zuidzijde"},{"station":{"uicCode":"8400435","stationCode":"MP","name":"Meppel","coordinate":{"lat":52.6908340454102,"lng":6.19750022888184},"countryCode":"NL"},"description":"vanaf het P+R-terrein"},{"station":{"uicCode":"8400330","stationCode":"HGV","name":"Hoogeveen","coordinate":{"lat":52.7338905334473,"lng":6.47361087799072},"countryCode":"NL"},"description":"vanaf de voorzijde van het station"},{"station":{"uicCode":"8400100","stationCode":"BL","name":"Beilen","coordinate":{"lat":52.8547210693359,"lng":6.52111101150513},"countryCode":"NL"},"description":"vanaf de voorzijde van het station"},{"station":{"uicCode":"8400073","stationCode":"ASN","name":"Assen","coordinate":{"lat":52.9916648864746,"lng":6.57083320617676},"countryCode":"NL"},"description":"vanaf het busstation"},{"station":{"uicCode":"8400297","stationCode":"HRN","name":"Haren","coordinate":{"lat":53.1761093139648,"lng":6.61722230911255},"countryCode":"NL"},"description":"vanaf de doorgaande weg"},{"station":{"uicCode":"8400238","stationCode":"GERP","name":"Groningen Europapark","coordinate":{"lat":53.20480027,"lng":6.5854178},"countryCode":"NL"},"description":"vanaf de bushalte"},{"station":{"uicCode":"8400263","stationCode":"GN","name":"Groningen","coordinate":{"lat":53.2105560302734,"lng":6.56472206115723},"countryCode":"NL"},"description":"vanaf het busstation"}],"label":"Er rijden bussen van Zwolle, Meppel, Hoogeveen, Beilen, Assen, Haren, Groningen Europapark naar Groningen.","shortLabel":"Er rijden bussen Zwolle -> Meppel -> Hoogeveen -> Beilen -> Assen -> Haren -> Europapark -> Groningen"}},{"start":"2022-09-03T04:30:00+0200","end":"2022-09-05T02:00:00+0200","alternativeTransport":{"location":[{"station":{"uicCode":"8400747","stationCode":"ZL","name":"Zwolle","coordinate":{"lat":52.5047225952148,"lng":6.09194421768188},"countryCode":"NL"},"description":"vanaf de Zuidzijde"},{"station":{"uicCode":"8400435","stationCode":"MP","name":"Meppel","coordinate":{"lat":52.6908340454102,"lng":6.19750022888184},"countryCode":"NL"},"description":"vanaf het P+R-terrein"}],"label":"Er rijden bussen tussen Zwolle en Meppel.","shortLabel":"Er rijden bussen Zwolle - Meppel"}}]},{"id":"7002631","type":"MAINTENANCE","registrationTime":"2022-08-08T12:08:37+0200","releaseTime":"2022-08-08T12:08:37+0200","local":false,"title":"Utrecht Overvecht","titleSections":[[{"type":"STATION","value":"Overvecht"}],[{"type":"STATION","value":"Utrecht C."},{"type":"STATION","value":"Den Dolder"},{"type":"ICON","value":"MAINTENANCE"},{"type":"STATION","value":"Baarn"}]],"isActive":false,"start":"2022-09-03T04:00:00+0200","end":"2022-09-05T02:00:00+0200","period":"Zaterdag 03-09-2022 04:00 uur t/m maandag 05-09-2022 02:00 uur.","impact":{"value":4},"summaryAdditionalTravelTime":{"label":"De extra reistijd kan oplopen tot 30 minuten.","shortLabel":"Extra reistijd tot 30 min.","maximumDurationInMinutes":30},"publicationSections":[{"section":{"stations":[{"uicCode":"8400621","stationCode":"UT","name":"Utrecht Centraal","coordinate":{"lat":52.0888900756836,"lng":5.11027765274048},"countryCode":"NL"},{"uicCode":"8400620","stationCode":"UTO","name":"Utrecht Overvecht","coordinate":{"lat":52.1100006103516,"lng":5.12472200393677},"countryCode":"NL"},{"uicCode":"8400114","stationCode":"BHV","name":"Bilthoven","coordinate":{"lat":52.1300010681152,"lng":5.20388889312744},"countryCode":"NL"},{"uicCode":"8400179","stationCode":"DLD","name":"Den Dolder","coordinate":{"lat":52.1402778625488,"lng":5.24277782440186},"countryCode":"NL"},{"uicCode":"8400055","stationCode":"AMF","name":"Amersfoort Centraal","coordinate":{"lat":52.1538887023926,"lng":5.37055540084839},"countryCode":"NL"}],"direction":"BOTH"},"consequence":{"section":{"stations":[{"uicCode":"8400620","stationCode":"UTO","name":"Utrecht Overvecht","coordinate":{"lat":52.1100006103516,"lng":5.12472200393677},"countryCode":"NL"}],"direction":"ONE_WAY"},"description":"dienstregeling aangepast","level":"LESS_TRAINS"},"sectionType":"NL"},{"section":{"stations":[{"uicCode":"8400621","stationCode":"UT","name":"Utrecht Centraal","coordinate":{"lat":52.0888900756836,"lng":5.11027765274048},"countryCode":"NL"},{"uicCode":"8400620","stationCode":"UTO","name":"Utrecht Overvecht","coordinate":{"lat":52.1100006103516,"lng":5.12472200393677},"countryCode":"NL"},{"uicCode":"8400114","stationCode":"BHV","name":"Bilthoven","coordinate":{"lat":52.1300010681152,"lng":5.20388889312744},"countryCode":"NL"},{"uicCode":"8400179","stationCode":"DLD","name":"Den Dolder","coordinate":{"lat":52.1402778625488,"lng":5.24277782440186},"countryCode":"NL"},{"uicCode":"8400571","stationCode":"STZ","name":"Soest Zuid","coordinate":{"lat":52.1652793884277,"lng":5.30305576324463},"countryCode":"NL"},{"uicCode":"8400567","stationCode":"ST","name":"Soest","coordinate":{"lat":52.1733322143555,"lng":5.30999994277954},"countryCode":"NL"},{"uicCode":"8400569","stationCode":"SD","name":"Soestdijk","coordinate":{"lat":52.1836128234863,"lng":5.30000019073486},"countryCode":"NL"},{"uicCode":"8400086","stationCode":"BRN","name":"Baarn","coordinate":{"lat":52.2083320617676,"lng":5.28083324432373},"countryCode":"NL"}],"direction":"BOTH"},"consequence":{"section":{"stations":[{"uicCode":"8400620","stationCode":"UTO","name":"Utrecht Overvecht","coordinate":{"lat":52.1100006103516,"lng":5.12472200393677},"countryCode":"NL"}],"direction":"ONE_WAY"},"description":"dienstregeling aangepast","level":"LESS_TRAINS"},"sectionType":"NL"},{"section":{"stations":[{"uicCode":"8400621","stationCode":"UT","name":"Utrecht Centraal","coordinate":{"lat":52.0888900756836,"lng":5.11027765274048},"countryCode":"NL"},{"uicCode":"8400620","stationCode":"UTO","name":"Utrecht Overvecht","coordinate":{"lat":52.1100006103516,"lng":5.12472200393677},"countryCode":"NL"},{"uicCode":"8400114","stationCode":"BHV","name":"Bilthoven","coordinate":{"lat":52.1300010681152,"lng":5.20388889312744},"countryCode":"NL"},{"uicCode":"8400179","stationCode":"DLD","name":"Den Dolder","coordinate":{"lat":52.1402778625488,"lng":5.24277782440186},"countryCode":"NL"},{"uicCode":"8400571","stationCode":"STZ","name":"Soest Zuid","coordinate":{"lat":52.1652793884277,"lng":5.30305576324463},"countryCode":"NL"},{"uicCode":"8400567","stationCode":"ST","name":"Soest","coordinate":{"lat":52.1733322143555,"lng":5.30999994277954},"countryCode":"NL"},{"uicCode":"8400569","stationCode":"SD","name":"Soestdijk","coordinate":{"lat":52.1836128234863,"lng":5.30000019073486},"countryCode":"NL"},{"uicCode":"8400086","stationCode":"BRN","name":"Baarn","coordinate":{"lat":52.2083320617676,"lng":5.28083324432373},"countryCode":"NL"}],"direction":"BOTH"},"consequence":{"section":{"stations":[{"uicCode":"8400179","stationCode":"DLD","name":"Den Dolder","coordinate":{"lat":52.1402778625488,"lng":5.24277782440186},"countryCode":"NL"},{"uicCode":"8400571","stationCode":"STZ","name":"Soest Zuid","coordinate":{"lat":52.1652793884277,"lng":5.30305576324463},"countryCode":"NL"},{"uicCode":"8400567","stationCode":"ST","name":"Soest","coordinate":{"lat":52.1733322143555,"lng":5.30999994277954},"countryCode":"NL"},{"uicCode":"8400569","stationCode":"SD","name":"Soestdijk","coordinate":{"lat":52.1836128234863,"lng":5.30000019073486},"countryCode":"NL"},{"uicCode":"8400086","stationCode":"BRN","name":"Baarn","coordinate":{"lat":52.2083320617676,"lng":5.28083324432373},"countryCode":"NL"}],"direction":"ONE_WAY"},"description":"rijden bussen","level":"NO_OR_MUCH_LESS_TRAINS"},"sectionType":"NL"}],"timespans":[{"start":"2022-09-03T04:00:00+0200","end":"2022-09-05T02:00:00+0200","period":"Zaterdag 03-09-2022 04:00 uur t/m maandag 05-09-2022 02:00 uur.","situation":{"label":"Door werkzaamheden: van, via en naar Utrecht Overvecht is de dienstregeling aangepast en tussen Den Dolder en Baarn rijden er bussen."},"cause":{"label":"Werkzaamheden"},"additionalTravelTime":{"label":"De extra reistijd kan oplopen tot 30 minuten.","shortLabel":"Extra reistijd tot 30 min.","maximumDurationInMinutes":30},"alternativeTransport":{"label":"Er rijden bussen.","shortLabel":"er rijden bussen"},"advices":["Er zijn ook werkzaamheden tussen Utrecht Centraal en Hilversum. Plan uw reis in de app."]}],"alternativeTransportTimespans":[{"start":"2022-09-03T04:00:00+0200","end":"2022-09-05T02:00:00+0200","alternativeTransport":{"location":[{"station":{"uicCode":"8400179","stationCode":"DLD","name":"Den Dolder","coordinate":{"lat":52.1402778625488,"lng":5.24277782440186},"countryCode":"NL"},"description":"vanaf de bushalte"},{"station":{"uicCode":"8400571","stationCode":"STZ","name":"Soest Zuid","coordinate":{"lat":52.1652793884277,"lng":5.30305576324463},"countryCode":"NL"},"description":"vanaf het busstation"},{"station":{"uicCode":"8400567","stationCode":"ST","name":"Soest","coordinate":{"lat":52.1733322143555,"lng":5.30999994277954},"countryCode":"NL"},"description":"vanaf de bushalte"},{"station":{"uicCode":"8400569","stationCode":"SD","name":"Soestdijk","coordinate":{"lat":52.1836128234863,"lng":5.30000019073486},"countryCode":"NL"},"description":"vanaf de bushalte"},{"station":{"uicCode":"8400086","stationCode":"BRN","name":"Baarn","coordinate":{"lat":52.2083320617676,"lng":5.28083324432373},"countryCode":"NL"},"description":"vanaf het Stationsplein"}],"label":"Er rijden bussen tussen Den Dolder, Soest Zuid, Soest, Soestdijk en Baarn.","shortLabel":"Er rijden bussen Den Dolder - Soest Zuid - Soest - Soestdijk - Baarn"}},{"start":"2022-09-03T23:30:00+0200","end":"2022-09-04T00:30:00+0200","alternativeTransport":{"location":[{"station":{"uicCode":"8400621","stationCode":"UT","name":"Utrecht Centraal","coordinate":{"lat":52.0888900756836,"lng":5.11027765274048},"countryCode":"NL"},"description":"vanaf de Jaarbeurszijde"},{"station":{"uicCode":"8400620","stationCode":"UTO","name":"Utrecht Overvecht","coordinate":{"lat":52.1100006103516,"lng":5.12472200393677},"countryCode":"NL"},"description":"vanaf de bushalte"},{"station":{"uicCode":"8400114","stationCode":"BHV","name":"Bilthoven","coordinate":{"lat":52.1300010681152,"lng":5.20388889312744},"countryCode":"NL"},"description":"vanaf de bushalte"},{"station":{"uicCode":"8400179","stationCode":"DLD","name":"Den Dolder","coordinate":{"lat":52.1402778625488,"lng":5.24277782440186},"countryCode":"NL"},"description":"vanaf de bushalte"},{"station":{"uicCode":"8400571","stationCode":"STZ","name":"Soest Zuid","coordinate":{"lat":52.1652793884277,"lng":5.30305576324463},"countryCode":"NL"},"description":"vanaf het busstation"},{"station":{"uicCode":"8400567","stationCode":"ST","name":"Soest","coordinate":{"lat":52.1733322143555,"lng":5.30999994277954},"countryCode":"NL"},"description":"vanaf de bushalte"},{"station":{"uicCode":"8400569","stationCode":"SD","name":"Soestdijk","coordinate":{"lat":52.1836128234863,"lng":5.30000019073486},"countryCode":"NL"},"description":"vanaf de bushalte"}],"label":"Er rijden bussen van Utrecht Centraal, Utrecht Overvecht, Bilthoven, Den Dolder, Soest Zuid, Soest, Soestdijk naar Baarn.","shortLabel":"Er rijden bussen Utrecht C. -> Overvecht -> Bilthoven -> Den Dolder -> Soest Zuid -> Soest -> Soestdijk -> Baarn"}},{"start":"2022-09-04T00:30:00+0200","end":"2022-09-04T01:30:00+0200","alternativeTransport":{"location":[{"station":{"uicCode":"8400621","stationCode":"UT","name":"Utrecht Centraal","coordinate":{"lat":52.0888900756836,"lng":5.11027765274048},"countryCode":"NL"},"description":"vanaf de Jaarbeurszijde"},{"station":{"uicCode":"8400620","stationCode":"UTO","name":"Utrecht Overvecht","coordinate":{"lat":52.1100006103516,"lng":5.12472200393677},"countryCode":"NL"},"description":"vanaf de bushalte"},{"station":{"uicCode":"8400114","stationCode":"BHV","name":"Bilthoven","coordinate":{"lat":52.1300010681152,"lng":5.20388889312744},"countryCode":"NL"},"description":"vanaf de bushalte"},{"station":{"uicCode":"8400179","stationCode":"DLD","name":"Den Dolder","coordinate":{"lat":52.1402778625488,"lng":5.24277782440186},"countryCode":"NL"},"description":"vanaf de bushalte"},{"station":{"uicCode":"8400571","stationCode":"STZ","name":"Soest Zuid","coordinate":{"lat":52.1652793884277,"lng":5.30305576324463},"countryCode":"NL"},"description":"vanaf het busstation"},{"station":{"uicCode":"8400567","stationCode":"ST","name":"Soest","coordinate":{"lat":52.1733322143555,"lng":5.30999994277954},"countryCode":"NL"},"description":"vanaf de bushalte"},{"station":{"uicCode":"8400569","stationCode":"SD","name":"Soestdijk","coordinate":{"lat":52.1836128234863,"lng":5.30000019073486},"countryCode":"NL"},"description":"vanaf de bushalte"},{"station":{"uicCode":"8400086","stationCode":"BRN","name":"Baarn","coordinate":{"lat":52.2083320617676,"lng":5.28083324432373},"countryCode":"NL"},"description":"vanaf het Stationsplein"}],"label":"Er rijden bussen tussen Utrecht Centraal, Utrecht Overvecht, Bilthoven, Den Dolder, Soest Zuid, Soest, Soestdijk en Baarn.","shortLabel":"Er rijden bussen Utrecht C. - Overvecht - Bilthoven - Den Dolder - Soest Zuid - Soest - Soestdijk - Baarn"}},{"start":"2022-09-04T23:30:00+0200","end":"2022-09-05T00:30:00+0200","alternativeTransport":{"location":[{"station":{"uicCode":"8400621","stationCode":"UT","name":"Utrecht Centraal","coordinate":{"lat":52.0888900756836,"lng":5.11027765274048},"countryCode":"NL"},"description":"vanaf de Jaarbeurszijde"},{"station":{"uicCode":"8400620","stationCode":"UTO","name":"Utrecht Overvecht","coordinate":{"lat":52.1100006103516,"lng":5.12472200393677},"countryCode":"NL"},"description":"vanaf de bushalte"},{"station":{"uicCode":"8400114","stationCode":"BHV","name":"Bilthoven","coordinate":{"lat":52.1300010681152,"lng":5.20388889312744},"countryCode":"NL"},"description":"vanaf de bushalte"},{"station":{"uicCode":"8400179","stationCode":"DLD","name":"Den Dolder","coordinate":{"lat":52.1402778625488,"lng":5.24277782440186},"countryCode":"NL"},"description":"vanaf de bushalte"},{"station":{"uicCode":"8400571","stationCode":"STZ","name":"Soest Zuid","coordinate":{"lat":52.1652793884277,"lng":5.30305576324463},"countryCode":"NL"},"description":"vanaf het busstation"},{"station":{"uicCode":"8400567","stationCode":"ST","name":"Soest","coordinate":{"lat":52.1733322143555,"lng":5.30999994277954},"countryCode":"NL"},"description":"vanaf de bushalte"},{"station":{"uicCode":"8400569","stationCode":"SD","name":"Soestdijk","coordinate":{"lat":52.1836128234863,"lng":5.30000019073486},"countryCode":"NL"},"description":"vanaf de bushalte"}],"label":"Er rijden bussen van Utrecht Centraal, Utrecht Overvecht, Bilthoven, Den Dolder, Soest Zuid, Soest, Soestdijk naar Baarn.","shortLabel":"Er rijden bussen Utrecht C. -> Overvecht -> Bilthoven -> Den Dolder -> Soest Zuid -> Soest -> Soestdijk -> Baarn"}},{"start":"2022-09-05T00:30:00+0200","end":"2022-09-05T01:30:00+0200","alternativeTransport":{"location":[{"station":{"uicCode":"8400621","stationCode":"UT","name":"Utrecht Centraal","coordinate":{"lat":52.0888900756836,"lng":5.11027765274048},"countryCode":"NL"},"description":"vanaf de Jaarbeurszijde"},{"station":{"uicCode":"8400620","stationCode":"UTO","name":"Utrecht Overvecht","coordinate":{"lat":52.1100006103516,"lng":5.12472200393677},"countryCode":"NL"},"description":"vanaf de bushalte"},{"station":{"uicCode":"8400114","stationCode":"BHV","name":"Bilthoven","coordinate":{"lat":52.1300010681152,"lng":5.20388889312744},"countryCode":"NL"},"description":"vanaf de bushalte"},{"station":{"uicCode":"8400179","stationCode":"DLD","name":"Den Dolder","coordinate":{"lat":52.1402778625488,"lng":5.24277782440186},"countryCode":"NL"},"description":"vanaf de bushalte"},{"station":{"uicCode":"8400571","stationCode":"STZ","name":"Soest Zuid","coordinate":{"lat":52.1652793884277,"lng":5.30305576324463},"countryCode":"NL"},"description":"vanaf het busstation"},{"station":{"uicCode":"8400567","stationCode":"ST","name":"Soest","coordinate":{"lat":52.1733322143555,"lng":5.30999994277954},"countryCode":"NL"},"description":"vanaf de bushalte"},{"station":{"uicCode":"8400569","stationCode":"SD","name":"Soestdijk","coordinate":{"lat":52.1836128234863,"lng":5.30000019073486},"countryCode":"NL"},"description":"vanaf de bushalte"},{"station":{"uicCode":"8400086","stationCode":"BRN","name":"Baarn","coordinate":{"lat":52.2083320617676,"lng":5.28083324432373},"countryCode":"NL"},"description":"vanaf het Stationsplein"}],"label":"Er rijden bussen tussen Utrecht Centraal, Utrecht Overvecht, Bilthoven, Den Dolder, Soest Zuid, Soest, Soestdijk en Baarn.","shortLabel":"Er rijden bussen Utrecht C. - Overvecht - Bilthoven - Den Dolder - Soest Zuid - Soest - Soestdijk - Baarn"}}]},{"id":"7002632","type":"MAINTENANCE","registrationTime":"2022-08-08T12:09:37+0200","releaseTime":"2022-08-08T12:09:37+0200","local":false,"title":"Hoofddorp - Schiphol - Hilversum","titleSections":[[{"type":"STATION","value":"Hoofddorp"},{"type":"ICON","value":"MAINTENANCE"},{"type":"STATION","value":"Hilversum"}]],"isActive":false,"start":"2022-09-03T04:00:00+0200","end":"2022-09-05T02:00:00+0200","period":"Zaterdag 03-09-2022 04:00 uur t/m maandag 05-09-2022 02:00 uur.","impact":{"value":3},"summaryAdditionalTravelTime":{"label":"U heeft geen langere reistijd.","shortLabel":"Geen extra reistijd"},"publicationSections":[{"section":{"stations":[{"uicCode":"8400332","stationCode":"HFD","name":"Hoofddorp","coordinate":{"lat":52.2933349609375,"lng":4.70055532455444},"countryCode":"NL"},{"uicCode":"8400561","stationCode":"SHL","name":"Schiphol Airport","coordinate":{"lat":52.3094444274902,"lng":4.76194429397583},"countryCode":"NL"},{"uicCode":"8400061","stationCode":"ASDZ","name":"Amsterdam Zuid","coordinate":{"lat":52.338889,"lng":4.872356},"countryCode":"NL"},{"uicCode":"8400056","stationCode":"RAI","name":"Amsterdam RAI","coordinate":{"lat":52.3372230529785,"lng":4.89027786254883},"countryCode":"NL"},{"uicCode":"8400194","stationCode":"DVD","name":"Duivendrecht","coordinate":{"lat":52.3233337402344,"lng":4.93638896942139},"countryCode":"NL"},{"uicCode":"8400163","stationCode":"DMNZ","name":"Diemen Zuid","coordinate":{"lat":52.3302764892578,"lng":4.95583343505859},"countryCode":"NL"},{"uicCode":"8400685","stationCode":"WP","name":"Weesp","coordinate":{"lat":52.3127784729004,"lng":5.04305553436279},"countryCode":"NL"},{"uicCode":"8400452","stationCode":"NDB","name":"Naarden-Bussum","coordinate":{"lat":52.2802772521973,"lng":5.15694427490234},"countryCode":"NL"},{"uicCode":"8400145","stationCode":"BSMZ","name":"Bussum Zuid","coordinate":{"lat":52.2658348083496,"lng":5.16305541992188},"countryCode":"NL"},{"uicCode":"8400324","stationCode":"HVSM","name":"Hilversum Media Park","coordinate":{"lat":52.2380561828613,"lng":5.17388868331909},"countryCode":"NL"},{"uicCode":"8400322","stationCode":"HVS","name":"Hilversum","coordinate":{"lat":52.2258338928223,"lng":5.18194437026978},"countryCode":"NL"}],"direction":"BOTH"},"consequence":{"section":{"stations":[{"uicCode":"8400332","stationCode":"HFD","name":"Hoofddorp","coordinate":{"lat":52.2933349609375,"lng":4.70055532455444},"countryCode":"NL"},{"uicCode":"8400561","stationCode":"SHL","name":"Schiphol Airport","coordinate":{"lat":52.3094444274902,"lng":4.76194429397583},"countryCode":"NL"},{"uicCode":"8400061","stationCode":"ASDZ","name":"Amsterdam Zuid","coordinate":{"lat":52.338889,"lng":4.872356},"countryCode":"NL"},{"uicCode":"8400056","stationCode":"RAI","name":"Amsterdam RAI","coordinate":{"lat":52.3372230529785,"lng":4.89027786254883},"countryCode":"NL"},{"uicCode":"8400194","stationCode":"DVD","name":"Duivendrecht","coordinate":{"lat":52.3233337402344,"lng":4.93638896942139},"countryCode":"NL"},{"uicCode":"8400163","stationCode":"DMNZ","name":"Diemen Zuid","coordinate":{"lat":52.3302764892578,"lng":4.95583343505859},"countryCode":"NL"},{"uicCode":"8400685","stationCode":"WP","name":"Weesp","coordinate":{"lat":52.3127784729004,"lng":5.04305553436279},"countryCode":"NL"},{"uicCode":"8400452","stationCode":"NDB","name":"Naarden-Bussum","coordinate":{"lat":52.2802772521973,"lng":5.15694427490234},"countryCode":"NL"},{"uicCode":"8400145","stationCode":"BSMZ","name":"Bussum Zuid","coordinate":{"lat":52.2658348083496,"lng":5.16305541992188},"countryCode":"NL"},{"uicCode":"8400324","stationCode":"HVSM","name":"Hilversum Media Park","coordinate":{"lat":52.2380561828613,"lng":5.17388868331909},"countryCode":"NL"},{"uicCode":"8400322","stationCode":"HVS","name":"Hilversum","coordinate":{"lat":52.2258338928223,"lng":5.18194437026978},"countryCode":"NL"}],"direction":"ONE_WAY"},"description":"dienstregeling aangepast","level":"LESS_TRAINS"},"sectionType":"NL"}],"timespans":[{"start":"2022-09-03T04:00:00+0200","end":"2022-09-05T02:00:00+0200","period":"Zaterdag 03-09-2022 04:00 uur t/m maandag 05-09-2022 02:00 uur.","situation":{"label":"Door werkzaamheden: tussen Hoofddorp en Hilversum is de dienstregeling aangepast."},"cause":{"label":"Werkzaamheden"},"additionalTravelTime":{"label":"U heeft geen langere reistijd.","shortLabel":"Geen extra reistijd"},"advices":[]}],"alternativeTransportTimespans":[]},{"id":"7002769","type":"MAINTENANCE","registrationTime":"2022-09-02T13:17:11+0200","releaseTime":"2022-09-02T13:17:11+0200","local":false,"title":"Maastricht - Liège / Luik","titleSections":[[{"type":"STATION","value":"Maastricht"},{"type":"STATION","value":"Randwyck"},{"type":"ICON","value":"MAINTENANCE"},{"type":"STATION","value":"Visé"},{"type":"STATION","value":"Liège-Guillemins"}]],"isActive":false,"start":"2022-09-04T22:00:00+0200","end":"2022-09-05T02:00:00+0200","period":"Zondag 04-09-2022 22:00 uur t/m maandag 05-09-2022 02:00 uur.","impact":{"value":3},"summaryAdditionalTravelTime":{"label":"De extra reistijd kan oplopen tot 30 minuten.","shortLabel":"Extra reistijd tot 30 min.","maximumDurationInMinutes":30},"publicationSections":[{"section":{"stations":[{"uicCode":"8400424","stationCode":"MT","name":"Maastricht","coordinate":{"lat":50.8502769470215,"lng":5.70555543899536},"countryCode":"NL"},{"uicCode":"8400426","stationCode":"MTR","name":"Maastricht Randwyck","coordinate":{"lat":50.8386116027832,"lng":5.71722221374512},"countryCode":"NL"},{"uicCode":"8400219","stationCode":"EDN","name":"Eijsden","coordinate":{"lat":50.7719459533691,"lng":5.71000003814697},"countryCode":"NL"},{"uicCode":"8846201","stationCode":"FVS","name":"Visé","coordinate":{"lat":50.73781,"lng":5.69232},"countryCode":"B"},{"uicCode":"8843901","stationCode":"BRESSX","name":"Bressoux","coordinate":{"lat":50.643829,"lng":5.6112542},"countryCode":"B"},{"uicCode":"8841004","stationCode":"LUIK","name":"Liège-Guillemins","coordinate":{"lat":50.62436,"lng":5.56648},"countryCode":"B"}],"direction":"BOTH"},"consequence":{"section":{"stations":[{"uicCode":"8400426","stationCode":"MTR","name":"Maastricht Randwyck","coordinate":{"lat":50.8386116027832,"lng":5.71722221374512},"countryCode":"NL"},{"uicCode":"8400219","stationCode":"EDN","name":"Eijsden","coordinate":{"lat":50.7719459533691,"lng":5.71000003814697},"countryCode":"NL"},{"uicCode":"8846201","stationCode":"FVS","name":"Visé","coordinate":{"lat":50.73781,"lng":5.69232},"countryCode":"B"}],"direction":"ONE_WAY"},"description":"rijden bussen","level":"NO_OR_MUCH_LESS_TRAINS"},"sectionType":"NEIGHBORING_COUNTRY"}],"timespans":[{"start":"2022-09-04T22:00:00+0200","end":"2022-09-05T02:00:00+0200","period":"Zondag 04-09-2022 22:00 uur t/m maandag 05-09-2022 02:00 uur.","situation":{"label":"Door werkzaamheden: tussen Maastricht Randwyck en Visé rijden er bussen."},"cause":{"label":"Werkzaamheden"},"additionalTravelTime":{"label":"De extra reistijd kan oplopen tot 30 minuten.","shortLabel":"Extra reistijd tot 30 min.","maximumDurationInMinutes":30},"alternativeTransport":{"label":"Er rijden stopbussen.","shortLabel":"er rijden stopbussen"},"advices":["Plan uw reis kort van tevoren opnieuw voor een aangepast reisadvies."]}],"alternativeTransportTimespans":[{"start":"2022-09-04T22:00:00+0200","end":"2022-09-05T02:00:00+0200","alternativeTransport":{"location":[{"station":{"uicCode":"8400424","stationCode":"MT","name":"Maastricht","coordinate":{"lat":50.8502769470215,"lng":5.70555543899536},"countryCode":"NL"},"description":"vanaf het Stationsplein"},{"station":{"uicCode":"8400426","stationCode":"MTR","name":"Maastricht Randwyck","coordinate":{"lat":50.8386116027832,"lng":5.71722221374512},"countryCode":"NL"},"description":"vanaf de Universiteitssingel"},{"station":{"uicCode":"8400219","stationCode":"EDN","name":"Eijsden","coordinate":{"lat":50.7719459533691,"lng":5.71000003814697},"countryCode":"NL"},"description":"vanaf de voorzijde van het station"}],"label":"Er rijden stopbussen tussen Maastricht, Maastricht Randwyck en Eijsden.","shortLabel":"Er rijden stopbussen Maastricht - Randwyck - Eijsden"}}]},{"id":"7002734","type":"MAINTENANCE","registrationTime":"2022-08-25T11:02:03+0200","releaseTime":"2022-08-25T11:02:03+0200","local":false,"title":"Heerlen - Maastricht Randwyck","titleSections":[[{"type":"STATION","value":"Heerlen"},{"type":"STATION","value":"Valkenburg"},{"type":"ICON","value":"MAINTENANCE"},{"type":"STATION","value":"Randwyck"}]],"isActive":false,"start":"2022-09-05T00:00:00+0200","end":"2022-09-05T02:00:00+0200","period":"Maandag 05-09-2022 00:00 uur t/m maandag 05-09-2022 02:00 uur.","impact":{"value":2},"summaryAdditionalTravelTime":{"label":"De extra reistijd kan oplopen tot 30 minuten.","shortLabel":"Extra reistijd tot 30 min.","maximumDurationInMinutes":30},"publicationSections":[{"section":{"stations":[{"uicCode":"8400307","stationCode":"HRL","name":"Heerlen","coordinate":{"lat":50.8908348083496,"lng":5.97499990463257},"countryCode":"NL"},{"uicCode":"8400404","stationCode":"HRLW","name":"Heerlen Woonboulevard","coordinate":{"lat":50.896667,"lng":5.952222},"countryCode":"NL"},{"uicCode":"8400656","stationCode":"VDL","name":"Voerendaal","coordinate":{"lat":50.8872222900391,"lng":5.93027782440186},"countryCode":"NL"},{"uicCode":"8400362","stationCode":"KMR","name":"Klimmen-Ransdaal","coordinate":{"lat":50.8663902282715,"lng":5.8905553817749},"countryCode":"NL"},{"uicCode":"8400555","stationCode":"SOG","name":"Schin op Geul","coordinate":{"lat":50.856388092041,"lng":5.87222242355347},"countryCode":"NL"},{"uicCode":"8400632","stationCode":"VK","name":"Valkenburg","coordinate":{"lat":50.8697204589844,"lng":5.83222198486328},"countryCode":"NL"},{"uicCode":"8400341","stationCode":"SGL","name":"Houthem-St. Gerlach","coordinate":{"lat":50.8733329772949,"lng":5.79722213745117},"countryCode":"NL"},{"uicCode":"8400434","stationCode":"MES","name":"Meerssen","coordinate":{"lat":50.882879392551,"lng":5.75099945068359},"countryCode":"NL"},{"uicCode":"8400449","stationCode":"MTN","name":"Maastricht Noord","coordinate":{"lat":50.87087,"lng":5.71774},"countryCode":"NL"},{"uicCode":"8400424","stationCode":"MT","name":"Maastricht","coordinate":{"lat":50.8502769470215,"lng":5.70555543899536},"countryCode":"NL"},{"uicCode":"8400426","stationCode":"MTR","name":"Maastricht Randwyck","coordinate":{"lat":50.8386116027832,"lng":5.71722221374512},"countryCode":"NL"}],"direction":"BOTH"},"consequence":{"section":{"stations":[{"uicCode":"8400632","stationCode":"VK","name":"Valkenburg","coordinate":{"lat":50.8697204589844,"lng":5.83222198486328},"countryCode":"NL"},{"uicCode":"8400341","stationCode":"SGL","name":"Houthem-St. Gerlach","coordinate":{"lat":50.8733329772949,"lng":5.79722213745117},"countryCode":"NL"},{"uicCode":"8400434","stationCode":"MES","name":"Meerssen","coordinate":{"lat":50.882879392551,"lng":5.75099945068359},"countryCode":"NL"},{"uicCode":"8400449","stationCode":"MTN","name":"Maastricht Noord","coordinate":{"lat":50.87087,"lng":5.71774},"countryCode":"NL"},{"uicCode":"8400424","stationCode":"MT","name":"Maastricht","coordinate":{"lat":50.8502769470215,"lng":5.70555543899536},"countryCode":"NL"},{"uicCode":"8400426","stationCode":"MTR","name":"Maastricht Randwyck","coordinate":{"lat":50.8386116027832,"lng":5.71722221374512},"countryCode":"NL"}],"direction":"ONE_WAY"},"description":"rijden bussen","level":"NO_OR_MUCH_LESS_TRAINS"},