[{"type":"CALAMITY","id":"0959c338-8ec5-4f80-991b-bdcfa791a4d5","title":"Staking in België","isActive":true,"topic":"disruption_0959c338-8ec5-4f80-991b-bdcfa791a4d5_nl","description":"Vanaf zondag 25 januari 22:00 uur tot en met vrijdag 30 januari 22:00 uur is er een staking in België. De staking heeft gevolgen voor het treinverkeer van, naar en binnen België. Kijk voor meer informatie op NS International en plan je reis kort voor vertrek voor een zo actueel mogelijk reisadvies.","url":"https://www.ns.nl/reisinformatie/calamiteiten/staking-in-belgie.html","priority":"PRIO_3","lastUpdated":"2026-01-23T17:07:00+0100","bodyItems":[],"buttons":{"position":["TOP"],"items":[{"label":"Plan je reis","accessibilityLabel":"Plan je reis","url":"https://www.ns.nl/reisplanner/","type":"PLANNER"},{"label":"Meer informatie","accessibilityLabel":"Meer informatie","url":"https://www.nsinternational.com/nl/actuele-reisinformatie/6WlA0hSzLkhwJraN7I1XRY","type":"EXTERNAL"}]}},{"type":"MAINTENANCE","id":"7004492","title":"Groningen - Leer.","isActive":true,"local":false,"titleSections":[[{"type":"STATION","value":"Groningen"},{"type":"STATION","value":"Bad Nieuweschans"},{"type":"ICON","value":"MAINTENANCE"},{"type":"STATION","value":"Weener"},{"type":"STATION","value":"Leer (Ostfr.)"}]],"registrationTime":"2026-01-10T02:10:22+0100","start":"2024-02-01T04:00:00+0100","releaseTime":"2026-01-10T02:10:22+0100","end":"2026-06-30T23:58:00+0200","period":"Donderdag 1 februari 2024 4:00 uur t/m dinsdag 30 juni 23:58 uur.","impact":{"value":3},"publicationSections":[{"section":{"stations":[{"coordinate":{"lat":53.2105560302734,"lng":6.56472206115723},"countryCode":"NL","name":"Groningen","stationCode":"GN","uicCode":"8400263"},{"coordinate":{"lat":53.20480027,"lng":6.5854178},"countryCode":"NL","name":"Groningen Europapark","stationCode":"GERP","uicCode":"8400238"},{"coordinate":{"lat":53.1617362,"lng":6.7220882},"countryCode":"NL","name":"Kropswolde","stationCode":"KW","uicCode":"8400369"},{"coordinate":{"lat":53.1607232,"lng":6.7402989},"countryCode":"NL","name":"Martenshoek","stationCode":"MTH","uicCode":"8400430"},{"coordinate":{"lat":53.1598181316756,"lng":6.77075386047363},"countryCode":"NL","name":"Hoogezand-Sappemeer","stationCode":"HGZ","uicCode":"8400331"},{"coordinate":{"lat":53.1596122800056,"lng":6.8679141998291},"countryCode":"NL","name":"Zuidbroek","stationCode":"ZB","uicCode":"8400742"},{"coordinate":{"lat":53.1655362,"lng":6.9777775},"countryCode":"NL","name":"Scheemda","stationCode":"SDA","uicCode":"8400551"},{"coordinate":{"lat":53.1392377,"lng":7.035101},"countryCode":"NL","name":"Winschoten","stationCode":"WS","uicCode":"8400696"},{"coordinate":{"lat":53.1844,"lng":7.19937},"countryCode":"NL","name":"Bad Nieuweschans","stationCode":"NSCH","uicCode":"8400457"},{"coordinate":{"lat":53.16311,"lng":7.3442},"countryCode":"D","name":"Weener","stationCode":"WR","uicCode":"8021239"},{"coordinate":{"lat":53.23165,"lng":7.465283},"countryCode":"D","name":"Leer (Ostfriesl)","stationCode":"LEER","uicCode":"8021091"}],"direction":"BOTH","operators":["Arriva"]},"consequence":{"section":{"stations":[{"coordinate":{"lat":53.1844,"lng":7.19937},"countryCode":"NL","name":"Bad Nieuweschans","stationCode":"NSCH","uicCode":"8400457"},{"coordinate":{"lat":53.16311,"lng":7.3442},"countryCode":"D","name":"Weener","stationCode":"WR","uicCode":"8021239"}],"direction":"BOTH","operators":["Arriva"]},"description":"er rijden bussen","level":"LESS_TRAINS"},"sectionType":"NEIGHBORING_COUNTRY"}],"timespans":[{"start":"2024-02-01T04:00:00+0100","end":"2026-06-30T23:58:00+0200","period":"Donderdag 1 februari 2024 4:00 uur t/m dinsdag 30 juni 23:58 uur.","situation":{"label":"Door een aangepaste dienstregeling: tussen Bad Nieuweschans en Weener rijden er bussen."},"cause":{"label":"aangepaste dienstregeling","type":"OTHER"},"alternativeTransport":{"label":"er rijden stop- en snelbussen","shortLabel":"er rijden stop- en snelbussen"},"advices":[]}],"alternativeTransportTimespans":[{"start":"2024-02-01T04:00:00+0100","end":"2026-06-30T23:58:00+0200","alternativeTransport":{"location":[{"station":{"coordinate":{"lat":53.1844,"lng":7.19937},"countryCode":"NL","name":"Bad Nieuweschans","stationCode":"NSCH","uicCode":"8400457"},"description":"vanaf de voorzijde van het station"},{"station":{"coordinate":{"lat":53.16311,"lng":7.3442},"countryCode":"D","name":"Weener","stationCode":"WR","uicCode":"8021239"},"description":"vanaf de voorzijde van het station"},{"station":{"coordinate":{"lat":53.23165,"lng":7.465283},"countryCode":"D","name":"Leer (Ostfriesl)","stationCode":"LEER","uicCode":"8021091"},"description":"vanaf het busstation"}],"label":"Er rijden stopbussen tussen Bad Nieuweschans, Weener en Leer (Ostfriesl).","shortLabel":"Er rijden stopbussen Bad Nieuweschans - Weener - Leer (Ostfr.)."}},{"start":"2025-12-14T04:00:00+0100","end":"2026-06-30T23:58:00+0200","alternativeTransport":{"location":[{"station":{"coordinate":{"lat":53.2105560302734,"lng":6.56472206115723},"countryCode":"NL","name":"Groningen","stationCode":"GN","uicCode":"8400263"},"description":"vanaf het busstation"},{"station":{"coordinate":{"lat":53.23165,"lng":7.465283},"countryCode":"D","name":"Leer (Ostfriesl)","stationCode":"LEER","uicCode":"8021091"},"description":"vanaf het busstation"}],"label":"Er rijden snelbussen tussen Groningen en Leer (Ostfriesl).","shortLabel":"Er rijden snelbussen Groningen - Leer (Ostfr.)."}},{"start":"2025-12-14T04:00:00+0100","end":"2026-06-30T23:58:00+0200","alternativeTransport":{"location":[{"station":{"coordinate":{"lat":53.1844,"lng":7.19937},"countryCode":"NL","name":"Bad Nieuweschans","stationCode":"NSCH","uicCode":"8400457"},"description":"vanaf de voorzijde van het station"},{"station":{"coordinate":{"lat":53.16311,"lng":7.3442},"countryCode":"D","name":"Weener","stationCode":"WR","uicCode":"8021239"},"description":"vanaf de voorzijde van het station"}],"label":"Er rijden stopbussen tussen Bad Nieuweschans en Weener.","shortLabel":"Er rijden stopbussen Bad Nieuweschans - Weener."}}]},{"type":"MAINTENANCE","id":"7007331","title":"Arnhem - Duisburg - Düsseldorf.","isActive":true,"local":false,"titleSections":[[{"type":"STATION","value":"Arnhem C."},{"type":"STATION","value":"Zevenaar"},{"type":"ICON","value":"MAINTENANCE"},{"type":"STATION","value":"Emmerich"},{"type":"STATION","value":"Düsseldorf Hbf"}],[{"type":"STATION","value":"Arnhem C."},{"type":"ICON","value":"MAINTENANCE"},{"type":"STATION","value":"Emmerich"},{"type":"STATION","value":"Düsseldorf Hbf"}]],"registrationTime":"2026-01-17T16:11:12+0100","start":"2025-12-25T05:00:00+0100","releaseTime":"2026-01-17T16:11:12+0100","end":"2026-02-07T23:59:00+0100","period":"Donderdag 25 december 2025 5:00 uur t/m zaterdag 7 februari 23:59 uur.","impact":{"value":2},"publicationSections":[{"section":{"stations":[{"coordinate":{"lat":51.9850006103516,"lng":5.89916658401489},"countryCode":"NL","name":"Arnhem Centraal","stationCode":"AH","uicCode":"8400071"},{"coordinate":{"lat":51.985279083252,"lng":5.91944456100464},"countryCode":"NL","name":"Arnhem Velperpoort","stationCode":"AHP","uicCode":"8400072"},{"coordinate":{"lat":51.96286,"lng":5.9695},"countryCode":"NL","name":"Westervoort","stationCode":"WTV","uicCode":"8400688"},{"coordinate":{"lat":51.9433326721191,"lng":6.01472234725952},"countryCode":"NL","name":"Duiven","stationCode":"DVN","uicCode":"8400193"},{"coordinate":{"lat":51.9230537414551,"lng":6.07194423675537},"countryCode":"NL","name":"Zevenaar","stationCode":"ZV","uicCode":"8400735"},{"coordinate":{"lat":51.8743,"lng":6.15417},"countryCode":"D","name":"Emmerich-Elten","stationCode":"EL","uicCode":"8033415"},{"coordinate":{"lat":51.834283,"lng":6.255718},"countryCode":"D","name":"Emmerich","stationCode":"EM","uicCode":"8010288"},{"coordinate":{"lat":51.655833,"lng":6.627222},"countryCode":"D","name":"Wesel","stationCode":"WESEL","uicCode":"8010275"},{"coordinate":{"lat":51.47512,"lng":6.852038},"countryCode":"D","name":"Oberhausen Hbf","stationCode":"OBERH","uicCode":"8010263"},{"coordinate":{"lat":51.4297785713316,"lng":6.77590370178222},"countryCode":"D","name":"Duisburg Hbf","stationCode":"DUISB","uicCode":"8010316"},{"coordinate":{"lat":51.292009,"lng":6.786836},"countryCode":"D","name":"Düsseldorf Flughafen","stationCode":"KDFFH","uicCode":"8039904"},{"coordinate":{"lat":51.220146,"lng":6.793137},"countryCode":"D","name":"Düsseldorf Hbf","stationCode":"DUSSEL","uicCode":"8008094"}],"direction":"BOTH","operators":["VIAS"]},"consequence":{"section":{"stations":[{"coordinate":{"lat":51.9230537414551,"lng":6.07194423675537},"countryCode":"NL","name":"Zevenaar","stationCode":"ZV","uicCode":"8400735"},{"coordinate":{"lat":51.8743,"lng":6.15417},"countryCode":"D","name":"Emmerich-Elten","stationCode":"EL","uicCode":"8033415"},{"coordinate":{"lat":51.834283,"lng":6.255718},"countryCode":"D","name":"Emmerich","stationCode":"EM","uicCode":"8010288"}],"direction":"BOTH","operators":["VIAS"]},"description":"aangepaste internationale dienstregeling","level":"LESS_TRAINS"},"sectionType":"NEIGHBORING_COUNTRY"},{"section":{"stations":[{"coordinate":{"lat":51.9850006103516,"lng":5.89916658401489},"countryCode":"NL","name":"Arnhem Centraal","stationCode":"AH","uicCode":"8400071"},{"coordinate":{"lat":51.985279083252,"lng":5.91944456100464},"countryCode":"NL","name":"Arnhem Velperpoort","stationCode":"AHP","uicCode":"8400072"},{"coordinate":{"lat":51.96286,"lng":5.9695},"countryCode":"NL","name":"Westervoort","stationCode":"WTV","uicCode":"8400688"},{"coordinate":{"lat":51.9433326721191,"lng":6.01472234725952},"countryCode":"NL","name":"Duiven","stationCode":"DVN","uicCode":"8400193"},{"coordinate":{"lat":51.9230537414551,"lng":6.07194423675537},"countryCode":"NL","name":"Zevenaar","stationCode":"ZV","uicCode":"8400735"},{"coordinate":{"lat":51.8743,"lng":6.15417},"countryCode":"D","name":"Emmerich-Elten","stationCode":"EL","uicCode":"8033415"},{"coordinate":{"lat":51.834283,"lng":6.255718},"countryCode":"D","name":"Emmerich","stationCode":"EM","uicCode":"8010288"},{"coordinate":{"lat":51.655833,"lng":6.627222},"countryCode":"D","name":"Wesel","stationCode":"WESEL","uicCode":"8010275"},{"coordinate":{"lat":51.47512,"lng":6.852038},"countryCode":"D","name":"Oberhausen Hbf","stationCode":"OBERH","uicCode":"8010263"},{"coordinate":{"lat":51.4297785713316,"lng":6.77590370178222},"countryCode":"D","name":"Duisburg Hbf","stationCode":"DUISB","uicCode":"8010316"},{"coordinate":{"lat":51.292009,"lng":6.786836},"countryCode":"D","name":"Düsseldorf Flughafen","stationCode":"KDFFH","uicCode":"8039904"},{"coordinate":{"lat":51.220146,"lng":6.793137},"countryCode":"D","name":"Düsseldorf Hbf","stationCode":"DUSSEL","uicCode":"8008094"}],"direction":"BOTH","operators":["VIAS"]},"consequence":{"section":{"stations":[{"coordinate":{"lat":51.9850006103516,"lng":5.89916658401489},"countryCode":"NL","name":"Arnhem Centraal","stationCode":"AH","uicCode":"8400071"},{"coordinate":{"lat":51.985279083252,"lng":5.91944456100464},"countryCode":"NL","name":"Arnhem Velperpoort","stationCode":"AHP","uicCode":"8400072"},{"coordinate":{"lat":51.96286,"lng":5.9695},"countryCode":"NL","name":"Westervoort","stationCode":"WTV","uicCode":"8400688"},{"coordinate":{"lat":51.9433326721191,"lng":6.01472234725952},"countryCode":"NL","name":"Duiven","stationCode":"DVN","uicCode":"8400193"},{"coordinate":{"lat":51.9230537414551,"lng":6.07194423675537},"countryCode":"NL","name":"Zevenaar","stationCode":"ZV","uicCode":"8400735"},{"coordinate":{"lat":51.8743,"lng":6.15417},"countryCode":"D","name":"Emmerich-Elten","stationCode":"EL","uicCode":"8033415"},{"coordinate":{"lat":51.834283,"lng":6.255718},"countryCode":"D","name":"Emmerich","stationCode":"EM","uicCode":"8010288"}],"direction":"BOTH","operators":["VIAS"]},"description":"dienstregeling aangepast","level":"LESS_TRAINS"},"sectionType":"NEIGHBORING_COUNTRY"}],"timespans":[{"start":"2026-01-05T00:00:00+0100","end":"2026-02-07T23:59:00+0100","period":"Maandag 5 januari 0:00 uur t/m zaterdag 7 februari 23:59 uur.","situation":{"label":"Door werkzaamheden: tussen Arnhem Centraal en Emmerich is de dienstregeling aangepast."},"cause":{"label":"werkzaamheden","type":"OTHER"},"advices":[]}],"alternativeTransportTimespans":[]},{"type":"MAINTENANCE","id":"7007369","title":"Amsterdam - München - Innsbruck.","isActive":true,"local":false,"titleSections":[[{"type":"STATION","value":"Amsterdam C."},{"type":"STATION","value":"Wörgl Hbf"},{"type":"ICON","value":"MAINTENANCE"},{"type":"STATION","value":"Innsbruck Hbf"}]],"registrationTime":"2026-01-17T16:13:34+0100","start":"2026-01-06T18:30:00+0100","releaseTime":"2026-01-17T16:13:34+0100","end":"2026-01-28T21:00:00+0100","period":"Dinsdag 6 januari 18:30 uur t/m woensdag 28 januari 21:00 uur.","impact":{"value":2},"publicationSections":[{"section":{"stations":[{"coordinate":{"lat":52.3788871765137,"lng":4.90027761459351},"countryCode":"NL","name":"Amsterdam Centraal","stationCode":"ASD","uicCode":"8400058"},{"coordinate":{"lat":52.3605537414551,"lng":4.93111133575439},"countryCode":"NL","name":"Amsterdam Muiderpoort","stationCode":"ASDM","uicCode":"8400060"},{"coordinate":{"lat":52.3466682434082,"lng":4.91777801513672},"countryCode":"NL","name":"Amsterdam Amstel","stationCode":"ASA","uicCode":"8400057"},{"coordinate":{"lat":52.3233337402344,"lng":4.93638896942139},"countryCode":"NL","name":"Duivendrecht","stationCode":"DVD","uicCode":"8400194"},{"coordinate":{"lat":52.3122215270996,"lng":4.94694423675537},"countryCode":"NL","name":"Amsterdam Bijlmer ArenA","stationCode":"ASB","uicCode":"8400074"},{"coordinate":{"lat":52.29844,"lng":4.95972},"countryCode":"NL","name":"Amsterdam Holendrecht","stationCode":"ASHD","uicCode":"8400231"},{"coordinate":{"lat":52.2785,"lng":4.977},"countryCode":"NL","name":"Abcoude","stationCode":"AC","uicCode":"8400047"},{"coordinate":{"lat":52.17149,"lng":4.9906},"countryCode":"NL","name":"Breukelen","stationCode":"BKL","uicCode":"8400133"},{"coordinate":{"lat":52.1352767944336,"lng":5.03361129760742},"countryCode":"NL","name":"Maarssen","stationCode":"MAS","uicCode":"8400419"},{"coordinate":{"lat":52.103055,"lng":5.09},"countryCode":"NL","name":"Utrecht Zuilen","stationCode":"UTZL","uicCode":"8400613"},{"coordinate":{"lat":52.0888900756836,"lng":5.11027765274048},"countryCode":"NL","name":"Utrecht Centraal","stationCode":"UT","uicCode":"8400621"},{"coordinate":{"lat":52.078889,"lng":5.121667},"countryCode":"NL","name":"Utrecht Vaartsche Rijn","stationCode":"UTVR","uicCode":"8400606"},{"coordinate":{"lat":52.0630569458008,"lng":5.19444465637207},"countryCode":"NL","name":"Bunnik","stationCode":"BNK","uicCode":"8400141"},{"coordinate":{"lat":52.0652770996094,"lng":5.25861120223999},"countryCode":"NL","name":"Driebergen-Zeist","stationCode":"DB","uicCode":"8400182"},{"coordinate":{"lat":52.0641670227051,"lng":5.36999988555908},"countryCode":"NL","name":"Maarn","stationCode":"MRN","uicCode":"8400417"},{"coordinate":{"lat":52.0458335876465,"lng":5.57388877868652},"countryCode":"NL","name":"Veenendaal-De Klomp","stationCode":"KLP","uicCode":"8400637"},{"coordinate":{"lat":52.0277786254883,"lng":5.67305564880371},"countryCode":"NL","name":"Ede-Wageningen","stationCode":"ED","uicCode":"8400200"},{"coordinate":{"lat":52.0055541992188,"lng":5.7936110496521},"countryCode":"NL","name":"Wolfheze","stationCode":"WF","uicCode":"8400704"},{"coordinate":{"lat":51.9949989318848,"lng":5.84000015258789},"countryCode":"NL","name":"Oosterbeek","stationCode":"OTB","uicCode":"8400489"},{"coordinate":{"lat":51.9850006103516,"lng":5.89916658401489},"countryCode":"NL","name":"Arnhem Centraal","stationCode":"AH","uicCode":"8400071"},{"coordinate":{"lat":51.985279083252,"lng":5.91944456100464},"countryCode":"NL","name":"Arnhem Velperpoort","stationCode":"AHP","uicCode":"8400072"},{"coordinate":{"lat":51.96286,"lng":5.9695},"countryCode":"NL","name":"Westervoort","stationCode":"WTV","uicCode":"8400688"},{"coordinate":{"lat":51.9433326721191,"lng":6.01472234725952},"countryCode":"NL","name":"Duiven","stationCode":"DVN","uicCode":"8400193"},{"coordinate":{"lat":51.9230537414551,"lng":6.07194423675537},"countryCode":"NL","name":"Zevenaar","stationCode":"ZV","uicCode":"8400735"},{"coordinate":{"lat":51.8743,"lng":6.15417},"countryCode":"D","name":"Emmerich-Elten","stationCode":"EL","uicCode":"8033415"},{"coordinate":{"lat":51.834283,"lng":6.255718},"countryCode":"D","name":"Emmerich","stationCode":"EM","uicCode":"8010288"},{"coordinate":{"lat":51.47512,"lng":6.852038},"countryCode":"D","name":"Oberhausen Hbf","stationCode":"OBERH","uicCode":"8010263"},{"coordinate":{"lat":51.4297785713316,"lng":6.77590370178222},"countryCode":"D","name":"Duisburg Hbf","stationCode":"DUISB","uicCode":"8010316"},{"coordinate":{"lat":51.220146,"lng":6.793137},"countryCode":"D","name":"Düsseldorf Hbf","stationCode":"DUSSEL","uicCode":"8008094"},{"coordinate":{"lat":50.940874,"lng":6.975001},"countryCode":"D","name":"Köln Messe/Deutz","stationCode":"KKD","uicCode":"8015032"},{"coordinate":{"lat":50.9432158,"lng":6.9589214},"countryCode":"D","name":"Köln Hbf","stationCode":"KOLN","uicCode":"8015458"},{"coordinate":{"lat":50.943611,"lng":6.934444},"countryCode":"D","name":"Köln West","stationCode":"KKW","uicCode":"8015468"},{"coordinate":{"lat":50.7320141646745,"lng":7.09712505340576},"countryCode":"D","name":"Bonn Hbf","stationCode":"BONN","uicCode":"8015485"},{"coordinate":{"lat":50.001117,"lng":8.25872},"countryCode":"D","name":"Mainz Hbf","stationCode":"FMZ","uicCode":"8019051"},{"coordinate":{"lat":50.0531710299286,"lng":8.570237159729},"countryCode":"D","name":"Frankfurt Flughafen Fernb","stationCode":"FNAF","uicCode":"8061676"},{"coordinate":{"lat":50.099444,"lng":8.686389},"countryCode":"D","name":"Frankfurt (Main) Süd","stationCode":"FFS","uicCode":"8011065"},{"coordinate":{"lat":49.80179,"lng":9.9358},"countryCode":"D","name":"Würzburg Hbf","stationCode":"WURZB","uicCode":"8022534"},{"coordinate":{"lat":49.4449634,"lng":11.0826087},"countryCode":"D","name":"Nürnberg Hbf","stationCode":"NURNB","uicCode":"8022193"},{"coordinate":{"lat":48.3654307143927,"lng":10.88547706604},"countryCode":"D","name":"Augsburg Hbf","stationCode":"MA","uicCode":"8002140"},{"coordinate":{"lat":48.1402033359505,"lng":11.558346748352},"countryCode":"D","name":"München Hbf","stationCode":"MUNCHH","uicCode":"8020347"},{"coordinate":{"lat":47.85,"lng":12.119167},"countryCode":"D","name":"Rosenheim","stationCode":"ROSENH","uicCode":"8020174"},{"coordinate":{"lat":47.5831,"lng":12.16568},"countryCode":"A","name":"Kufstein","stationCode":"KUFST","uicCode":"8102184"},{"coordinate":{"lat":47.49178,"lng":12.06059},"countryCode":"A","name":"Wörgl Hbf","stationCode":"WORGL","uicCode":"8101170"},{"coordinate":{"lat":47.38844,"lng":11.77841},"countryCode":"A","name":"Jenbach","stationCode":"JENBAC","uicCode":"8101176"},{"coordinate":{"lat":47.26328,"lng":11.401},"countryCode":"A","name":"Innsbruck Hbf","stationCode":"INNSB","uicCode":"8101187"}],"direction":"ONE_WAY","operators":["NS International"]},"consequence":{"section":{"stations":[{"coordinate":{"lat":47.49178,"lng":12.06059},"countryCode":"A","name":"Wörgl Hbf","stationCode":"WORGL","uicCode":"8101170"},{"coordinate":{"lat":47.38844,"lng":11.77841},"countryCode":"A","name":"Jenbach","stationCode":"JENBAC","uicCode":"8101176"},{"coordinate":{"lat":47.26328,"lng":11.401},"countryCode":"A","name":"Innsbruck Hbf","stationCode":"INNSB","uicCode":"8101187"}],"direction":"ONE_WAY","operators":["NS International"]},"description":"aangepaste internationale dienstregeling","level":"LESS_TRAINS"},"sectionType":"NEIGHBORING_COUNTRY"}],"timespans":[{"start":"2026-01-06T18:30:00+0100","end":"2026-01-28T21:00:00+0100","period":"Dinsdag 6 januari 18:30 uur t/m woensdag 28 januari 21:00 uur.","situation":{"label":"Door werkzaamheden: van Wörgl Hbf naar Innsbruck Hbf is de internationale dienstregeling aangepast."},"cause":{"label":"werkzaamheden","type":"OTHER"},"advices":["Nightjet 421 met vertrek uit NL van 6 t/m 28 januari eindigt in Wörgl. ÖBB zet bussen in naar Jenbach en Innsbruck."]}],"alternativeTransportTimespans":[]},{"type":"MAINTENANCE","id":"7007179","title":"Heerlen - Aachen Hbf.","isActive":true,"local":false,"titleSections":[[{"type":"STATION","value":"Heerlen"},{"type":"ICON","value":"MAINTENANCE"},{"type":"STATION","value":"Aachen Hbf"}]],"registrationTime":"2025-12-29T14:18:28+0100","start":"2026-01-09T20:14:00+0100","releaseTime":"2025-12-29T14:18:28+0100","end":"2026-03-06T02:00:00+0100","period":"Vrijdag 9 januari 2026 20:14 uur t/m vrijdag 6 maart 2026 2:00 uur.","impact":{"value":3},"publicationSections":[{"section":{"stations":[{"coordinate":{"lat":50.8908348083496,"lng":5.97499990463257},"countryCode":"NL","name":"Heerlen","stationCode":"HRL","uicCode":"8400307"},{"coordinate":{"lat":50.8963890075684,"lng":6.01916646957398},"countryCode":"NL","name":"Landgraaf","stationCode":"LG","uicCode":"8400548"},{"coordinate":{"lat":50.8960498196442,"lng":6.0602474212646396},"countryCode":"NL","name":"Eygelshoven Markt","stationCode":"EGHM","uicCode":"8400234"},{"coordinate":{"lat":50.870916,"lng":6.094486},"countryCode":"D","name":"Herzogenrath","stationCode":"HZ","uicCode":"8015190"},{"coordinate":{"lat":50.7678,"lng":6.091499},"countryCode":"D","name":"Aachen Hbf","stationCode":"AHBF","uicCode":"8015345"}],"direction":"BOTH","operators":["Arriva"]},"consequence":{"section":{"stations":[{"coordinate":{"lat":50.8908348083496,"lng":5.97499990463257},"countryCode":"NL","name":"Heerlen","stationCode":"HRL","uicCode":"8400307"},{"coordinate":{"lat":50.8963890075684,"lng":6.01916646957398},"countryCode":"NL","name":"Landgraaf","stationCode":"LG","uicCode":"8400548"},{"coordinate":{"lat":50.8960498196442,"lng":6.0602474212646396},"countryCode":"NL","name":"Eygelshoven Markt","stationCode":"EGHM","uicCode":"8400234"},{"coordinate":{"lat":50.870916,"lng":6.094486},"countryCode":"D","name":"Herzogenrath","stationCode":"HZ","uicCode":"8015190"},{"coordinate":{"lat":50.7678,"lng":6.091499},"countryCode":"D","name":"Aachen Hbf","stationCode":"AHBF","uicCode":"8015345"}],"direction":"BOTH","operators":["Arriva"]},"description":"aangep. dienstregeling en businzet","level":"LESS_TRAINS"},"sectionType":"NEIGHBORING_COUNTRY"}],"timespans":[{"start":"2026-01-09T20:14:00+0100","end":"2026-03-06T02:00:00+0100","period":"Vrijdag 9 januari 2026 20:14 uur t/m vrijdag 6 maart 2026 2:00 uur.","situation":{"label":"Door werkzaamheden: tussen Heerlen en Aachen Hbf is de dienstregeling aangepast en rijden er bussen."},"cause":{"label":"werkzaamheden","type":"OTHER"},"alternativeTransport":{"label":"er rijden stopbussen","shortLabel":"er rijden stopbussen"},"advices":["De bus Heerlen-Aachen Hbf rijdt ieder uur."]}],"alternativeTransportTimespans":[{"start":"2026-01-09T20:14:00+0100","end":"2026-03-06T02:00:00+0100","alternativeTransport":{"location":[{"station":{"coordinate":{"lat":50.8908348083496,"lng":5.97499990463257},"countryCode":"NL","name":"Heerlen","stationCode":"HRL","uicCode":"8400307"},"description":"vanaf het busstation Perron A"},{"station":{"coordinate":{"lat":50.8963890075684,"lng":6.01916646957398},"countryCode":"NL","name":"Landgraaf","stationCode":"LG","uicCode":"8400548"},"description":"vanaf de doorgaande weg, voorzijde station"},{"station":{"coordinate":{"lat":50.8905563354492,"lng":6.04500007629395},"countryCode":"NL","name":"Eygelshoven","stationCode":"EGH","uicCode":"8400338"},"description":"vanaf de bushalte"},{"station":{"coordinate":{"lat":50.870916,"lng":6.094486},"countryCode":"D","name":"Herzogenrath","stationCode":"HZ","uicCode":"8015190"},"description":"vanaf de bushalte"},{"station":{"coordinate":{"lat":50.78036,"lng":6.070715},"countryCode":"D","name":"Aachen West","stationCode":"AW","uicCode":"8015199"},"description":"vanaf de bushalte Ponttor"},{"station":{"coordinate":{"lat":50.7678,"lng":6.091499},"countryCode":"D","name":"Aachen Hbf","stationCode":"AHBF","uicCode":"8015345"},"description":"vanaf de bushalte perron H3"}],"label":"Er rijden stopbussen tussen Heerlen, Landgraaf, Eygelshoven, Herzogenrath, Aachen West en Aachen Hbf.","shortLabel":"Er rijden stopbussen Heerlen - Landgraaf - Eygelshoven - Herzogenrath - Aachen West - Aachen Hbf."}}]},{"type":"MAINTENANCE","id":"7006801","title":"Schiphol - Leiden.; Schiphol - Lelystad; Schiphol - Amersfoort; Schiphol - Leiden; Amsterdam - Schiphol - Rotterdam.; Amsterdam - Schiphol - Hoofddorp.","isActive":true,"local":false,"titleSections":[[{"type":"STATION","value":"Schiphol Airport"},{"type":"ICON","value":"MAINTENANCE"},{"type":"STATION","value":"Hoofddorp"},{"type":"STATION","value":"Leiden C."}],[{"type":"STATION","value":"Schiphol Airport"},{"type":"ICON","value":"MAINTENANCE"},{"type":"STATION","value":"Leiden C."}],[{"type":"STATION","value":"Amsterdam Zuid"},{"type":"STATION","value":"Schiphol Airport"},{"type":"ICON","value":"MAINTENANCE"},{"type":"STATION","value":"Rotterdam C."}],[{"type":"STATION","value":"Schiphol Airport"},{"type":"ICON","value":"MAINTENANCE"},{"type":"STATION","value":"RAI"},{"type":"STATION","value":"Amersfoort C."}],[{"type":"STATION","value":"Schiphol Airport"},{"type":"ICON","value":"MAINTENANCE"},{"type":"STATION","value":"RAI"},{"type":"STATION","value":"Lelystad C."}],[{"type":"STATION","value":"Amsterdam C."},{"type":"ICON","value":"MAINTENANCE"},{"type":"STATION","value":"Schiphol Airport"},{"type":"STATION","value":"Hoofddorp"}]],"registrationTime":"2026-01-17T10:27:46+0100","start":"2026-01-17T00:45:00+0100","releaseTime":"2026-01-17T10:27:46+0100","end":"2026-01-27T01:00:00+0100","period":"Zaterdag 17 januari 0:45 uur t/m dinsdag 27 januari 1:00 uur.","impact":{"value":5},"publicationSections":[{"section":{"stations":[{"coordinate":{"lat":52.3094444274902,"lng":4.76194429397583},"countryCode":"NL","name":"Schiphol Airport","stationCode":"SHL","uicCode":"8400561"},{"coordinate":{"lat":52.2933349609375,"lng":4.70055532455444},"countryCode":"NL","name":"Hoofddorp","stationCode":"HFD","uicCode":"8400332"},{"coordinate":{"lat":52.2588882446289,"lng":4.64555549621582},"countryCode":"NL","name":"Nieuw Vennep","stationCode":"NVP","uicCode":"8400460"},{"coordinate":{"lat":52.215278,"lng":4.517222},"countryCode":"NL","name":"Sassenheim","stationCode":"SSH","uicCode":"8400603"},{"coordinate":{"lat":52.1661109924316,"lng":4.48166656494141},"countryCode":"NL","name":"Leiden Centraal","stationCode":"LEDN","uicCode":"8400390"}],"direction":"BOTH","operators":["NS"]},"consequence":{"section":{"stations":[{"coordinate":{"lat":52.3094444274902,"lng":4.76194429397583},"countryCode":"NL","name":"Schiphol Airport","stationCode":"SHL","uicCode":"8400561"},{"coordinate":{"lat":52.2933349609375,"lng":4.70055532455444},"countryCode":"NL","name":"Hoofddorp","stationCode":"HFD","uicCode":"8400332"}],"direction":"BOTH","operators":["NS"]},"description":"minder Sprinters","level":"LESS_TRAINS"},"sectionType":"NL"},{"section":{"stations":[{"coordinate":{"lat":52.3094444274902,"lng":4.76194429397583},"countryCode":"NL","name":"Schiphol Airport","stationCode":"SHL","uicCode":"8400561"},{"coordinate":{"lat":52.2933349609375,"lng":4.70055532455444},"countryCode":"NL","name":"Hoofddorp","stationCode":"HFD","uicCode":"8400332"},{"coordinate":{"lat":52.2588882446289,"lng":4.64555549621582},"countryCode":"NL","name":"Nieuw Vennep","stationCode":"NVP","uicCode":"8400460"},{"coordinate":{"lat":52.215278,"lng":4.517222},"countryCode":"NL","name":"Sassenheim","stationCode":"SSH","uicCode":"8400603"},{"coordinate":{"lat":52.1661109924316,"lng":4.48166656494141},"countryCode":"NL","name":"Leiden Centraal","stationCode":"LEDN","uicCode":"8400390"}],"direction":"BOTH","operators":["NS"]},"consequence":{"section":{"stations":[{"coordinate":{"lat":52.3094444274902,"lng":4.76194429397583},"countryCode":"NL","name":"Schiphol Airport","stationCode":"SHL","uicCode":"8400561"},{"coordinate":{"lat":52.2933349609375,"lng":4.70055532455444},"countryCode":"NL","name":"Hoofddorp","stationCode":"HFD","uicCode":"8400332"},{"coordinate":{"lat":52.2588882446289,"lng":4.64555549621582},"countryCode":"NL","name":"Nieuw Vennep","stationCode":"NVP","uicCode":"8400460"},{"coordinate":{"lat":52.215278,"lng":4.517222},"countryCode":"NL","name":"Sassenheim","stationCode":"SSH","uicCode":"8400603"},{"coordinate":{"lat":52.1661109924316,"lng":4.48166656494141},"countryCode":"NL","name":"Leiden Centraal","stationCode":"LEDN","uicCode":"8400390"}],"direction":"BOTH","operators":["NS"]},"description":"er rijden bussen","level":"LESS_TRAINS"},"sectionType":"NL"},{"section":{"stations":[{"coordinate":{"lat":52.338889,"lng":4.872356},"countryCode":"NL","name":"Amsterdam Zuid","stationCode":"ASDZ","uicCode":"8400061"},{"coordinate":{"lat":52.3094444274902,"lng":4.76194429397583},"countryCode":"NL","name":"Schiphol Airport","stationCode":"SHL","uicCode":"8400561"},{"coordinate":{"lat":52.2933349609375,"lng":4.70055532455444},"countryCode":"NL","name":"Hoofddorp","stationCode":"HFD","uicCode":"8400332"},{"coordinate":{"lat":51.9249992370605,"lng":4.46888875961304},"countryCode":"NL","name":"Rotterdam Centraal","stationCode":"RTD","uicCode":"8400530"}],"direction":"BOTH","operators":["NS International"]},"consequence":{"section":{"stations":[{"coordinate":{"lat":52.3094444274902,"lng":4.76194429397583},"countryCode":"NL","name":"Schiphol Airport","stationCode":"SHL","uicCode":"8400561"},{"coordinate":{"lat":52.2933349609375,"lng":4.70055532455444},"countryCode":"NL","name":"Hoofddorp","stationCode":"HFD","uicCode":"8400332"},{"coordinate":{"lat":51.9249992370605,"lng":4.46888875961304},"countryCode":"NL","name":"Rotterdam Centraal","stationCode":"RTD","uicCode":"8400530"}],"direction":"BOTH","operators":["NS International"]},"description":"geen treinen op de HSL","level":"LESS_TRAINS"},"sectionType":"HSL"},{"section":{"stations":[{"coordinate":{"lat":52.3094444274902,"lng":4.76194429397583},"countryCode":"NL","name":"Schiphol Airport","stationCode":"SHL","uicCode":"8400561"},{"coordinate":{"lat":52.338889,"lng":4.872356},"countryCode":"NL","name":"Amsterdam Zuid","stationCode":"ASDZ","uicCode":"8400061"},{"coordinate":{"lat":52.3372230529785,"lng":4.89027786254883},"countryCode":"NL","name":"Amsterdam RAI","stationCode":"RAI","uicCode":"8400056"},{"coordinate":{"lat":52.3233337402344,"lng":4.93638896942139},"countryCode":"NL","name":"Duivendrecht","stationCode":"DVD","uicCode":"8400194"},{"coordinate":{"lat":52.3302764892578,"lng":4.95583343505859},"countryCode":"NL","name":"Diemen Zuid","stationCode":"DMNZ","uicCode":"8400163"},{"coordinate":{"lat":52.3127784729004,"lng":5.04305553436279},"countryCode":"NL","name":"Weesp","stationCode":"WP","uicCode":"8400685"},{"coordinate":{"lat":52.2802772521973,"lng":5.15694427490234},"countryCode":"NL","name":"Naarden-Bussum","stationCode":"NDB","uicCode":"8400452"},{"coordinate":{"lat":52.2658348083496,"lng":5.16305541992188},"countryCode":"NL","name":"Bussum Zuid","stationCode":"BSMZ","uicCode":"8400145"},{"coordinate":{"lat":52.2380561828613,"lng":5.17388868331909},"countryCode":"NL","name":"Hilversum Media Park","stationCode":"HVSM","uicCode":"8400324"},{"coordinate":{"lat":52.2258338928223,"lng":5.18194437026978},"countryCode":"NL","name":"Hilversum","stationCode":"HVS","uicCode":"8400322"},{"coordinate":{"lat":52.2083320617676,"lng":5.28083324432373},"countryCode":"NL","name":"Baarn","stationCode":"BRN","uicCode":"8400086"},{"coordinate":{"lat":52.1538887023926,"lng":5.37055540084839},"countryCode":"NL","name":"Amersfoort Centraal","stationCode":"AMF","uicCode":"8400055"}],"direction":"BOTH","operators":["NS"]},"consequence":{"section":{"stations":[{"coordinate":{"lat":52.3094444274902,"lng":4.76194429397583},"countryCode":"NL","name":"Schiphol Airport","stationCode":"SHL","uicCode":"8400561"},{"coordinate":{"lat":52.338889,"lng":4.872356},"countryCode":"NL","name":"Amsterdam Zuid","stationCode":"ASDZ","uicCode":"8400061"},{"coordinate":{"lat":52.3372230529785,"lng":4.89027786254883},"countryCode":"NL","name":"Amsterdam RAI","stationCode":"RAI","uicCode":"8400056"}],"direction":"BOTH","operators":["NS"]},"description":"minder treinen","level":"LESS_TRAINS"},"sectionType":"NL"},{"section":{"stations":[{"coordinate":{"lat":52.3094444274902,"lng":4.76194429397583},"countryCode":"NL","name":"Schiphol Airport","stationCode":"SHL","uicCode":"8400561"},{"coordinate":{"lat":52.338889,"lng":4.872356},"countryCode":"NL","name":"Amsterdam Zuid","stationCode":"ASDZ","uicCode":"8400061"},{"coordinate":{"lat":52.3372230529785,"lng":4.89027786254883},"countryCode":"NL","name":"Amsterdam RAI","stationCode":"RAI","uicCode":"8400056"},{"coordinate":{"lat":52.3233337402344,"lng":4.93638896942139},"countryCode":"NL","name":"Duivendrecht","stationCode":"DVD","uicCode":"8400194"},{"coordinate":{"lat":52.3302764892578,"lng":4.95583343505859},"countryCode":"NL","name":"Diemen Zuid","stationCode":"DMNZ","uicCode":"8400163"},{"coordinate":{"lat":52.3127784729004,"lng":5.04305553436279},"countryCode":"NL","name":"Weesp","stationCode":"WP","uicCode":"8400685"},{"coordinate":{"lat":52.342778,"lng":5.151944},"countryCode":"NL","name":"Almere Poort","stationCode":"AMPO","uicCode":"8400450"},{"coordinate":{"lat":52.3675003051758,"lng":5.19027757644653},"countryCode":"NL","name":"Almere Muziekwijk","stationCode":"ALMM","uicCode":"8400082"},{"coordinate":{"lat":52.37503,"lng":5.21764},"countryCode":"NL","name":"Almere Centrum","stationCode":"ALM","uicCode":"8400080"},{"coordinate":{"lat":52.3766670227051,"lng":5.24472236633301},"countryCode":"NL","name":"Almere Parkwijk","stationCode":"ALMP","uicCode":"8400104"},{"coordinate":{"lat":52.3941650390625,"lng":5.2780556678772},"countryCode":"NL","name":"Almere Buiten","stationCode":"ALMB","uicCode":"8400081"},{"coordinate":{"lat":52.4033317565918,"lng":5.30055570602417},"countryCode":"NL","name":"Almere Oostvaarders","stationCode":"ALMO","uicCode":"8400226"},{"coordinate":{"lat":52.5077781677246,"lng":5.47277784347534},"countryCode":"NL","name":"Lelystad Centrum","stationCode":"LLS","uicCode":"8400394"}],"direction":"BOTH","operators":["NS"]},"consequence":{"section":{"stations":[{"coordinate":{"lat":52.3094444274902,"lng":4.76194429397583},"countryCode":"NL","name":"Schiphol Airport","stationCode":"SHL","uicCode":"8400561"},{"coordinate":{"lat":52.338889,"lng":4.872356},"countryCode":"NL","name":"Amsterdam Zuid","stationCode":"ASDZ","uicCode":"8400061"},{"coordinate":{"lat":52.3372230529785,"lng":4.89027786254883},"countryCode":"NL","name":"Amsterdam RAI","stationCode":"RAI","uicCode":"8400056"}],"direction":"BOTH","operators":["NS"]},"description":"minder treinen","level":"LESS_TRAINS"},"sectionType":"NL"},{"section":{"stations":[{"coordinate":{"lat":52.3094444274902,"lng":4.76194429397583},"countryCode":"NL","name":"Schiphol Airport","stationCode":"SHL","uicCode":"8400561"},{"coordinate":{"lat":52.2933349609375,"lng":4.70055532455444},"countryCode":"NL","name":"Hoofddorp","stationCode":"HFD","uicCode":"8400332"},{"coordinate":{"lat":52.2588882446289,"lng":4.64555549621582},"countryCode":"NL","name":"Nieuw Vennep","stationCode":"NVP","uicCode":"8400460"},{"coordinate":{"lat":52.215278,"lng":4.517222},"countryCode":"NL","name":"Sassenheim","stationCode":"SSH","uicCode":"8400603"},{"coordinate":{"lat":52.1661109924316,"lng":4.48166656494141},"countryCode":"NL","name":"Leiden Centraal","stationCode":"LEDN","uicCode":"8400390"}],"direction":"BOTH","operators":["NS"]},"consequence":{"section":{"stations":[{"coordinate":{"lat":52.3094444274902,"lng":4.76194429397583},"countryCode":"NL","name":"Schiphol Airport","stationCode":"SHL","uicCode":"8400561"},{"coordinate":{"lat":52.2933349609375,"lng":4.70055532455444},"countryCode":"NL","name":"Hoofddorp","stationCode":"HFD","uicCode":"8400332"},{"coordinate":{"lat":52.2588882446289,"lng":4.64555549621582},"countryCode":"NL","name":"Nieuw Vennep","stationCode":"NVP","uicCode":"8400460"},{"coordinate":{"lat":52.215278,"lng":4.517222},"countryCode":"NL","name":"Sassenheim","stationCode":"SSH","uicCode":"8400603"},{"coordinate":{"lat":52.1661109924316,"lng":4.48166656494141},"countryCode":"NL","name":"Leiden Centraal","stationCode":"LEDN","uicCode":"8400390"}],"direction":"BOTH","operators":["NS"]},"description":"dienstregeling aangepast","level":"LESS_TRAINS"},"sectionType":"NL"},{"section":{"stations":[{"coordinate":{"lat":52.3788871765137,"lng":4.90027761459351},"countryCode":"NL","name":"Amsterdam Centraal","stationCode":"ASD","uicCode":"8400058"},{"coordinate":{"lat":52.3888893127441,"lng":4.83777761459351},"countryCode":"NL","name":"Amsterdam Sloterdijk","stationCode":"ASS","uicCode":"8400059"},{"coordinate":{"lat":52.3577766418457,"lng":4.83388900756836},"countryCode":"NL","name":"Amsterdam Lelylaan","stationCode":"ASDL","uicCode":"8400079"},{"coordinate":{"lat":52.3094444274902,"lng":4.76194429397583},"countryCode":"NL","name":"Schiphol Airport","stationCode":"SHL","uicCode":"8400561"},{"coordinate":{"lat":52.2933349609375,"lng":4.70055532455444},"countryCode":"NL","name":"Hoofddorp","stationCode":"HFD","uicCode":"8400332"}],"direction":"BOTH","operators":["NS"]},"consequence":{"section":{"stations":[{"coordinate":{"lat":52.3788871765137,"lng":4.90027761459351},"countryCode":"NL","name":"Amsterdam Centraal","stationCode":"ASD","uicCode":"8400058"},{"coordinate":{"lat":52.3888893127441,"lng":4.83777761459351},"countryCode":"NL","name":"Amsterdam Sloterdijk","stationCode":"ASS","uicCode":"8400059"},{"coordinate":{"lat":52.3577766418457,"lng":4.83388900756836},"countryCode":"NL","name":"Amsterdam Lelylaan","stationCode":"ASDL","uicCode":"8400079"},{"coordinate":{"lat":52.3094444274902,"lng":4.76194429397583},"countryCode":"NL","name":"Schiphol Airport","stationCode":"SHL","uicCode":"8400561"}],"direction":"BOTH","operators":["NS"]},"description":"minder Sprinters","level":"LESS_TRAINS"},"sectionType":"NL"}],"summaryAdditionalTravelTime":{"label":"De extra reistijd kan oplopen tot 30 minuten.","shortLabel":"Extra reistijd tot 30 min.","minimumDurationInMinutes":30,"maximumDurationInMinutes":30},"timespans":[{"start":"2026-01-23T01:01:00+0100","end":"2026-01-27T01:00:00+0100","period":"Vrijdag 23 januari 1:01 uur t/m dinsdag 27 januari 1:00 uur.","situation":{"label":"Door werkzaamheden: tussen Schiphol Airport en Leiden Centraal rijden er bussen en tussen Schiphol Airport en Rotterdam Centraal rijden er op de hogesnelheidslijn geen treinen."},"cause":{"label":"werkzaamheden","type":"OTHER"},"additionalTravelTime":{"label":"De extra reistijd is ongeveer 30 minuten.","shortLabel":"Extra reistijd 30 min.","minimumDurationInMinutes":30,"maximumDurationInMinutes":30},"alternativeTransport":{"label":"er rijden stop- en snelbussen","shortLabel":"er rijden stop- en snelbussen"},"advices":["Houd ook rekening met minder treinen tussen Schiphol en Amsterdam C/ Almere C /Amersfoort C."]}],"alternativeTransportTimespans":[{"start":"2026-01-17T00:45:00+0100","end":"2026-01-17T05:00:00+0100","alternativeTransport":{"location":[{"station":{"coordinate":{"lat":52.3094444274902,"lng":4.76194429397583},"countryCode":"NL","name":"Schiphol Airport","stationCode":"SHL","uicCode":"8400561"},"description":"vanaf het GOS busstation"},{"station":{"coordinate":{"lat":52.1661109924316,"lng":4.48166656494141},"countryCode":"NL","name":"Leiden Centraal","stationCode":"LEDN","uicCode":"8400390"},"description":"vanaf het stadsbusstation"}],"label":"Er rijden snelbussen tussen Schiphol Airport en Leiden Centraal.","shortLabel":"Er rijden snelbussen Schiphol Airport - Leiden C."}},{"start":"2026-01-17T05:01:00+0100","end":"2026-01-18T02:00:00+0100","alternativeTransport":{"location":[{"station":{"coordinate":{"lat":52.3094444274902,"lng":4.76194429397583},"countryCode":"NL","name":"Schiphol Airport","stationCode":"SHL","uicCode":"8400561"},"description":"vanaf het GOS busstation"},{"station":{"coordinate":{"lat":52.1661109924316,"lng":4.48166656494141},"countryCode":"NL","name":"Leiden Centraal","stationCode":"LEDN","uicCode":"8400390"},"description":"vanaf het stadsbusstation"}],"label":"Er rijden snelbussen tussen Schiphol Airport en Leiden Centraal.","shortLabel":"Er rijden snelbussen Schiphol Airport - Leiden C."}},{"start":"2026-01-17T05:01:00+0100","end":"2026-01-18T02:00:00+0100","alternativeTransport":{"location":[{"station":{"coordinate":{"lat":52.3094444274902,"lng":4.76194429397583},"countryCode":"NL","name":"Schiphol Airport","stationCode":"SHL","uicCode":"8400561"},"description":"vanaf het GOS busstation"},{"station":{"coordinate":{"lat":52.2933349609375,"lng":4.70055532455444},"countryCode":"NL","name":"Hoofddorp","stationCode":"HFD","uicCode":"8400332"},"description":"onder het spoorviaduct"},{"station":{"coordinate":{"lat":52.2588882446289,"lng":4.64555549621582},"countryCode":"NL","name":"Nieuw Vennep","stationCode":"NVP","uicCode":"8400460"},"description":"vanaf de Venneperweg"},{"station":{"coordinate":{"lat":52.215278,"lng":4.517222},"countryCode":"NL","name":"Sassenheim","stationCode":"SSH","uicCode":"8400603"},"description":"vanaf het Stationsplein"},{"station":{"coordinate":{"lat":52.1661109924316,"lng":4.48166656494141},"countryCode":"NL","name":"Leiden Centraal","stationCode":"LEDN","uicCode":"8400390"},"description":"vanaf het stadsbusstation"}],"label":"Er rijden stopbussen tussen Schiphol Airport, Hoofddorp, Nieuw Vennep, Sassenheim en Leiden Centraal.","shortLabel":"Er rijden stopbussen Schiphol Airport - Hoofddorp - Nieuw Vennep - Sassenheim - Leiden C."}},{"start":"2026-01-23T01:01:00+0100","end":"2026-01-27T01:00:00+0100","alternativeTransport":{"location":[{"station":{"coordinate":{"lat":52.3094444274902,"lng":4.76194429397583},"countryCode":"NL","name":"Schiphol Airport","stationCode":"SHL","uicCode":"8400561"},"description":"vanaf het GOS busstation"},{"station":{"coordinate":{"lat":52.1661109924316,"lng":4.48166656494141},"countryCode":"NL","name":"Leiden Centraal","stationCode":"LEDN","uicCode":"8400390"},"description":"vanaf het stadsbusstation"}],"label":"Er rijden snelbussen tussen Schiphol Airport en Leiden Centraal.","shortLabel":"Er rijden snelbussen Schiphol Airport - Leiden C."}},{"start":"2026-01-23T01:01:00+0100","end":"2026-01-27T01:00:00+0100","alternativeTransport":{"location":[{"station":{"coordinate":{"lat":52.3094444274902,"lng":4.76194429397583},"countryCode":"NL","name":"Schiphol Airport","stationCode":"SHL","uicCode":"8400561"},"description":"vanaf het GOS busstation"},{"station":{"coordinate":{"lat":52.2933349609375,"lng":4.70055532455444},"countryCode":"NL","name":"Hoofddorp","stationCode":"HFD","uicCode":"8400332"},"description":"onder het spoorviaduct"},{"station":{"coordinate":{"lat":52.2588882446289,"lng":4.64555549621582},"countryCode":"NL","name":"Nieuw Vennep","stationCode":"NVP","uicCode":"8400460"},"description":"vanaf de Venneperweg"},{"station":{"coordinate":{"lat":52.215278,"lng":4.517222},"countryCode":"NL","name":"Sassenheim","stationCode":"SSH","uicCode":"8400603"},"description":"vanaf het Stationsplein"},{"station":{"coordinate":{"lat":52.1661109924316,"lng":4.48166656494141},"countryCode":"NL","name":"Leiden Centraal","stationCode":"LEDN","uicCode":"8400390"},"description":"vanaf het stadsbusstation"}],"label":"Er rijden stopbussen tussen Schiphol Airport, Hoofddorp, Nieuw Vennep, Sassenheim en Leiden Centraal.","shortLabel":"Er rijden stopbussen Schiphol Airport - Hoofddorp - Nieuw Vennep - Sassenheim - Leiden C."}}]},{"type":"MAINTENANCE","id":"7006802","title":"Alkmaar - Den Helder.","isActive":true,"local":false,"titleSections":[[{"type":"STATION","value":"Alkmaar"},{"type":"STATION","value":"Heerhugowaard"},{"type":"ICON","value":"MAINTENANCE"},{"type":"STATION","value":"Den Helder"}]],"registrationTime":"2026-01-22T19:23:12+0100","start":"2026-01-19T01:00:00+0100","releaseTime":"2026-01-22T19:23:12+0100","end":"2026-02-02T02:00:00+0100","period":"Maandag 19 januari 1:00 uur t/m maandag 2 februari 2:00 uur.","impact":{"value":5},"publicationSections":[{"section":{"stations":[{"coordinate":{"lat":52.6377792358398,"lng":4.73972225189209},"countryCode":"NL","name":"Alkmaar","stationCode":"AMR","uicCode":"8400050"},{"coordinate":{"lat":52.6438903808594,"lng":4.76416683197022},"countryCode":"NL","name":"Alkmaar Noord","stationCode":"AMRN","uicCode":"8400052"},{"coordinate":{"lat":52.6697235107422,"lng":4.82277774810791},"countryCode":"NL","name":"Heerhugowaard","stationCode":"HWD","uicCode":"8400306"},{"coordinate":{"lat":52.7844429016113,"lng":4.80527782440186},"countryCode":"NL","name":"Schagen","stationCode":"SGN","uicCode":"8400549"},{"coordinate":{"lat":52.8672218322754,"lng":4.81111097335815},"countryCode":"NL","name":"Anna Paulowna","stationCode":"ANA","uicCode":"8400065"},{"coordinate":{"lat":52.9324989318848,"lng":4.76416683197022},"countryCode":"NL","name":"Den Helder Zuid","stationCode":"HDRZ","uicCode":"8400303"},{"coordinate":{"lat":52.9552764892578,"lng":4.76111125946045},"countryCode":"NL","name":"Den Helder","stationCode":"HDR","uicCode":"8400311"}],"direction":"BOTH","operators":["NS"]},"consequence":{"section":{"stations":[{"coordinate":{"lat":52.6697235107422,"lng":4.82277774810791},"countryCode":"NL","name":"Heerhugowaard","stationCode":"HWD","uicCode":"8400306"},{"coordinate":{"lat":52.7844429016113,"lng":4.80527782440186},"countryCode":"NL","name":"Schagen","stationCode":"SGN","uicCode":"8400549"},{"coordinate":{"lat":52.8672218322754,"lng":4.81111097335815},"countryCode":"NL","name":"Anna Paulowna","stationCode":"ANA","uicCode":"8400065"},{"coordinate":{"lat":52.9324989318848,"lng":4.76416683197022},"countryCode":"NL","name":"Den Helder Zuid","stationCode":"HDRZ","uicCode":"8400303"},{"coordinate":{"lat":52.9552764892578,"lng":4.76111125946045},"countryCode":"NL","name":"Den Helder","stationCode":"HDR","uicCode":"8400311"}],"direction":"BOTH","operators":["NS"]},"description":"er rijden bussen","level":"LESS_TRAINS"},"sectionType":"NL"}],"summaryAdditionalTravelTime":{"label":"De extra reistijd kan oplopen tot 30 minuten.","shortLabel":"Extra reistijd tot 30 min.","minimumDurationInMinutes":30,"maximumDurationInMinutes":30},"timespans":[{"start":"2026-01-25T05:00:00+0100","end":"2026-01-25T13:00:00+0100","period":"Zondag 25 januari 5:00 uur t/m zondag 25 januari 13:00 uur.","situation":{"label":"Door werkzaamheden: tussen Heerhugowaard en Den Helder rijden er bussen."},"cause":{"label":"werkzaamheden","type":"OTHER"},"alternativeTransport":{"label":"er rijden stop- en snelbussen","shortLabel":"er rijden stop- en snelbussen"},"advices":["Reist U van Alkmaar naar Den Helder of Den Helder Zuid neem dan de NS-Snelbus. Let op! Intercity's stoppen niet in Alkmaar Noord."]},{"start":"2026-01-25T13:00:00+0100","end":"2026-02-02T02:00:00+0100","period":"Zondag 25 januari 13:00 uur t/m maandag 2 februari 2:00 uur.","situation":{"label":"Door werkzaamheden: tussen Heerhugowaard en Den Helder rijden er bussen."},"cause":{"label":"werkzaamheden","type":"OTHER"},"additionalTravelTime":{"label":"De extra reistijd is ongeveer 30 minuten.","shortLabel":"Extra reistijd 30 min.","minimumDurationInMinutes":30,"maximumDurationInMinutes":30},"alternativeTransport":{"label":"er rijden stop- en snelbussen","shortLabel":"er rijden stop- en snelbussen"},"advices":["Reist U van Alkmaar naar Den Helder of Den Helder Zuid neem dan de NS-Snelbus. Let op! Intercity's stoppen niet in Alkmaar Noord."]}],"alternativeTransportTimespans":[{"start":"2026-01-19T01:00:00+0100","end":"2026-01-24T02:00:00+0100","alternativeTransport":{"location":[{"station":{"coordinate":{"lat":52.9552764892578,"lng":4.76111125946045},"countryCode":"NL","name":"Den Helder","stationCode":"HDR","uicCode":"8400311"},"description":"vanaf de voorzijde van het station"},{"station":{"coordinate":{"lat":52.9324989318848,"lng":4.76416683197022},"countryCode":"NL","name":"Den Helder Zuid","stationCode":"HDRZ","uicCode":"8400303"},"description":"vanaf de voorzijde van het station"},{"station":{"coordinate":{"lat":52.8672218322754,"lng":4.81111097335815},"countryCode":"NL","name":"Anna Paulowna","stationCode":"ANA","uicCode":"8400065"},"description":"vanaf de voorzijde van het station"},{"station":{"coordinate":{"lat":52.7844429016113,"lng":4.80527782440186},"countryCode":"NL","name":"Schagen","stationCode":"SGN","uicCode":"8400549"},"description":"vanaf het Stationsplein"},{"station":{"coordinate":{"lat":52.6697235107422,"lng":4.82277774810791},"countryCode":"NL","name":"Heerhugowaard","stationCode":"HWD","uicCode":"8400306"},"description":"vanaf het busstation"}],"label":"Er rijden stopbussen tussen Den Helder, Den Helder Zuid, Anna Paulowna, Schagen en Heerhugowaard.","shortLabel":"Er rijden stopbussen Den Helder - Den Helder Zuid - Anna Paulowna - Schagen - Heerhugowaard."}},{"start":"2026-01-19T01:00:00+0100","end":"2026-01-24T02:00:00+0100","alternativeTransport":{"location":[{"station":{"coordinate":{"lat":52.9552764892578,"lng":4.76111125946045},"countryCode":"NL","name":"Den Helder","stationCode":"HDR","uicCode":"8400311"},"description":"vanaf de voorzijde van het station"},{"station":{"coordinate":{"lat":52.9324989318848,"lng":4.76416683197022},"countryCode":"NL","name":"Den Helder Zuid","stationCode":"HDRZ","uicCode":"8400303"},"description":"vanaf de voorzijde van het station"},{"station":{"coordinate":{"lat":52.6377792358398,"lng":4.73972225189209},"countryCode":"NL","name":"Alkmaar","stationCode":"AMR","uicCode":"8400050"},"description":"vanaf de achterzijde van het station"}],"label":"Er rijden snelbussen tussen Den Helder, Den Helder Zuid en Alkmaar.","shortLabel":"Er rijden snelbussen Den Helder - Den Helder Zuid - Alkmaar."}},{"start":"2026-01-25T05:00:00+0100","end":"2026-01-25T13:00:00+0100","alternativeTransport":{"location":[{"station":{"coordinate":{"lat":52.9552764892578,"lng":4.76111125946045},"countryCode":"NL","name":"Den Helder","stationCode":"HDR","uicCode":"8400311"},"description":"vanaf de voorzijde van het station"},{"station":{"coordinate":{"lat":52.9324989318848,"lng":4.76416683197022},"countryCode":"NL","name":"Den Helder Zuid","stationCode":"HDRZ","uicCode":"8400303"},"description":"vanaf de voorzijde van het station"},{"station":{"coordinate":{"lat":52.8672218322754,"lng":4.81111097335815},"countryCode":"NL","name":"Anna Paulowna","stationCode":"ANA","uicCode":"8400065"},"description":"vanaf de voorzijde van het station"},{"station":{"coordinate":{"lat":52.7844429016113,"lng":4.80527782440186},"countryCode":"NL","name":"Schagen","stationCode":"SGN","uicCode":"8400549"},"description":"vanaf het Stationsplein"},{"station":{"coordinate":{"lat":52.6697235107422,"lng":4.82277774810791},"countryCode":"NL","name":"Heerhugowaard","stationCode":"HWD","uicCode":"8400306"},"description":"vanaf het busstation"}],"label":"Er rijden stopbussen tussen Den Helder, Den Helder Zuid, Anna Paulowna, Schagen en Heerhugowaard.","shortLabel":"Er rijden stopbussen Den Helder - Den Helder Zuid - Anna Paulowna - Schagen - Heerhugowaard."}},{"start":"2026-01-25T05:00:00+0100","end":"2026-01-25T13:00:00+0100","alternativeTransport":{"location":[{"station":{"coordinate":{"lat":52.9552764892578,"lng":4.76111125946045},"countryCode":"NL","name":"Den Helder","stationCode":"HDR","uicCode":"8400311"},"description":"vanaf de voorzijde van het station"},{"station":{"coordinate":{"lat":52.9324989318848,"lng":4.76416683197022},"countryCode":"NL","name":"Den Helder Zuid","stationCode":"HDRZ","uicCode":"8400303"},"description":"vanaf de voorzijde van het station"},{"station":{"coordinate":{"lat":52.6377792358398,"lng":4.73972225189209},"countryCode":"NL","name":"Alkmaar","stationCode":"AMR","uicCode":"8400050"},"description":"vanaf de achterzijde van het station"}],"label":"Er rijden snelbussen tussen Den Helder, Den Helder Zuid en Alkmaar.","shortLabel":"Er rijden snelbussen Den Helder - Den Helder Zuid - Alkmaar."}},{"start":"2026-01-25T13:00:00+0100","end":"2026-02-02T02:00:00+0100","alternativeTransport":{"location":[{"station":{"coordinate":{"lat":52.9552764892578,"lng":4.76111125946045},"countryCode":"NL","name":"Den Helder","stationCode":"HDR","uicCode":"8400311"},"description":"vanaf de voorzijde van het station"},{"station":{"coordinate":{"lat":52.9324989318848,"lng":4.76416683197022},"countryCode":"NL","name":"Den Helder Zuid","stationCode":"HDRZ","uicCode":"8400303"},"description":"vanaf de voorzijde van het station"},{"station":{"coordinate":{"lat":52.8672218322754,"lng":4.81111097335815},"countryCode":"NL","name":"Anna Paulowna","stationCode":"ANA","uicCode":"8400065"},"description":"vanaf de voorzijde van het station"},{"station":{"coordinate":{"lat":52.7844429016113,"lng":4.80527782440186},"countryCode":"NL","name":"Schagen","stationCode":"SGN","uicCode":"8400549"},"description":"vanaf het Stationsplein"},{"station":{"coordinate":{"lat":52.6697235107422,"lng":4.82277774810791},"countryCode":"NL","name":"Heerhugowaard","stationCode":"HWD","uicCode":"8400306"},"description":"vanaf het busstation"}],"label":"Er rijden stopbussen tussen Den Helder, Den Helder Zuid, Anna Paulowna, Schagen en Heerhugowaard.","shortLabel":"Er rijden stopbussen Den Helder - Den Helder Zuid - Anna Paulowna - Schagen - Heerhugowaard."}},{"start":"2026-01-25T13:00:00+0100","end":"2026-02-02T02:00:00+0100","alternativeTransport":{"location":[{"station":{"coordinate":{"lat":52.9552764892578,"lng":4.76111125946045},"countryCode":"NL","name":"Den Helder","stationCode":"HDR","uicCode":"8400311"},"description":"vanaf de voorzijde van het station"},{"station":{"coordinate":{"lat":52.9324989318848,"lng":4.76416683197022},"countryCode":"NL","name":"Den Helder Zuid","stationCode":"HDRZ","uicCode":"8400303"},"description":"vanaf de voorzijde van het station"},{"station":{"coordinate":{"lat":52.6377792358398,"lng":4.73972225189209},"countryCode":"NL","name":"Alkmaar","stationCode":"AMR","uicCode":"8400050"},"description":"vanaf de achterzijde van het station"}],"label":"Er rijden snelbussen tussen Den Helder, Den Helder Zuid en Alkmaar.","shortLabel":"Er rijden snelbussen Den Helder - Den Helder Zuid - Alkmaar."}}]},{"type":"MAINTENANCE","id":"7007387","title":"Lelystad Centrum - Rotterdam - Brussel.","isActive":true,"local":false,"titleSections":[[{"type":"STATION","value":"Lelystad C."},{"type":"ICON","value":"MAINTENANCE"},{"type":"STATION","value":"Rotterdam C."},{"type":"STATION","value":"Brussel-Zuid"}]],"registrationTime":"2026-01-12T10:38:06+0100","start":"2026-01-23T05:00:00+0100","releaseTime":"2026-01-12T10:38:06+0100","end":"2026-01-27T01:00:00+0100","period":"Vrijdag 23 januari 5:00 uur t/m dinsdag 27 januari 1:00 uur.","impact":{"value":2},"publicationSections":[{"section":{"stations":[{"coordinate":{"lat":52.5077781677246,"lng":5.47277784347534},"countryCode":"NL","name":"Lelystad Centrum","stationCode":"LLS","uicCode":"8400394"},{"coordinate":{"lat":52.4033317565918,"lng":5.30055570602417},"countryCode":"NL","name":"Almere Oostvaarders","stationCode":"ALMO","uicCode":"8400226"},{"coordinate":{"lat":52.3941650390625,"lng":5.2780556678772},"countryCode":"NL","name":"Almere Buiten","stationCode":"ALMB","uicCode":"8400081"},{"coordinate":{"lat":52.3766670227051,"lng":5.24472236633301},"countryCode":"NL","name":"Almere Parkwijk","stationCode":"ALMP","uicCode":"8400104"},{"coordinate":{"lat":52.37503,"lng":5.21764},"countryCode":"NL","name":"Almere Centrum","stationCode":"ALM","uicCode":"8400080"},{"coordinate":{"lat":52.3675003051758,"lng":5.19027757644653},"countryCode":"NL","name":"Almere Muziekwijk","stationCode":"ALMM","uicCode":"8400082"},{"coordinate":{"lat":52.342778,"lng":5.151944},"countryCode":"NL","name":"Almere Poort","stationCode":"AMPO","uicCode":"8400450"},{"coordinate":{"lat":52.3127784729004,"lng":5.04305553436279},"countryCode":"NL","name":"Weesp","stationCode":"WP","uicCode":"8400685"},{"coordinate":{"lat":52.3302764892578,"lng":4.95583343505859},"countryCode":"NL","name":"Diemen Zuid","stationCode":"DMNZ","uicCode":"8400163"},{"coordinate":{"lat":52.3233337402344,"lng":4.93638896942139},"countryCode":"NL","name":"Duivendrecht","stationCode":"DVD","uicCode":"8400194"},{"coordinate":{"lat":52.3372230529785,"lng":4.89027786254883},"countryCode":"NL","name":"Amsterdam RAI","stationCode":"RAI","uicCode":"8400056"},{"coordinate":{"lat":52.338889,"lng":4.872356},"countryCode":"NL","name":"Amsterdam Zuid","stationCode":"ASDZ","uicCode":"8400061"},{"coordinate":{"lat":52.3094444274902,"lng":4.76194429397583},"countryCode":"NL","name":"Schiphol Airport","stationCode":"SHL","uicCode":"8400561"},{"coordinate":{"lat":52.2933349609375,"lng":4.70055532455444},"countryCode":"NL","name":"Hoofddorp","stationCode":"HFD","uicCode":"8400332"},{"coordinate":{"lat":51.9249992370605,"lng":4.46888875961304},"countryCode":"NL","name":"Rotterdam Centraal","stationCode":"RTD","uicCode":"8400530"},{"coordinate":{"lat":51.9202766418457,"lng":4.48888874053955},"countryCode":"NL","name":"Rotterdam Blaak","stationCode":"RTB","uicCode":"8400529"},{"coordinate":{"lat":51.9044456481934,"lng":4.51027774810791},"countryCode":"NL","name":"Rotterdam Zuid","stationCode":"RTZ","uicCode":"8400533"},{"coordinate":{"lat":51.8800010681152,"lng":4.53138875961304},"countryCode":"NL","name":"Rotterdam Lombardijen","stationCode":"RLB","uicCode":"8400542"},{"coordinate":{"lat":51.358088,"lng":4.633977},"countryCode":"B","name":"Noorderkempen","stationCode":"NDKP","uicCode":"8821105"},{"coordinate":{"lat":51.2449375,"lng":4.4251543},"countryCode":"B","name":"Antwerpen-Luchtbal","stationCode":"ATWLB","uicCode":"8821063"},{"coordinate":{"lat":51.21686,"lng":4.421242},"countryCode":"B","name":"Antwerpen-Centraal","stationCode":"ATW","uicCode":"8821006"},{"coordinate":{"lat":51.198914,"lng":4.4332},"countryCode":"B","name":"Antwerpen-Berchem","stationCode":"BERCH","uicCode":"8821121"},{"coordinate":{"lat":51.01758,"lng":4.48313},"countryCode":"B","name":"Mechelen","stationCode":"MECH","uicCode":"8822004"},{"coordinate":{"lat":50.859658,"lng":4.360854},"countryCode":"B","name":"Brussel-Noord","stationCode":"BRUSN","uicCode":"8812005"},{"coordinate":{"lat":50.845175,"lng":4.357131},"countryCode":"B","name":"Brussel-Centraal","stationCode":"BRUSC","uicCode":"8813003"},{"coordinate":{"lat":50.836782,"lng":4.336922},"countryCode":"B","name":"Brussel-Zuid","stationCode":"BRUSZ","uicCode":"8814001"}],"direction":"BOTH","operators":["NS International"]},"consequence":{"section":{"stations":[{"coordinate":{"lat":52.5077781677246,"lng":5.47277784347534},"countryCode":"NL","name":"Lelystad Centrum","stationCode":"LLS","uicCode":"8400394"},{"coordinate":{"lat":52.4033317565918,"lng":5.30055570602417},"countryCode":"NL","name":"Almere Oostvaarders","stationCode":"ALMO","uicCode":"8400226"},{"coordinate":{"lat":52.3941650390625,"lng":5.2780556678772},"countryCode":"NL","name":"Almere Buiten","stationCode":"ALMB","uicCode":"8400081"},{"coordinate":{"lat":52.3766670227051,"lng":5.24472236633301},"countryCode":"NL","name":"Almere Parkwijk","stationCode":"ALMP","uicCode":"8400104"},{"coordinate":{"lat":52.37503,"lng":5.21764},"countryCode":"NL","name":"Almere Centrum","stationCode":"ALM","uicCode":"8400080"},{"coordinate":{"lat":52.3675003051758,"lng":5.19027757644653},"countryCode":"NL","name":"Almere Muziekwijk","stationCode":"ALMM","uicCode":"8400082"},{"coordinate":{"lat":52.342778,"lng":5.151944},"countryCode":"NL","name":"Almere Poort","stationCode":"AMPO","uicCode":"8400450"},{"coordinate":{"lat":52.3127784729004,"lng":5.04305553436279},"countryCode":"NL","name":"Weesp","stationCode":"WP","uicCode":"8400685"},{"coordinate":{"lat":52.3302764892578,"lng":4.95583343505859},"countryCode":"NL","name":"Diemen Zuid","stationCode":"DMNZ","uicCode":"8400163"},{"coordinate":{"lat":52.3233337402344,"lng":4.93638896942139},"countryCode":"NL","name":"Duivendrecht","stationCode":"DVD","uicCode":"8400194"},{"coordinate":{"lat":52.3372230529785,"lng":4.89027786254883},"countryCode":"NL","name":"Amsterdam RAI","stationCode":"RAI","uicCode":"8400056"},{"coordinate":{"lat":52.338889,"lng":4.872356},"countryCode":"NL","name":"Amsterdam Zuid","stationCode":"ASDZ","uicCode":"8400061"},{"coordinate":{"lat":52.3094444274902,"lng":4.76194429397583},"countryCode":"NL","name":"Schiphol Airport","stationCode":"SHL","uicCode":"8400561"},{"coordinate":{"lat":52.2933349609375,"lng":4.70055532455444},"countryCode":"NL","name":"Hoofddorp","stationCode":"HFD","uicCode":"8400332"},{"coordinate":{"lat":51.9249992370605,"lng":4.46888875961304},"countryCode":"NL","name":"Rotterdam Centraal","stationCode":"RTD","uicCode":"8400530"}],"direction":"BOTH","operators":["NS International"]},"description":"aangepaste internationale dienstregeling","level":"LESS_TRAINS"},"sectionType":"HSL"}],"timespans":[{"start":"2026-01-23T05:00:00+0100","end":"2026-01-27T01:00:00+0100","period":"Vrijdag 23 januari 5:00 uur t/m dinsdag 27 januari 1:00 uur.","situation":{"label":"Door werkzaamheden: tussen Lelystad Centrum en Rotterdam Centraal is de internationale dienstregeling aangepast."},"cause":{"label":"werkzaamheden","type":"OTHER"},"advices":["Eurocity direct rijdt niet tussen Lelystad C/Amsterdam Zuid en Rotterdam Centraal. "]}],"alternativeTransportTimespans":[]},{"type":"MAINTENANCE","id":"7007317","title":"Amsterdam - Brussel - Paris.","isActive":true,"local":false,"titleSections":[[{"type":"STATION","value":"Amsterdam C."},{"type":"ICON","value":"MAINTENANCE"},{"type":"STATION","value":"Antwerpen-C."},{"type":"STATION","value":"Paris-Nord"}]],"registrationTime":"2026-01-19T15:54:33+0100","start":"2026-01-23T06:00:00+0100","releaseTime":"2026-01-19T15:54:33+0100","end":"2026-01-26T22:00:00+0100","period":"Vrijdag 23 januari 6:00 uur t/m maandag 26 januari 22:00 uur.","impact":{"value":3},"publicationSections":[{"section":{"stations":[{"coordinate":{"lat":52.3788871765137,"lng":4.90027761459351},"countryCode":"NL","name":"Amsterdam Centraal","stationCode":"ASD","uicCode":"8400058"},{"coordinate":{"lat":52.3888893127441,"lng":4.83777761459351},"countryCode":"NL","name":"Amsterdam Sloterdijk","stationCode":"ASS","uicCode":"8400059"},{"coordinate":{"lat":52.3577766418457,"lng":4.83388900756836},"countryCode":"NL","name":"Amsterdam Lelylaan","stationCode":"ASDL","uicCode":"8400079"},{"coordinate":{"lat":52.3094444274902,"lng":4.76194429397583},"countryCode":"NL","name":"Schiphol Airport","stationCode":"SHL","uicCode":"8400561"},{"coordinate":{"lat":52.2933349609375,"lng":4.70055532455444},"countryCode":"NL","name":"Hoofddorp","stationCode":"HFD","uicCode":"8400332"},{"coordinate":{"lat":51.9249992370605,"lng":4.46888875961304},"countryCode":"NL","name":"Rotterdam Centraal","stationCode":"RTD","uicCode":"8400530"},{"coordinate":{"lat":51.9202766418457,"lng":4.48888874053955},"countryCode":"NL","name":"Rotterdam Blaak","stationCode":"RTB","uicCode":"8400529"},{"coordinate":{"lat":51.9044456481934,"lng":4.51027774810791},"countryCode":"NL","name":"Rotterdam Zuid","stationCode":"RTZ","uicCode":"8400533"},{"coordinate":{"lat":51.8800010681152,"lng":4.53138875961304},"countryCode":"NL","name":"Rotterdam Lombardijen","stationCode":"RLB","uicCode":"8400542"},{"coordinate":{"lat":51.358088,"lng":4.633977},"countryCode":"B","name":"Noorderkempen","stationCode":"NDKP","uicCode":"8821105"},{"coordinate":{"lat":51.2449375,"lng":4.4251543},"countryCode":"B","name":"Antwerpen-Luchtbal","stationCode":"ATWLB","uicCode":"8821063"},{"coordinate":{"lat":51.21686,"lng":4.421242},"countryCode":"B","name":"Antwerpen-Centraal","stationCode":"ATW","uicCode":"8821006"},{"coordinate":{"lat":51.198914,"lng":4.4332},"countryCode":"B","name":"Antwerpen-Berchem","stationCode":"BERCH","uicCode":"8821121"},{"coordinate":{"lat":51.01758,"lng":4.48313},"countryCode":"B","name":"Mechelen","stationCode":"MECH","uicCode":"8822004"},{"coordinate":{"lat":50.859658,"lng":4.360854},"countryCode":"B","name":"Brussel-Noord","stationCode":"BRUSN","uicCode":"8812005"},{"coordinate":{"lat":50.845175,"lng":4.357131},"countryCode":"B","name":"Brussel-Centraal","stationCode":"BRUSC","uicCode":"8813003"},{"coordinate":{"lat":50.836782,"lng":4.336922},"countryCode":"B","name":"Brussel-Zuid","stationCode":"BRUSZ","uicCode":"8814001"},{"coordinate":{"lat":48.87977,"lng":2.35575},"countryCode":"F","name":"Paris-Nord","stationCode":"PARIS","uicCode":"8727100"}],"direction":"BOTH","operators":["NS International"]},"consequence":{"section":{"stations":[{"coordinate":{"lat":52.3788871765137,"lng":4.90027761459351},"countryCode":"NL","name":"Amsterdam Centraal","stationCode":"ASD","uicCode":"8400058"},{"coordinate":{"lat":52.3888893127441,"lng":4.83777761459351},"countryCode":"NL","name":"Amsterdam Sloterdijk","stationCode":"ASS","uicCode":"8400059"},{"coordinate":{"lat":52.3577766418457,"lng":4.83388900756836},"countryCode":"NL","name":"Amsterdam Lelylaan","stationCode":"ASDL","uicCode":"8400079"},{"coordinate":{"lat":52.3094444274902,"lng":4.76194429397583},"countryCode":"NL","name":"Schiphol Airport","stationCode":"SHL","uicCode":"8400561"},{"coordinate":{"lat":52.2933349609375,"lng":4.70055532455444},"countryCode":"NL","name":"Hoofddorp","stationCode":"HFD","uicCode":"8400332"},{"coordinate":{"lat":51.9249992370605,"lng":4.46888875961304},"countryCode":"NL","name":"Rotterdam Centraal","stationCode":"RTD","uicCode":"8400530"},{"coordinate":{"lat":51.9202766418457,"lng":4.48888874053955},"countryCode":"NL","name":"Rotterdam Blaak","stationCode":"RTB","uicCode":"8400529"},{"coordinate":{"lat":51.9044456481934,"lng":4.51027774810791},"countryCode":"NL","name":"Rotterdam Zuid","stationCode":"RTZ","uicCode":"8400533"},{"coordinate":{"lat":51.8800010681152,"lng":4.53138875961304},"countryCode":"NL","name":"Rotterdam Lombardijen","stationCode":"RLB","uicCode":"8400542"},{"coordinate":{"lat":51.358088,"lng":4.633977},"countryCode":"B","name":"Noorderkempen","stationCode":"NDKP","uicCode":"8821105"},{"coordinate":{"lat":51.2449375,"lng":4.4251543},"countryCode":"B","name":"Antwerpen-Luchtbal","stationCode":"ATWLB","uicCode":"8821063"},{"coordinate":{"lat":51.21686,"lng":4.421242},"countryCode":"B","name":"Antwerpen-Centraal","stationCode":"ATW","uicCode":"8821006"}],"direction":"BOTH","operators":["NS International"]},"description":"aangepaste internationale dienstregeling","level":"LESS_TRAINS"},"sectionType":"HSL"}],"timespans":[{"start":"2026-01-23T06:00:00+0100","end":"2026-01-26T22:00:00+0100","period":"Vrijdag 23 januari 6:00 uur t/m maandag 26 januari 22:00 uur.","situation":{"label":"Door werkzaamheden: tussen Amsterdam Centraal en Antwerpen-Centraal is de internationale dienstregeling aangepast."},"cause":{"label":"werkzaamheden","type":"OTHER"},"advices":["Eurostar naar Paris Nord vertrekt eerder van Amsterdam Centraal en stopt niet in Schiphol Airport."]}],"alternativeTransportTimespans":[]},{"type":"MAINTENANCE","id":"7007134","title":"Maastricht - Liège / Luik.","isActive":false,"local":false,"titleSections":[[{"type":"STATION","value":"Maastricht"},{"type":"ICON","value":"MAINTENANCE"},{"type":"STATION","value":"Liège-Guillemins"}]],"registrationTime":"2025-12-29T09:57:12+0100","start":"2026-01-24T22:31:00+0100","releaseTime":"2025-12-29T09:57:12+0100","end":"2026-01-25T01:00:00+0100","period":"Zaterdag 24 januari 2026 22:31 uur t/m zondag 25 januari 2026 1:00 uur.","impact":{"value":3},"publicationSections":[{"section":{"stations":[{"coordinate":{"lat":50.8502769470215,"lng":5.70555543899536},"countryCode":"NL","name":"Maastricht","stationCode":"MT","uicCode":"8400424"},{"coordinate":{"lat":50.8386116027832,"lng":5.71722221374512},"countryCode":"NL","name":"Maastricht Randwyck","stationCode":"MTR","uicCode":"8400426"},{"coordinate":{"lat":50.7719459533691,"lng":5.71000003814697},"countryCode":"NL","name":"Eijsden","stationCode":"EDN","uicCode":"8400219"},{"coordinate":{"lat":50.73781,"lng":5.69232},"countryCode":"B","name":"Visé","stationCode":"FVS","uicCode":"8846201"},{"coordinate":{"lat":50.643829,"lng":5.6112542},"countryCode":"B","name":"Bressoux","stationCode":"BRESSX","uicCode":"8843901"},{"coordinate":{"lat":50.62436,"lng":5.56648},"countryCode":"B","name":"Liège-Guillemins","stationCode":"LUIK","uicCode":"8841004"}],"direction":"BOTH","operators":["Arriva"]},"consequence":{"section":{"stations":[{"coordinate":{"lat":50.8502769470215,"lng":5.70555543899536},"countryCode":"NL","name":"Maastricht","stationCode":"MT","uicCode":"8400424"},{"coordinate":{"lat":50.8386116027832,"lng":5.71722221374512},"countryCode":"NL","name":"Maastricht Randwyck","stationCode":"MTR","uicCode":"8400426"},{"coordinate":{"lat":50.7719459533691,"lng":5.71000003814697},"countryCode":"NL","name":"Eijsden","stationCode":"EDN","uicCode":"8400219"},{"coordinate":{"lat":50.73781,"lng":5.69232},"countryCode":"B","name":"Visé","stationCode":"FVS","uicCode":"8846201"},{"coordinate":{"lat":50.643829,"lng":5.6112542},"countryCode":"B","name":"Bressoux","stationCode":"BRESSX","uicCode":"8843901"},{"coordinate":{"lat":50.62436,"lng":5.56648},"countryCode":"B","name":"Liège-Guillemins","stationCode":"LUIK","uicCode":"8841004"}],"direction":"BOTH","operators":["Arriva"]},"description":"er rijden bussen","level":"LESS_TRAINS"},"sectionType":"NEIGHBORING_COUNTRY"}],"summaryAdditionalTravelTime":{"label":"De extra reistijd is ongeveer 30 minuten.","shortLabel":"Extra reistijd 30 min.","minimumDurationInMinutes":30,"maximumDurationInMinutes":30},"timespans":[{"start":"2026-01-24T22:31:00+0100","end":"2026-01-25T01:00:00+0100","period":"Zaterdag 24 januari 2026 22:31 uur t/m zondag 25 januari 2026 1:00 uur.","situation":{"label":"Door werkzaamheden: tussen Maastricht en Liège-Guillemins rijden er bussen."},"cause":{"label":"werkzaamheden","type":"OTHER"},"additionalTravelTime":{"label":"De extra reistijd is ongeveer 30 minuten.","shortLabel":"Extra reistijd 30 min.","minimumDurationInMinutes":30,"maximumDurationInMinutes":30},"alternativeTransport":{"label":"er rijden stopbussen","shortLabel":"er rijden stopbussen"},"advices":[]}],"alternativeTransportTimespans":[{"start":"2026-01-24T22:31:00+0100","end":"2026-01-25T01:00:00+0100","alternativeTransport":{"location":[{"station":{"coordinate":{"lat":50.8502769470215,"lng":5.70555543899536},"countryCode":"NL","name":"Maastricht","stationCode":"MT","uicCode":"8400424"},"description":"vanaf het Stationsplein"},{"station":{"coordinate":{"lat":50.8386116027832,"lng":5.71722221374512},"countryCode":"NL","name":"Maastricht Randwyck","stationCode":"MTR","uicCode":"8400426"},"description":"volg de aanwijzingen op het station"},{"station":{"coordinate":{"lat":50.7719459533691,"lng":5.71000003814697},"countryCode":"NL","name":"Eijsden","stationCode":"EDN","uicCode":"8400219"},"description":"vanaf de voorzijde van het station"},{"station":{"coordinate":{"lat":50.73781,"lng":5.69232},"countryCode":"B","name":"Visé","stationCode":"FVS","uicCode":"8846201"},"description":"vanaf de bushalte"},{"station":{"coordinate":{"lat":50.643829,"lng":5.6112542},"countryCode":"B","name":"Bressoux","stationCode":"BRESSX","uicCode":"8843901"},"description":"volg de aanwijzingen op het station"},{"station":{"coordinate":{"lat":50.62436,"lng":5.56648},"countryCode":"B","name":"Liège-Guillemins","stationCode":"LUIK","uicCode":"8841004"},"description":"volg de aanwijzingen op het station"}],"label":"Er rijden stopbussen tussen Maastricht, Maastricht Randwyck, Eijsden, Visé, Bressoux en Liège-Guillemins.","shortLabel":"Er rijden stopbussen Maastricht - Randwyck - Eijsden - Visé - Bressoux - Liège-Guillemins."}}]},{"type":"MAINTENANCE","id":"7007370","title":"Dordrecht - Geldermalsen.","isActive":false,"local":false,"titleSections":[[{"type":"STATION","value":"Dordrecht"},{"type":"ICON","value":"MAINTENANCE"},{"type":"STATION","value":"Geldermalsen"}]],"registrationTime":"2026-01-06T11:35:49+0100","start":"2026-01-25T00:20:00+0100","releaseTime":"2026-01-06T11:35:49+0100","end":"2026-01-25T03:15:00+0100","period":"Zondag 25 januari 0:20 uur t/m zondag 25 januari 3:15 uur.","impact":{"value":3},"publicationSections":[{"section":{"stations":[{"coordinate":{"lat":51.8072204589844,"lng":4.66833353042603},"countryCode":"NL","name":"Dordrecht","stationCode":"DDR","uicCode":"8400180"},{"coordinate":{"lat":51.801944732666,"lng":4.71666669845581},"countryCode":"NL","name":"Dordrecht Stadspolders","stationCode":"DDRS","uicCode":"8400186"},{"coordinate":{"lat":51.829722,"lng":4.743333},"countryCode":"NL","name":"Sliedrecht Baanhoek","stationCode":"SDTB","uicCode":"8400497"},{"coordinate":{"lat":51.8297233581543,"lng":4.77833318710327},"countryCode":"NL","name":"Sliedrecht","stationCode":"SDT","uicCode":"8400565"},{"coordinate":{"lat":51.82944,"lng":4.815663},"countryCode":"NL","name":"Hardinxveld Blauwe Zoom","stationCode":"HBZM","uicCode":"8400438"},{"coordinate":{"lat":51.8305549621582,"lng":4.83583354949951},"countryCode":"NL","name":"Hardinxveld-Giessendam","stationCode":"GND","uicCode":"8400295"},{"coordinate":{"lat":51.832222,"lng":4.878056},"countryCode":"NL","name":"Boven-Hardinxveld","stationCode":"BHDV","uicCode":"8400236"},{"coordinate":{"lat":51.8338890075684,"lng":4.96833324432373},"countryCode":"NL","name":"Gorinchem","stationCode":"GR","uicCode":"8400256"},{"coordinate":{"lat":51.8719444274902,"lng":4.99277782440186},"countryCode":"NL","name":"Arkel","stationCode":"AKL","uicCode":"8400068"},{"coordinate":{"lat":51.8947219848633,"lng":5.09138870239258},"countryCode":"NL","name":"Leerdam","stationCode":"LDM","uicCode":"8400386"},{"coordinate":{"lat":51.8994445800781,"lng":5.19444465637207},"countryCode":"NL","name":"Beesd","stationCode":"BSD","uicCode":"8400097"},{"coordinate":{"lat":51.88301,"lng":5.27127},"countryCode":"NL","name":"Geldermalsen","stationCode":"GDM","uicCode":"8400244"}],"direction":"BOTH","operators":["R-net Qbuzz"]},"consequence":{"section":{"stations":[{"coordinate":{"lat":51.8072204589844,"lng":4.66833353042603},"countryCode":"NL","name":"Dordrecht","stationCode":"DDR","uicCode":"8400180"},{"coordinate":{"lat":51.801944732666,"lng":4.71666669845581},"countryCode":"NL","name":"Dordrecht Stadspolders","stationCode":"DDRS","uicCode":"8400186"},{"coordinate":{"lat":51.829722,"lng":4.743333},"countryCode":"NL","name":"Sliedrecht Baanhoek","stationCode":"SDTB","uicCode":"8400497"},{"coordinate":{"lat":51.8297233581543,"lng":4.77833318710327},"countryCode":"NL","name":"Sliedrecht","stationCode":"SDT","uicCode":"8400565"},{"coordinate":{"lat":51.82944,"lng":4.815663},"countryCode":"NL","name":"Hardinxveld Blauwe Zoom","stationCode":"HBZM","uicCode":"8400438"},{"coordinate":{"lat":51.8305549621582,"lng":4.83583354949951},"countryCode":"NL","name":"Hardinxveld-Giessendam","stationCode":"GND","uicCode":"8400295"},{"coordinate":{"lat":51.832222,"lng":4.878056},"countryCode":"NL","name":"Boven-Hardinxveld","stationCode":"BHDV","uicCode":"8400236"},{"coordinate":{"lat":51.8338890075684,"lng":4.96833324432373},"countryCode":"NL","name":"Gorinchem","stationCode":"GR","uicCode":"8400256"},{"coordinate":{"lat":51.8719444274902,"lng":4.99277782440186},"countryCode":"NL","name":"Arkel","stationCode":"AKL","uicCode":"8400068"},{"coordinate":{"lat":51.8947219848633,"lng":5.09138870239258},"countryCode":"NL","name":"Leerdam","stationCode":"LDM","uicCode":"8400386"},{"coordinate":{"lat":51.8994445800781,"lng":5.19444465637207},"countryCode":"NL","name":"Beesd","stationCode":"BSD","uicCode":"8400097"},{"coordinate":{"lat":51.88301,"lng":5.27127},"countryCode":"NL","name":"Geldermalsen","stationCode":"GDM","uicCode":"8400244"}],"direction":"BOTH","operators":["R-net Qbuzz"]},"description":"er rijden bussen","level":"LESS_TRAINS"},"sectionType":"NL"}],"summaryAdditionalTravelTime":{"label":"De extra reistijd kan oplopen tot 45 minuten.","shortLabel":"Extra reistijd tot 45 min.","maximumDurationInMinutes":45},"timespans":[{"start":"2026-01-25T00:20:00+0100","end":"2026-01-25T03:15:00+0100","period":"Zondag 25 januari 0:20 uur t/m zondag 25 januari 3:15 uur.","situation":{"label":"Door werkzaamheden: tussen Dordrecht en Geldermalsen rijden er bussen."},"cause":{"label":"werkzaamheden","type":"OTHER"},"additionalTravelTime":{"label":"De extra reistijd kan oplopen tot 45 minuten.","shortLabel":"Extra reistijd tot 45 min.","maximumDurationInMinutes":45},"alternativeTransport":{"label":"er rijden stopbussen","shortLabel":"er rijden stopbussen"},"advices":[]}],"alternativeTransportTimespans":[{"start":"2026-01-25T00:20:00+0100","end":"2026-01-25T03:15:00+0100","alternativeTransport":{"location":[{"station":{"coordinate":{"lat":51.8338890075684,"lng":4.96833324432373},"countryCode":"NL","name":"Gorinchem","stationCode":"GR","uicCode":"8400256"},"description":"vanaf de voorzijde van het station"},{"station":{"coordinate":{"lat":51.8719444274902,"lng":4.99277782440186},"countryCode":"NL","name":"Arkel","stationCode":"AKL","uicCode":"8400068"},"description":"vanaf de bushalte"},{"station":{"coordinate":{"lat":51.8947219848633,"lng":5.09138870239258},"countryCode":"NL","name":"Leerdam","stationCode":"LDM","uicCode":"8400386"},"description":"vanaf de bushalte"},{"station":{"coordinate":{"lat":51.8994445800781,"lng":5.19444465637207},"countryCode":"NL","name":"Beesd","stationCode":"BSD","uicCode":"8400097"},"description":"vanaf het voorplein"},{"station":{"coordinate":{"lat":51.88301,"lng":5.27127},"countryCode":"NL","name":"Geldermalsen","stationCode":"GDM","uicCode":"8400244"},"description":"vanaf de bushalte"}],"label":"Er rijden stopbussen van Gorinchem, Arkel, Leerdam, Beesd naar Geldermalsen.","shortLabel":"Er rijden stopbussen Gorinchem -> Arkel -> Leerdam -> Beesd -> Geldermalsen."}},{"start":"2026-01-25T00:20:00+0100","end":"2026-01-25T03:15:00+0100","alternativeTransport":{"location":[{"station":{"coordinate":{"lat":51.88301,"lng":5.27127},"countryCode":"NL","name":"Geldermalsen","stationCode":"GDM","uicCode":"8400244"},"description":"vanaf de bushalte"},{"station":{"coordinate":{"lat":51.8994445800781,"lng":5.19444465637207},"countryCode":"NL","name":"Beesd","stationCode":"BSD","uicCode":"8400097"},"description":"vanaf het voorplein"},{"station":{"coordinate":{"lat":51.8947219848633,"lng":5.09138870239258},"countryCode":"NL","name":"Leerdam","stationCode":"LDM","uicCode":"8400386"},"description":"vanaf de bushalte"},{"station":{"coordinate":{"lat":51.8719444274902,"lng":4.99277782440186},"countryCode":"NL","name":"Arkel","stationCode":"AKL","uicCode":"8400068"},"description":"vanaf de bushalte"},{"station":{"coordinate":{"lat":51.8338890075684,"lng":4.96833324432373},"countryCode":"NL","name":"Gorinchem","stationCode":"GR","uicCode":"8400256"},"description":"vanaf de voorzijde van het station"},{"station":{"coordinate":{"lat":51.832222,"lng":4.878056},"countryCode":"NL","name":"Boven-Hardinxveld","stationCode":"BHDV","uicCode":"8400236"},"description":"vanaf de bushalte"},{"station":{"coordinate":{"lat":51.8305549621582,"lng":4.83583354949951},"countryCode":"NL","name":"Hardinxveld-Giessendam","stationCode":"GND","uicCode":"8400295"},"description":"vanaf de voorzijde van het station"},{"station":{"coordinate":{"lat":51.82944,"lng":4.815663},"countryCode":"NL","name":"Hardinxveld Blauwe Zoom","stationCode":"HBZM","uicCode":"8400438"},"description":"vanaf de voorzijde van het station"},{"station":{"coordinate":{"lat":51.8297233581543,"lng":4.77833318710327},"countryCode":"NL","name":"Sliedrecht","stationCode":"SDT","uicCode":"8400565"},"description":"vanaf de voorzijde van het station"},{"station":{"coordinate":{"lat":51.829722,"lng":4.743333},"countryCode":"NL","name":"Sliedrecht Baanhoek","stationCode":"SDTB","uicCode":"8400497"},"description":"onder het spoorviaduct"},{"station":{"coordinate":{"lat":51.801944732666,"lng":4.71666669845581},"countryCode":"NL","name":"Dordrecht Stadspolders","stationCode":"DDRS","uicCode":"8400186"},"description":"vanaf de voorzijde van het station"},{"station":{"coordinate":{"lat":51.8072204589844,"lng":4.66833353042603},"countryCode":"NL","name":"Dordrecht","stationCode":"DDR","uicCode":"8400180"},"description":"vanaf de Burgemeester de Raadtsingel"}],"label":"Er rijden stopbussen van Geldermalsen, Beesd, Leerdam, Arkel, Gorinchem, Boven-Hardinxveld, Hardinxveld-Giessendam, Hardinxveld Blauwe Zoom, Sliedrecht, Sliedrecht Baanhoek, Dordrecht Stadspolders naar Dordrecht.","shortLabel":"Er rijden stopbussen Geldermalsen -> Beesd -> Leerdam -> Arkel -> Gorinchem -> Boven-Hardinxv. -> Hardinxveld-G. -> Blauwe Zoom -> Sliedrecht -> Baanhoek -> Stadspolders -> Dordrecht."}},{"start":"2026-01-25T00:20:00+0100","end":"2026-01-25T03:15:00+0100","alternativeTransport":{"location":[{"station":{"coordinate":{"lat":51.8072204589844,"lng":4.66833353042603},"countryCode":"NL","name":"Dordrecht","stationCode":"DDR","uicCode":"8400180"},"description":"vanaf de Burgemeester de Raadtsingel"},{"station":{"coordinate":{"lat":51.801944732666,"lng":4.71666669845581},"countryCode":"NL","name":"Dordrecht Stadspolders","stationCode":"DDRS","uicCode":"8400186"},"description":"vanaf de voorzijde van het station"},{"station":{"coordinate":{"lat":51.829722,"lng":4.743333},"countryCode":"NL","name":"Sliedrecht Baanhoek","stationCode":"SDTB","uicCode":"8400497"},"description":"onder het spoorviaduct"},{"station":{"coordinate":{"lat":51.8297233581543,"lng":4.77833318710327},"countryCode":"NL","name":"Sliedrecht","stationCode":"SDT","uicCode":"8400565"},"description":"vanaf de voorzijde van het station"},{"station":{"coordinate":{"lat":51.8305549621582,"lng":4.83583354949951},"countryCode":"NL","name":"Hardinxveld-Giessendam","stationCode":"GND","uicCode":"8400295"},"description":"vanaf de voorzijde van het station"},{"station":{"coordinate":{"lat":51.832222,"lng":4.878056},"countryCode":"NL","name":"Boven-Hardinxveld","stationCode":"BHDV","uicCode":"8400236"},"description":"vanaf de bushalte"},{"station":{"coordinate":{"lat":51.8338890075684,"lng":4.96833324432373},"countryCode":"NL","name":"Gorinchem","stationCode":"GR","uicCode":"8400256"},"description":"vanaf de voorzijde van het station"}],"label":"Er rijden stopbussen tussen Dordrecht, Dordrecht Stadspolders, Sliedrecht Baanhoek, Sliedrecht, Hardinxveld-Giessendam, Boven-Hardinxveld en Gorinchem.","shortLabel":"Er rijden stopbussen Dordrecht - Stadspolders - Baanhoek - Sliedrecht - Hardinxveld-G. - Boven-Hardinxv. - Gorinchem."}}]},{"type":"MAINTENANCE","id":"7007403","title":"Zwolle - Enschede.","isActive":false,"local":false,"titleSections":[[{"type":"STATION","value":"Zwolle"},{"type":"STATION","value":"Hengelo"},{"type":"ICON","value":"MAINTENANCE"},{"type":"STATION","value":"Enschede"}]],"registrationTime":"2026-01-20T13:25:09+0100","start":"2026-01-25T02:00:00+0100","releaseTime":"2026-01-20T13:25:09+0100","end":"2026-01-25T05:00:00+0100","period":"Zondag 25 januari 2:00 uur t/m zondag 25 januari 5:00 uur.","impact":{"value":1},"publicationSections":[{"section":{"stations":[{"coordinate":{"lat":52.5047225952148,"lng":6.09194421768188},"countryCode":"NL","name":"Zwolle","stationCode":"ZL","uicCode":"8400747"},{"coordinate":{"lat":52.4272232055664,"lng":6.22111129760742},"countryCode":"NL","name":"Heino","stationCode":"HNO","uicCode":"8400310"},{"coordinate":{"lat":52.3916664123535,"lng":6.27750015258789},"countryCode":"NL","name":"Raalte","stationCode":"RAT","uicCode":"8400513"},{"coordinate":{"lat":52.366111,"lng":6.462},"countryCode":"NL","name":"Nijverdal","stationCode":"NVD","uicCode":"8400472"},{"coordinate":{"lat":52.3613891601562,"lng":6.59166669845581},"countryCode":"NL","name":"Wierden","stationCode":"WDN","uicCode":"8400691"},{"coordinate":{"lat":52.3580551147461,"lng":6.65388870239258},"countryCode":"NL","name":"Almelo","stationCode":"AML","uicCode":"8400051"},{"coordinate":{"lat":52.3419456481934,"lng":6.66666650772095},"countryCode":"NL","name":"Almelo de Riet","stationCode":"AMRI","uicCode":"8400520"},{"coordinate":{"lat":52.2988891601562,"lng":6.74805545806885},"countryCode":"NL","name":"Borne","stationCode":"BN","uicCode":"8400124"},{"coordinate":{"lat":52.2616653442383,"lng":6.79388904571533},"countryCode":"NL","name":"Hengelo","stationCode":"HGL","uicCode":"8400316"},{"coordinate":{"lat":52.2374992370605,"lng":6.83888912200928},"countryCode":"NL","name":"Enschede Kennispark","stationCode":"ESK","uicCode":"8400221"},{"coordinate":{"lat":52.2224998474121,"lng":6.8899998664856},"countryCode":"NL","name":"Enschede","stationCode":"ES","uicCode":"8400212"}],"direction":"ONE_WAY","operators":["Blauwnet Keolis"]},"consequence":{"section":{"stations":[{"coordinate":{"lat":52.2616653442383,"lng":6.79388904571533},"countryCode":"NL","name":"Hengelo","stationCode":"HGL","uicCode":"8400316"},{"coordinate":{"lat":52.2374992370605,"lng":6.83888912200928},"countryCode":"NL","name":"Enschede Kennispark","stationCode":"ESK","uicCode":"8400221"},{"coordinate":{"lat":52.2224998474121,"lng":6.8899998664856},"countryCode":"NL","name":"Enschede","stationCode":"ES","uicCode":"8400212"}],"direction":"ONE_WAY","operators":["Blauwnet Keolis"]},"description":"er rijden bussen","level":"LESS_TRAINS"},"sectionType":"NL"}],"summaryAdditionalTravelTime":{"label":"De extra reistijd kan oplopen tot 15 minuten.","shortLabel":"Extra reistijd tot 15 min.","maximumDurationInMinutes":15},"timespans":[{"start":"2026-01-25T02:00:00+0100","end":"2026-01-25T05:00:00+0100","period":"Zondag 25 januari 2:00 uur t/m zondag 25 januari 5:00 uur.","situation":{"label":"Door werkzaamheden: van Hengelo naar Enschede rijden er bussen."},"cause":{"label":"werkzaamheden","type":"OTHER"},"additionalTravelTime":{"label":"De extra reistijd kan oplopen tot 15 minuten.","shortLabel":"Extra reistijd tot 15 min.","maximumDurationInMinutes":15},"alternativeTransport":{"label":"er rijden stopbussen","shortLabel":"er rijden stopbussen"},"advices":[]}],"alternativeTransportTimespans":[{"start":"2026-01-25T02:00:00+0100","end":"2026-01-25T05:00:00+0100","alternativeTransport":{"location":[{"station":{"coordinate":{"lat":52.2616653442383,"lng":6.79388904571533},"countryCode":"NL","name":"Hengelo","stationCode":"HGL","uicCode":"8400316"},"description":"vanaf de voorzijde van het station"},{"station":{"coordinate":{"lat":52.2374992370605,"lng":6.83888912200928},"countryCode":"NL","name":"Enschede Kennispark","stationCode":"ESK","uicCode":"8400221"},"description":"vanaf de voorzijde van het station"},{"station":{"coordinate":{"lat":52.2224998474121,"lng":6.8899998664856},"countryCode":"NL","name":"Enschede","stationCode":"ES","uicCode":"8400212"},"description":"vanaf de voorzijde van het station"}],"label":"Er rijden stopbussen van Hengelo, Enschede Kennispark naar Enschede.","shortLabel":"Er rijden stopbussen Hengelo -> Kennispark -> Enschede."}}]},{"type":"MAINTENANCE","id":"7007312","title":"Arnhem - Doetinchem.","isActive":false,"local":false,"titleSections":[[{"type":"STATION","value":"Arnhem C."},{"type":"STATION","value":"Wehl"},{"type":"ICON","value":"MAINTENANCE"},{"type":"STATION","value":"Doetinchem"}]],"registrationTime":"2025-12-29T09:57:31+0100","start":"2026-01-25T04:00:00+0100","releaseTime":"2025-12-29T09:57:31+0100","end":"2026-01-25T18:30:00+0100","period":"Zondag 25 januari 2026 4:00 uur t/m zondag 25 januari 2026 18:30 uur.","impact":{"value":3},"publicationSections":[{"section":{"stations":[{"coordinate":{"lat":51.9850006103516,"lng":5.89916658401489},"countryCode":"NL","name":"Arnhem Centraal","stationCode":"AH","uicCode":"8400071"},{"coordinate":{"lat":51.985279083252,"lng":5.91944456100464},"countryCode":"NL","name":"Arnhem Velperpoort","stationCode":"AHP","uicCode":"8400072"},{"coordinate":{"lat":51.96286,"lng":5.9695},"countryCode":"NL","name":"Westervoort","stationCode":"WTV","uicCode":"8400688"},{"coordinate":{"lat":51.9433326721191,"lng":6.01472234725952},"countryCode":"NL","name":"Duiven","stationCode":"DVN","uicCode":"8400193"},{"coordinate":{"lat":51.9230537414551,"lng":6.07194423675537},"countryCode":"NL","name":"Zevenaar","stationCode":"ZV","uicCode":"8400735"},{"coordinate":{"lat":51.933502,"lng":6.1324106},"countryCode":"NL","name":"Didam","stationCode":"DID","uicCode":"8400174"},{"coordinate":{"lat":51.9578065,"lng":6.213844},"countryCode":"NL","name":"Wehl","stationCode":"WL","uicCode":"8400686"},{"coordinate":{"lat":51.9591413,"lng":6.2598521},"countryCode":"NL","name":"Doetinchem De Huet","stationCode":"DTCH","uicCode":"8400184"},{"coordinate":{"lat":51.9585962,"lng":6.2962148},"countryCode":"NL","name":"Doetinchem","stationCode":"DTC","uicCode":"8400177"}],"direction":"BOTH","operators":["RRReis Arriva"]},"consequence":{"section":{"stations":[{"coordinate":{"lat":51.9578065,"lng":6.213844},"countryCode":"NL","name":"Wehl","stationCode":"WL","uicCode":"8400686"},{"coordinate":{"lat":51.9591413,"lng":6.2598521},"countryCode":"NL","name":"Doetinchem De Huet","stationCode":"DTCH","uicCode":"8400184"},{"coordinate":{"lat":51.9585962,"lng":6.2962148},"countryCode":"NL","name":"Doetinchem","stationCode":"DTC","uicCode":"8400177"}],"direction":"BOTH","operators":["RRReis Arriva"]},"description":"er rijden bussen","level":"LESS_TRAINS"},"sectionType":"NL"}],"timespans":[{"start":"2026-01-25T04:00:00+0100","end":"2026-01-25T18:30:00+0100","period":"Zondag 25 januari 2026 4:00 uur t/m zondag 25 januari 2026 18:30 uur.","situation":{"label":"Door werkzaamheden: tussen Wehl en Doetinchem rijden er bussen."},"cause":{"label":"werkzaamheden","type":"OTHER"},"alternativeTransport":{"label":"er rijden stopbussen","shortLabel":"er rijden stopbussen"},"advices":[]}],"alternativeTransportTimespans":[{"start":"2026-01-25T04:00:00+0100","end":"2026-01-25T18:30:00+0100","alternativeTransport":{"location":[{"station":{"coordinate":{"lat":51.9578065,"lng":6.213844},"countryCode":"NL","name":"Wehl","stationCode":"WL","uicCode":"8400686"},"description":"vanaf de voorzijde van het station"},{"station":{"coordinate":{"lat":51.9591413,"lng":6.2598521},"countryCode":"NL","name":"Doetinchem De Huet","stationCode":"DTCH","uicCode":"8400184"},"description":"vanaf de bushalte"},{"station":{"coordinate":{"lat":51.9585962,"lng":6.2962148},"countryCode":"NL","name":"Doetinchem","stationCode":"DTC","uicCode":"8400177"},"description":"vanaf het busstation"}],"label":"Er rijden stopbussen tussen Wehl, Doetinchem De Huet en Doetinchem.","shortLabel":"Er rijden stopbussen Wehl - De Huet - Doetinchem."}}]},{"type":"MAINTENANCE","id":"7007442","title":"Alkmaar - Hoorn.","isActive":false,"local":false,"titleSections":[[{"type":"STATION","value":"Alkmaar"},{"type":"STATION","value":"Heerhugowaard"},{"type":"ICON","value":"MAINTENANCE"},{"type":"STATION","value":"Hoorn"}]],"registrationTime":"2026-01-22T19:18:57+0100","start":"2026-01-25T05:00:00+0100","releaseTime":"2026-01-22T19:18:57+0100","end":"2026-01-25T13:00:00+0100","period":"Zondag 25 januari 5:00 uur t/m zondag 25 januari 13:00 uur.","impact":{"value":3},"publicationSections":[{"section":{"stations":[{"coordinate":{"lat":52.6377792358398,"lng":4.73972225189209},"countryCode":"NL","name":"Alkmaar","stationCode":"AMR","uicCode":"8400050"},{"coordinate":{"lat":52.6438903808594,"lng":4.76416683197022},"countryCode":"NL","name":"Alkmaar Noord","stationCode":"AMRN","uicCode":"8400052"},{"coordinate":{"lat":52.6697235107422,"lng":4.82277774810791},"countryCode":"NL","name":"Heerhugowaard","stationCode":"HWD","uicCode":"8400306"},{"coordinate":{"lat":52.6780548095703,"lng":4.90722227096558},"countryCode":"NL","name":"Obdam","stationCode":"OBD","uicCode":"8400480"},{"coordinate":{"lat":52.6447219848633,"lng":5.05555534362793},"countryCode":"NL","name":"Hoorn","stationCode":"HN","uicCode":"8400337"}],"direction":"BOTH","operators":["NS"]},"consequence":{"section":{"stations":[{"coordinate":{"lat":52.6697235107422,"lng":4.82277774810791},"countryCode":"NL","name":"Heerhugowaard","stationCode":"HWD","uicCode":"8400306"},{"coordinate":{"lat":52.6780548095703,"lng":4.90722227096558},"countryCode":"NL","name":"Obdam","stationCode":"OBD","uicCode":"8400480"},{"coordinate":{"lat":52.6447219848633,"lng":5.05555534362793},"countryCode":"NL","name":"Hoorn","stationCode":"HN","uicCode":"8400337"}],"direction":"BOTH","operators":["NS"]},"description":"er rijden bussen","level":"LESS_TRAINS"},"sectionType":"NL"}],"summaryAdditionalTravelTime":{"label":"De extra reistijd kan oplopen tot 30 minuten.","shortLabel":"Extra reistijd tot 30 min.","maximumDurationInMinutes":30},"timespans":[{"start":"2026-01-25T05:00:00+0100","end":"2026-01-25T13:00:00+0100","period":"Zondag 25 januari 5:00 uur t/m zondag 25 januari 13:00 uur.","situation":{"label":"Door werkzaamheden: tussen Heerhugowaard en Hoorn rijden er bussen."},"cause":{"label":"werkzaamheden","type":"OTHER"},"additionalTravelTime":{"label":"De extra reistijd kan oplopen tot 30 minuten.","shortLabel":"Extra reistijd tot 30 min.","maximumDurationInMinutes":30},"alternativeTransport":{"label":"er rijden stopbussen","shortLabel":"er rijden stopbussen"},"advices":["Plan uw reis in de app."]}],"alternativeTransportTimespans":[{"start":"2026-01-25T05:00:00+0100","end":"2026-01-25T13:00:00+0100","alternativeTransport":{"location":[{"station":{"coordinate":{"lat":52.6697235107422,"lng":4.82277774810791},"countryCode":"NL","name":"Heerhugowaard","stationCode":"HWD","uicCode":"8400306"},"description":"vanaf het busstation"},{"station":{"coordinate":{"lat":52.6780548095703,"lng":4.90722227096558},"countryCode":"NL","name":"Obdam","stationCode":"OBD","uicCode":"8400480"},"description":"vanaf de voorzijde van het station"},{"station":{"coordinate":{"lat":52.6447219848633,"lng":5.05555534362793},"countryCode":"NL","name":"Hoorn","stationCode":"HN","uicCode":"8400337"},"description":"vanaf de achterzijde van het station"}],"label":"Er rijden stopbussen tussen Heerhugowaard, Obdam en Hoorn.","shortLabel":"Er rijden stopbussen Heerhugowaard - Obdam - Hoorn."}}]},{"type":"MAINTENANCE","id":"7007167","title":"Utrecht - Gouda; Rotterdam - Gouda.","isActive":false,"local":false,"titleSections":[[{"type":"STATION","value":"Rotterdam C."},{"type":"ICON","value":"MAINTENANCE"},{"type":"STATION","value":"Gouda"}],[{"type":"STATION","value":"Utrecht C."},{"type":"ICON","value":"MAINTENANCE"},{"type":"STATION","value":"Gouda"}]],"registrationTime":"2025-12-22T14:48:02+0100","start":"2026-01-25T05:00:00+0100","releaseTime":"2025-12-22T14:48:02+0100","end":"2026-01-26T02:00:00+0100","period":"Zondag 25 januari 2026 5:00 uur t/m maandag 26 januari 2026 2:00 uur.","impact":{"value":3},"publicationSections":[{"section":{"stations":[{"coordinate":{"lat":51.9249992370605,"lng":4.46888875961304},"countryCode":"NL","name":"Rotterdam Centraal","stationCode":"RTD","uicCode":"8400530"},{"coordinate":{"lat":51.9422225952148,"lng":4.48166656494141},"countryCode":"NL","name":"Rotterdam Noord","stationCode":"RTN","uicCode":"8400531"},{"coordinate":{"lat":51.9519462585449,"lng":4.55361127853394},"countryCode":"NL","name":"Rotterdam Alexander","stationCode":"RTA","uicCode":"8400507"},{"coordinate":{"lat":51.9541664123535,"lng":4.58416652679443},"countryCode":"NL","name":"Capelle Schollevaar","stationCode":"CPS","uicCode":"8400147"},{"coordinate":{"lat":51.9652786254883,"lng":4.61694431304932},"countryCode":"NL","name":"Nieuwerkerk a/d IJssel","stationCode":"NWK","uicCode":"8400455"},{"coordinate":{"lat":52.0175018310547,"lng":4.70444440841675},"countryCode":"NL","name":"Gouda","stationCode":"GD","uicCode":"8400258"}],"direction":"BOTH","operators":["NS"]},"consequence":{"section":{"stations":[{"coordinate":{"lat":51.9249992370605,"lng":4.46888875961304},"countryCode":"NL","name":"Rotterdam Centraal","stationCode":"RTD","uicCode":"8400530"},{"coordinate":{"lat":51.9422225952148,"lng":4.48166656494141},"countryCode":"NL","name":"Rotterdam Noord","stationCode":"RTN","uicCode":"8400531"},{"coordinate":{"lat":51.9519462585449,"lng":4.55361127853394},"countryCode":"NL","name":"Rotterdam Alexander","stationCode":"RTA","uicCode":"8400507"},{"coordinate":{"lat":51.9541664123535,"lng":4.58416652679443},"countryCode":"NL","name":"Capelle Schollevaar","stationCode":"CPS","uicCode":"8400147"},{"coordinate":{"lat":51.9652786254883,"lng":4.61694431304932},"countryCode":"NL","name":"Nieuwerkerk a/d IJssel","stationCode":"NWK","uicCode":"8400455"},{"coordinate":{"lat":52.0175018310547,"lng":4.70444440841675},"countryCode":"NL","name":"Gouda","stationCode":"GD","uicCode":"8400258"}],"direction":"BOTH","operators":["NS"]},"description":"er rijden bussen","level":"LESS_TRAINS"},"sectionType":"NL"},{"section":{"stations":[{"coordinate":{"lat":52.0888900756836,"lng":5.11027765274048},"countryCode":"NL","name":"Utrecht Centraal","stationCode":"UT","uicCode":"8400621"},{"coordinate":{"lat":52.09896,"lng":5.06523},"countryCode":"NL","name":"Utrecht Leidsche Rijn","stationCode":"UTLR","uicCode":"8400607"},{"coordinate":{"lat":52.1000753,"lng":5.0439547},"countryCode":"NL","name":"Utrecht Terwijde","stationCode":"UTT","uicCode":"8400614"},{"coordinate":{"lat":52.103056,"lng":5.007404},"countryCode":"NL","name":"Vleuten","stationCode":"VTN","uicCode":"8400651"},{"coordinate":{"lat":52.0849990844727,"lng":4.89361095428467},"countryCode":"NL","name":"Woerden","stationCode":"WD","uicCode":"8400702"},{"coordinate":{"lat":52.0149993896484,"lng":4.7408332824707},"countryCode":"NL","name":"Gouda Goverwelle","stationCode":"GDG","uicCode":"8400257"},{"coordinate":{"lat":52.0175018310547,"lng":4.70444440841675},"countryCode":"NL","name":"Gouda","stationCode":"GD","uicCode":"8400258"}],"direction":"BOTH","operators":["NS"]},"consequence":{"section":{"stations":[{"coordinate":{"lat":52.0888900756836,"lng":5.11027765274048},"countryCode":"NL","name":"Utrecht Centraal","stationCode":"UT","uicCode":"8400621"},{"coordinate":{"lat":52.09896,"lng":5.06523},"countryCode":"NL","name":"Utrecht Leidsche Rijn","stationCode":"UTLR","uicCode":"8400607"},{"coordinate":{"lat":52.1000753,"lng":5.0439547},"countryCode":"NL","name":"Utrecht Terwijde","stationCode":"UTT","uicCode":"8400614"},{"coordinate":{"lat":52.103056,"lng":5.007404},"countryCode":"NL","name":"Vleuten","stationCode":"VTN","uicCode":"8400651"},{"coordinate":{"lat":52.0849990844727,"lng":4.89361095428467},"countryCode":"NL","name":"Woerden","stationCode":"WD","uicCode":"8400702"},{"coordinate":{"lat":52.0149993896484,"lng":4.7408332824707},"countryCode":"NL","name":"Gouda Goverwelle","stationCode":"GDG","uicCode":"8400257"},{"coordinate":{"lat":52.0175018310547,"lng":4.70444440841675},"countryCode":"NL","name":"Gouda","stationCode":"GD","uicCode":"8400258"}],"direction":"BOTH","operators":["NS"]},"description":"minder Intercity's","level":"LESS_TRAINS"},"sectionType":"NL"}],"summaryAdditionalTravelTime":{"label":"De extra reistijd is ongeveer 45 minuten.","shortLabel":"Extra reistijd 45 min.","minimumDurationInMinutes":45,"maximumDurationInMinutes":45},"timespans":[{"start":"2026-01-25T05:00:00+0100","end":"2026-01-26T02:00:00+0100","period":"Zondag 25 januari 2026 5:00 uur t/m maandag 26 januari 2026 2:00 uur.","situation":{"label":"Door werkzaamheden: tussen Rotterdam Centraal en Gouda rijden er bussen en tussen Utrecht Centraal en Gouda rijden er minder Intercity's."},"cause":{"label":"werkzaamheden","type":"OTHER"},"additionalTravelTime":{"label":"De extra reistijd is ongeveer 45 minuten.","shortLabel":"Extra reistijd 45 min.","minimumDurationInMinutes":45,"maximumDurationInMinutes":45},"alternativeTransport":{"label":"er rijden stopbussen","shortLabel":"er rijden stopbussen"},"advices":["Tussen Rotterdam C. en Utrecht C. reis via Den Haag C."]}],"alternativeTransportTimespans":[{"start":"2026-01-25T05:00:00+0100","end":"2026-01-26T02:00:00+0100","alternativeTransport":{"location":[{"station":{"coordinate":{"lat":51.9249992370605,"lng":4.46888875961304},"countryCode":"NL","name":"Rotterdam Centraal","stationCode":"RTD","uicCode":"8400530"},"description":"vanaf de Conradstraat aan de centrumzijde"},{"station":{"coordinate":{"lat":51.9422225952148,"lng":4.48166656494141},"countryCode":"NL","name":"Rotterdam Noord","stationCode":"RTN","uicCode":"8400531"},"description":"vanaf de Bergweg onder het viaduct"},