[{"type":"DISRUPTION","id":"6057009","title":"Arnhem - Duisburg - Düsseldorf.","isActive":true,"topic":"disruption_6057009_nl","local":false,"titleSections":[[{"type":"STATION","value":"Arnhem C."},{"type":"ICON","value":"DISRUPTION"},{"type":"STATION","value":"Emmerich"},{"type":"STATION","value":"Düsseldorf Hbf"}]],"registrationTime":"2025-06-18T04:56:09+0200","releaseTime":"2025-06-18T04:56:09+0200","start":"2025-06-18T04:51:59+0200","end":"2025-06-18T23:00:00+0200","phase":{"id":"3","label":"Vervangend vervoer"},"impact":{"value":2},"expectedDuration":{"description":"Dit duurt tot ongeveer 23:00 uur.","endTime":"2025-06-18T23:00:00+0200"},"publicationSections":[{"section":{"stations":[{"coordinate":{"lat":51.9850006103516,"lng":5.89916658401489},"countryCode":"NL","name":"Arnhem Centraal","stationCode":"AH","uicCode":"8400071"},{"coordinate":{"lat":51.985279083252,"lng":5.91944456100464},"countryCode":"NL","name":"Arnhem Velperpoort","stationCode":"AHP","uicCode":"8400072"},{"coordinate":{"lat":51.96286,"lng":5.9695},"countryCode":"NL","name":"Westervoort","stationCode":"WTV","uicCode":"8400688"},{"coordinate":{"lat":51.9433326721191,"lng":6.01472234725952},"countryCode":"NL","name":"Duiven","stationCode":"DVN","uicCode":"8400193"},{"coordinate":{"lat":51.9230537414551,"lng":6.07194423675537},"countryCode":"NL","name":"Zevenaar","stationCode":"ZV","uicCode":"8400735"},{"coordinate":{"lat":51.8743,"lng":6.15417},"countryCode":"D","name":"Emmerich-Elten","stationCode":"EL","uicCode":"8033415"},{"coordinate":{"lat":51.834283,"lng":6.255718},"countryCode":"D","name":"Emmerich","stationCode":"EM","uicCode":"8010288"},{"coordinate":{"lat":51.655833,"lng":6.627222},"countryCode":"D","name":"Wesel","stationCode":"WESEL","uicCode":"8010275"},{"coordinate":{"lat":51.47512,"lng":6.852038},"countryCode":"D","name":"Oberhausen Hbf","stationCode":"OBERH","uicCode":"8010263"},{"coordinate":{"lat":51.4297785713316,"lng":6.77590370178222},"countryCode":"D","name":"Duisburg Hbf","stationCode":"DUISB","uicCode":"8010316"},{"coordinate":{"lat":51.292009,"lng":6.786836},"countryCode":"D","name":"Düsseldorf Flughafen","stationCode":"KDFFH","uicCode":"8039904"},{"coordinate":{"lat":51.220146,"lng":6.793137},"countryCode":"D","name":"Düsseldorf Hbf","stationCode":"DUSSEL","uicCode":"8008094"}],"direction":"BOTH","operators":["VIAS"]},"consequence":{"section":{"stations":[{"coordinate":{"lat":51.9850006103516,"lng":5.89916658401489},"countryCode":"NL","name":"Arnhem Centraal","stationCode":"AH","uicCode":"8400071"},{"coordinate":{"lat":51.985279083252,"lng":5.91944456100464},"countryCode":"NL","name":"Arnhem Velperpoort","stationCode":"AHP","uicCode":"8400072"},{"coordinate":{"lat":51.96286,"lng":5.9695},"countryCode":"NL","name":"Westervoort","stationCode":"WTV","uicCode":"8400688"},{"coordinate":{"lat":51.9433326721191,"lng":6.01472234725952},"countryCode":"NL","name":"Duiven","stationCode":"DVN","uicCode":"8400193"},{"coordinate":{"lat":51.9230537414551,"lng":6.07194423675537},"countryCode":"NL","name":"Zevenaar","stationCode":"ZV","uicCode":"8400735"},{"coordinate":{"lat":51.8743,"lng":6.15417},"countryCode":"D","name":"Emmerich-Elten","stationCode":"EL","uicCode":"8033415"},{"coordinate":{"lat":51.834283,"lng":6.255718},"countryCode":"D","name":"Emmerich","stationCode":"EM","uicCode":"8010288"}],"direction":"BOTH","operators":["VIAS"]},"description":"minder stoptreinen","level":"LESS_TRAINS"},"sectionType":"NEIGHBORING_COUNTRY"}],"summaryAdditionalTravelTime":{"label":"De extra reistijd kan oplopen tot 45 minuten.","shortLabel":"Extra reistijd tot 45 min.","maximumDurationInMinutes":45},"timespans":[{"start":"2025-06-18T04:51:59+0200","end":"2025-06-18T23:00:00+0200","period":"Woensdag 18 juni 4:51 uur t/m woensdag 18 juni 23:00 uur.","situation":{"label":"Door beperkingen in de materieelinzet: tussen Arnhem Centraal en Emmerich rijden er minder stoptreinen."},"cause":{"label":"beperkingen materieel"},"additionalTravelTime":{"label":"De extra reistijd kan oplopen tot 45 minuten.","shortLabel":"Extra reistijd tot 45 min.","maximumDurationInMinutes":45},"alternativeTransport":{"label":"er rijden ook bussen","shortLabel":"er rijden ook bussen"},"advices":[]}],"alternativeTransportTimespans":[{"start":"2025-06-18T04:51:59+0200","end":"2025-06-18T23:00:00+0200","alternativeTransport":{"location":[{"station":{"coordinate":{"lat":51.9850006103516,"lng":5.89916658401489},"countryCode":"NL","name":"Arnhem Centraal","stationCode":"AH","uicCode":"8400071"},"description":"vanaf bushalte L of H"},{"station":{"coordinate":{"lat":51.9230537414551,"lng":6.07194423675537},"countryCode":"NL","name":"Zevenaar","stationCode":"ZV","uicCode":"8400735"},"description":"vanaf het stationsplein bij de Kiss & Ride plaatsen, aan beide zijden van de weg"},{"station":{"coordinate":{"lat":51.8743,"lng":6.15417},"countryCode":"D","name":"Emmerich-Elten","stationCode":"EL","uicCode":"8033415"},"description":"volg de aanwijzingen op het station"},{"station":{"coordinate":{"lat":51.834283,"lng":6.255718},"countryCode":"D","name":"Emmerich","stationCode":"EM","uicCode":"8010288"},"description":"volg de aanwijzingen op het station"}],"label":"Er rijden ook bussen tussen Arnhem Centraal, Zevenaar, Emmerich-Elten en Emmerich.","shortLabel":"Er rijden ook bussen Arnhem C. - Zevenaar - Emmerich-Elten - Emmerich."}}]},{"type":"DISRUPTION","id":"6057014","title":"Leiden - Den Haag.","isActive":true,"topic":"disruption_6057014_nl","local":false,"titleSections":[[{"type":"STATION","value":"Leiden C."},{"type":"ICON","value":"DISRUPTION"},{"type":"STATION","value":"Den Haag C."}]],"registrationTime":"2025-06-18T13:43:36+0200","releaseTime":"2025-06-18T13:43:36+0200","start":"2025-06-18T12:30:48+0200","end":"2025-06-18T14:45:00+0200","phase":{"id":"2","label":"Impact bekend"},"impact":{"value":2},"expectedDuration":{"description":"Dit duurt tot ongeveer 14:45 uur.","endTime":"2025-06-18T14:45:00+0200"},"publicationSections":[{"section":{"stations":[{"coordinate":{"lat":52.1661109924316,"lng":4.48166656494141},"countryCode":"NL","name":"Leiden Centraal","stationCode":"LEDN","uicCode":"8400390"},{"coordinate":{"lat":52.1472206115723,"lng":4.4563889503479},"countryCode":"NL","name":"De Vink","stationCode":"DVNK","uicCode":"8400188"},{"coordinate":{"lat":52.1252784729004,"lng":4.43249988555908},"countryCode":"NL","name":"Voorschoten","stationCode":"VST","uicCode":"8400659"},{"coordinate":{"lat":52.0905570983887,"lng":4.36944437026978},"countryCode":"NL","name":"Den Haag Mariahoeve","stationCode":"GVM","uicCode":"8400278"},{"coordinate":{"lat":52.0786094665527,"lng":4.34277772903442},"countryCode":"NL","name":"Den Haag Laan v NOI","stationCode":"LAA","uicCode":"8400380"},{"coordinate":{"lat":52.0802764892578,"lng":4.32499980926514},"countryCode":"NL","name":"Den Haag Centraal","stationCode":"GVC","uicCode":"8400282"}],"direction":"BOTH","operators":["NS"]},"consequence":{"section":{"stations":[{"coordinate":{"lat":52.1661109924316,"lng":4.48166656494141},"countryCode":"NL","name":"Leiden Centraal","stationCode":"LEDN","uicCode":"8400390"},{"coordinate":{"lat":52.1472206115723,"lng":4.4563889503479},"countryCode":"NL","name":"De Vink","stationCode":"DVNK","uicCode":"8400188"},{"coordinate":{"lat":52.1252784729004,"lng":4.43249988555908},"countryCode":"NL","name":"Voorschoten","stationCode":"VST","uicCode":"8400659"},{"coordinate":{"lat":52.0905570983887,"lng":4.36944437026978},"countryCode":"NL","name":"Den Haag Mariahoeve","stationCode":"GVM","uicCode":"8400278"},{"coordinate":{"lat":52.0786094665527,"lng":4.34277772903442},"countryCode":"NL","name":"Den Haag Laan v NOI","stationCode":"LAA","uicCode":"8400380"},{"coordinate":{"lat":52.0802764892578,"lng":4.32499980926514},"countryCode":"NL","name":"Den Haag Centraal","stationCode":"GVC","uicCode":"8400282"}],"direction":"BOTH","operators":["NS"]},"description":"minder Intercity's","level":"LESS_TRAINS"},"sectionType":"NL"}],"summaryAdditionalTravelTime":{"label":"De extra reistijd kan oplopen tot 15 minuten.","shortLabel":"Extra reistijd tot 15 min.","maximumDurationInMinutes":15},"timespans":[{"start":"2025-06-18T12:30:48+0200","end":"2025-06-18T14:45:00+0200","period":"Woensdag 18 juni 12:30 uur t/m woensdag 18 juni 14:45 uur.","situation":{"label":"Door een beschadigde bovenleiding: tussen Leiden Centraal en Den Haag Centraal rijden er minder Intercity's."},"cause":{"label":"beschadigde bovenleiding"},"additionalTravelTime":{"label":"De extra reistijd kan oplopen tot 15 minuten.","shortLabel":"Extra reistijd tot 15 min.","maximumDurationInMinutes":15},"advices":[]}],"alternativeTransportTimespans":[]},{"type":"DISRUPTION","id":"6057013","title":"Amsterdam - Haarlem - Leiden.","isActive":true,"topic":"disruption_6057013_nl","local":false,"titleSections":[[{"type":"STATION","value":"Amsterdam C."},{"type":"STATION","value":"Haarlem"},{"type":"ICON","value":"DISRUPTION"},{"type":"STATION","value":"Voorhout"},{"type":"STATION","value":"Leiden C."}]],"registrationTime":"2025-06-18T13:43:40+0200","releaseTime":"2025-06-18T13:43:40+0200","start":"2025-06-18T12:30:48+0200","end":"2025-06-18T14:45:00+0200","phase":{"id":"2","label":"Impact bekend"},"impact":{"value":2},"expectedDuration":{"description":"Dit duurt tot ongeveer 14:45 uur.","endTime":"2025-06-18T14:45:00+0200"},"publicationSections":[{"section":{"stations":[{"coordinate":{"lat":52.3788871765137,"lng":4.90027761459351},"countryCode":"NL","name":"Amsterdam Centraal","stationCode":"ASD","uicCode":"8400058"},{"coordinate":{"lat":52.3888893127441,"lng":4.83777761459351},"countryCode":"NL","name":"Amsterdam Sloterdijk","stationCode":"ASS","uicCode":"8400059"},{"coordinate":{"lat":52.385935,"lng":4.747165},"countryCode":"NL","name":"Halfweg-Zwanenburg","stationCode":"HWZB","uicCode":"8400400"},{"coordinate":{"lat":52.3827781677246,"lng":4.67305564880371},"countryCode":"NL","name":"Haarlem Spaarnwoude","stationCode":"HLMS","uicCode":"8400270"},{"coordinate":{"lat":52.3877792358398,"lng":4.63833332061768},"countryCode":"NL","name":"Haarlem","stationCode":"HLM","uicCode":"8400285"},{"coordinate":{"lat":52.3591651916504,"lng":4.60666656494141},"countryCode":"NL","name":"Heemstede-Aerdenhout","stationCode":"HAD","uicCode":"8400302"},{"coordinate":{"lat":52.3025016784668,"lng":4.56555557250977},"countryCode":"NL","name":"Hillegom","stationCode":"HIL","uicCode":"8400329"},{"coordinate":{"lat":52.2244453430176,"lng":4.4844446182251},"countryCode":"NL","name":"Voorhout","stationCode":"VH","uicCode":"8400655"},{"coordinate":{"lat":52.1661109924316,"lng":4.48166656494141},"countryCode":"NL","name":"Leiden Centraal","stationCode":"LEDN","uicCode":"8400390"}],"direction":"BOTH","operators":["NS"]},"consequence":{"section":{"stations":[{"coordinate":{"lat":52.3877792358398,"lng":4.63833332061768},"countryCode":"NL","name":"Haarlem","stationCode":"HLM","uicCode":"8400285"},{"coordinate":{"lat":52.3591651916504,"lng":4.60666656494141},"countryCode":"NL","name":"Heemstede-Aerdenhout","stationCode":"HAD","uicCode":"8400302"},{"coordinate":{"lat":52.3025016784668,"lng":4.56555557250977},"countryCode":"NL","name":"Hillegom","stationCode":"HIL","uicCode":"8400329"},{"coordinate":{"lat":52.2244453430176,"lng":4.4844446182251},"countryCode":"NL","name":"Voorhout","stationCode":"VH","uicCode":"8400655"}],"direction":"BOTH","operators":["NS"]},"description":"veel minder treinen","level":"LESS_TRAINS"},"sectionType":"NL"}],"timespans":[{"start":"2025-06-18T12:30:48+0200","end":"2025-06-18T14:45:00+0200","period":"Woensdag 18 juni 12:30 uur t/m woensdag 18 juni 14:45 uur.","situation":{"label":"Door een beschadigde bovenleiding: tussen Haarlem en Voorhout rijden er veel minder treinen."},"cause":{"label":"beschadigde bovenleiding"},"advices":[]}],"alternativeTransportTimespans":[]},{"type":"CALAMITY","id":"f1252da9-b7e2-4f25-b419-0f1b88117d80","title":"’s-Hertogenbosch-Boxtel/Tilburg van za 21 t/m zo 22 juni","isActive":true,"topic":"disruption_f1252da9-b7e2-4f25-b419-0f1b88117d80_nl","description":"Door werkzaamheden van zaterdag 21 t/m zondag 22 juni rijden er tussen ’s-Hertogenbosch-Boxtel/Tilburg geen treinen maar bussen. NS zet bussen in. Plan je reis vooraf.","url":"https://www.ns.nl/reisinformatie/calamiteiten/s-hertogenbosch-boxtel-tilburg-van-za-21-t-m-zo-22-juni.html","priority":"PRIO_3","lastUpdated":"2025-06-18T04:00:00+0200","bodyItems":[],"buttons":{"position":["BOTTOM"],"items":[{"label":"Plan je reis","accessibilityLabel":"Plan je reis","url":"https://www.ns.nl/reisplanner","type":"PLANNER"}]}},{"type":"MAINTENANCE","id":"7004492","title":"Groningen - Leer.","isActive":true,"local":false,"titleSections":[[{"type":"STATION","value":"Groningen"},{"type":"STATION","value":"Bad Nieuweschans"},{"type":"ICON","value":"MAINTENANCE"},{"type":"STATION","value":"Weener"},{"type":"STATION","value":"Leer (Ostfr.)"}]],"registrationTime":"2025-04-03T10:55:48+0200","start":"2024-02-01T04:00:00+0100","releaseTime":"2025-04-03T10:55:48+0200","end":"2025-12-13T23:59:00+0100","period":"Donderdag 1 februari 2024 4:00 uur t/m zaterdag 13 december 23:59 uur.","impact":{"value":3},"publicationSections":[{"section":{"stations":[{"coordinate":{"lat":53.2105560302734,"lng":6.56472206115723},"countryCode":"NL","name":"Groningen","stationCode":"GN","uicCode":"8400263"},{"coordinate":{"lat":53.20480027,"lng":6.5854178},"countryCode":"NL","name":"Groningen Europapark","stationCode":"GERP","uicCode":"8400238"},{"coordinate":{"lat":53.1617362,"lng":6.7220882},"countryCode":"NL","name":"Kropswolde","stationCode":"KW","uicCode":"8400369"},{"coordinate":{"lat":53.1607232,"lng":6.7402989},"countryCode":"NL","name":"Martenshoek","stationCode":"MTH","uicCode":"8400430"},{"coordinate":{"lat":53.1598181316756,"lng":6.77075386047363},"countryCode":"NL","name":"Hoogezand-Sappemeer","stationCode":"HGZ","uicCode":"8400331"},{"coordinate":{"lat":53.1596122800056,"lng":6.8679141998291},"countryCode":"NL","name":"Zuidbroek","stationCode":"ZB","uicCode":"8400742"},{"coordinate":{"lat":53.1655362,"lng":6.9777775},"countryCode":"NL","name":"Scheemda","stationCode":"SDA","uicCode":"8400551"},{"coordinate":{"lat":53.1392377,"lng":7.035101},"countryCode":"NL","name":"Winschoten","stationCode":"WS","uicCode":"8400696"},{"coordinate":{"lat":53.1844,"lng":7.19937},"countryCode":"NL","name":"Bad Nieuweschans","stationCode":"NSCH","uicCode":"8400457"},{"coordinate":{"lat":53.16311,"lng":7.3442},"countryCode":"D","name":"Weener","stationCode":"WR","uicCode":"8021239"},{"coordinate":{"lat":53.23165,"lng":7.465283},"countryCode":"D","name":"Leer (Ostfriesl)","stationCode":"LEER","uicCode":"8021091"}],"direction":"BOTH","operators":["Arriva"]},"consequence":{"section":{"stations":[{"coordinate":{"lat":53.1844,"lng":7.19937},"countryCode":"NL","name":"Bad Nieuweschans","stationCode":"NSCH","uicCode":"8400457"},{"coordinate":{"lat":53.16311,"lng":7.3442},"countryCode":"D","name":"Weener","stationCode":"WR","uicCode":"8021239"}],"direction":"BOTH","operators":["Arriva"]},"description":"er rijden bussen","level":"LESS_TRAINS"},"sectionType":"NEIGHBORING_COUNTRY"}],"summaryAdditionalTravelTime":{"label":"De extra reistijd kan oplopen tot 30 minuten.","shortLabel":"Extra reistijd tot 30 min.","maximumDurationInMinutes":30},"timespans":[{"start":"2024-02-01T04:00:00+0100","end":"2025-12-13T23:59:00+0100","period":"Donderdag 1 februari 2024 4:00 uur t/m zaterdag 13 december 23:59 uur.","situation":{"label":"Door een aangepaste dienstregeling: tussen Bad Nieuweschans en Weener rijden er bussen."},"cause":{"label":"aangepaste dienstregeling"},"additionalTravelTime":{"label":"De extra reistijd kan oplopen tot 30 minuten.","shortLabel":"Extra reistijd tot 30 min.","maximumDurationInMinutes":30},"alternativeTransport":{"label":"er rijden stopbussen","shortLabel":"er rijden stopbussen"},"advices":[]}],"alternativeTransportTimespans":[{"start":"2024-02-01T04:00:00+0100","end":"2025-12-13T23:59:00+0100","alternativeTransport":{"location":[{"station":{"coordinate":{"lat":53.1844,"lng":7.19937},"countryCode":"NL","name":"Bad Nieuweschans","stationCode":"NSCH","uicCode":"8400457"},"description":"vanaf de voorzijde van het station"},{"station":{"coordinate":{"lat":53.16311,"lng":7.3442},"countryCode":"D","name":"Weener","stationCode":"WR","uicCode":"8021239"},"description":"vanaf de voorzijde van het station"},{"station":{"coordinate":{"lat":53.23165,"lng":7.465283},"countryCode":"D","name":"Leer (Ostfriesl)","stationCode":"LEER","uicCode":"8021091"},"description":"vanaf het busstation"}],"label":"Er rijden stopbussen tussen Bad Nieuweschans, Weener en Leer (Ostfriesl).","shortLabel":"Er rijden stopbussen Bad Nieuweschans - Weener - Leer (Ostfr.)."}}]},{"type":"MAINTENANCE","id":"7006147","title":"Zwolle - Groningen; Groningen - Bad Nieuweschans; Groningen - Veendam.","isActive":true,"local":false,"titleSections":[[{"type":"STATION","value":"Groningen"},{"type":"ICON","value":"MAINTENANCE"},{"type":"STATION","value":"Europapark"},{"type":"STATION","value":"Bad Nieuweschans"}],[{"type":"STATION","value":"Zwolle"},{"type":"STATION","value":"Europapark"},{"type":"ICON","value":"MAINTENANCE"},{"type":"STATION","value":"Groningen"}],[{"type":"STATION","value":"Groningen"},{"type":"ICON","value":"MAINTENANCE"},{"type":"STATION","value":"Europapark"},{"type":"STATION","value":"Veendam"}]],"registrationTime":"2025-06-07T03:51:36+0200","start":"2025-05-10T00:40:00+0200","releaseTime":"2025-06-07T03:51:36+0200","end":"2025-07-13T02:00:00+0200","period":"Zaterdag 10 mei 0:40 uur t/m zondag 13 juli 2:00 uur.","impact":{"value":5},"publicationSections":[{"section":{"stations":[{"coordinate":{"lat":53.2105560302734,"lng":6.56472206115723},"countryCode":"NL","name":"Groningen","stationCode":"GN","uicCode":"8400263"},{"coordinate":{"lat":53.20480027,"lng":6.5854178},"countryCode":"NL","name":"Groningen Europapark","stationCode":"GERP","uicCode":"8400238"},{"coordinate":{"lat":53.1617362,"lng":6.7220882},"countryCode":"NL","name":"Kropswolde","stationCode":"KW","uicCode":"8400369"},{"coordinate":{"lat":53.1607232,"lng":6.7402989},"countryCode":"NL","name":"Martenshoek","stationCode":"MTH","uicCode":"8400430"},{"coordinate":{"lat":53.1598181316756,"lng":6.77075386047363},"countryCode":"NL","name":"Hoogezand-Sappemeer","stationCode":"HGZ","uicCode":"8400331"},{"coordinate":{"lat":53.1596122800056,"lng":6.8679141998291},"countryCode":"NL","name":"Zuidbroek","stationCode":"ZB","uicCode":"8400742"},{"coordinate":{"lat":53.1655362,"lng":6.9777775},"countryCode":"NL","name":"Scheemda","stationCode":"SDA","uicCode":"8400551"},{"coordinate":{"lat":53.1392377,"lng":7.035101},"countryCode":"NL","name":"Winschoten","stationCode":"WS","uicCode":"8400696"},{"coordinate":{"lat":53.1844,"lng":7.19937},"countryCode":"NL","name":"Bad Nieuweschans","stationCode":"NSCH","uicCode":"8400457"}],"direction":"BOTH","operators":["Arriva"]},"consequence":{"section":{"stations":[{"coordinate":{"lat":53.2105560302734,"lng":6.56472206115723},"countryCode":"NL","name":"Groningen","stationCode":"GN","uicCode":"8400263"},{"coordinate":{"lat":53.20480027,"lng":6.5854178},"countryCode":"NL","name":"Groningen Europapark","stationCode":"GERP","uicCode":"8400238"}],"direction":"BOTH","operators":["Arriva"]},"description":"er rijden bussen","level":"LESS_TRAINS"},"sectionType":"NL"},{"section":{"stations":[{"coordinate":{"lat":52.5047225952148,"lng":6.09194421768188},"countryCode":"NL","name":"Zwolle","stationCode":"ZL","uicCode":"8400747"},{"coordinate":{"lat":52.6908340454102,"lng":6.19750022888184},"countryCode":"NL","name":"Meppel","stationCode":"MP","uicCode":"8400435"},{"coordinate":{"lat":52.7338905334473,"lng":6.47361087799072},"countryCode":"NL","name":"Hoogeveen","stationCode":"HGV","uicCode":"8400330"},{"coordinate":{"lat":52.8547210693359,"lng":6.52111101150513},"countryCode":"NL","name":"Beilen","stationCode":"BL","uicCode":"8400100"},{"coordinate":{"lat":52.9916648864746,"lng":6.57083320617676},"countryCode":"NL","name":"Assen","stationCode":"ASN","uicCode":"8400073"},{"coordinate":{"lat":53.1761093139648,"lng":6.61722230911255},"countryCode":"NL","name":"Haren","stationCode":"HRN","uicCode":"8400297"},{"coordinate":{"lat":53.20480027,"lng":6.5854178},"countryCode":"NL","name":"Groningen Europapark","stationCode":"GERP","uicCode":"8400238"},{"coordinate":{"lat":53.2105560302734,"lng":6.56472206115723},"countryCode":"NL","name":"Groningen","stationCode":"GN","uicCode":"8400263"}],"direction":"BOTH","operators":["NS"]},"consequence":{"section":{"stations":[{"coordinate":{"lat":53.20480027,"lng":6.5854178},"countryCode":"NL","name":"Groningen Europapark","stationCode":"GERP","uicCode":"8400238"},{"coordinate":{"lat":53.2105560302734,"lng":6.56472206115723},"countryCode":"NL","name":"Groningen","stationCode":"GN","uicCode":"8400263"}],"direction":"BOTH","operators":["NS"]},"description":"er rijden bussen","level":"LESS_TRAINS"},"sectionType":"NL"},{"section":{"stations":[{"coordinate":{"lat":53.2105560302734,"lng":6.56472206115723},"countryCode":"NL","name":"Groningen","stationCode":"GN","uicCode":"8400263"},{"coordinate":{"lat":53.20480027,"lng":6.5854178},"countryCode":"NL","name":"Groningen Europapark","stationCode":"GERP","uicCode":"8400238"},{"coordinate":{"lat":53.1617362,"lng":6.7220882},"countryCode":"NL","name":"Kropswolde","stationCode":"KW","uicCode":"8400369"},{"coordinate":{"lat":53.1607232,"lng":6.7402989},"countryCode":"NL","name":"Martenshoek","stationCode":"MTH","uicCode":"8400430"},{"coordinate":{"lat":53.1598181316756,"lng":6.77075386047363},"countryCode":"NL","name":"Hoogezand-Sappemeer","stationCode":"HGZ","uicCode":"8400331"},{"coordinate":{"lat":53.1596122800056,"lng":6.8679141998291},"countryCode":"NL","name":"Zuidbroek","stationCode":"ZB","uicCode":"8400742"},{"coordinate":{"lat":53.10324,"lng":6.88475},"countryCode":"NL","name":"Veendam","stationCode":"VDM","uicCode":"8400636"}],"direction":"BOTH","operators":["Arriva"]},"consequence":{"section":{"stations":[{"coordinate":{"lat":53.2105560302734,"lng":6.56472206115723},"countryCode":"NL","name":"Groningen","stationCode":"GN","uicCode":"8400263"},{"coordinate":{"lat":53.20480027,"lng":6.5854178},"countryCode":"NL","name":"Groningen Europapark","stationCode":"GERP","uicCode":"8400238"}],"direction":"BOTH","operators":["Arriva"]},"description":"er rijden bussen","level":"LESS_TRAINS"},"sectionType":"NL"}],"summaryAdditionalTravelTime":{"label":"De extra reistijd kan oplopen tot 30 minuten.","shortLabel":"Extra reistijd tot 30 min.","maximumDurationInMinutes":30},"timespans":[{"start":"2025-05-10T00:40:00+0200","end":"2025-07-13T02:00:00+0200","period":"Zaterdag 10 mei 0:40 uur t/m zondag 13 juli 2:00 uur.","situation":{"label":"Door werkzaamheden: tussen Groningen Europapark en Groningen rijden er bussen."},"cause":{"label":"werkzaamheden"},"additionalTravelTime":{"label":"De extra reistijd kan oplopen tot 30 minuten.","shortLabel":"Extra reistijd tot 30 min.","maximumDurationInMinutes":30},"alternativeTransport":{"label":"er rijden stop- en snelbussen","shortLabel":"er rijden stop- en snelbussen"},"advices":["Tijdens deze periode rijden er in verschillende fases geen treinen van en naar station Groningen. NS en Arriva zetten bussen in."]}],"alternativeTransportTimespans":[{"start":"2025-05-10T00:40:00+0200","end":"2025-07-13T02:00:00+0200","alternativeTransport":{"location":[{"station":{"coordinate":{"lat":53.20480027,"lng":6.5854178},"countryCode":"NL","name":"Groningen Europapark","stationCode":"GERP","uicCode":"8400238"},"description":"vanaf de bushalte"},{"station":{"coordinate":{"lat":53.2105560302734,"lng":6.56472206115723},"countryCode":"NL","name":"Groningen","stationCode":"GN","uicCode":"8400263"},"description":"vanaf het Emmaplein"}],"label":"Er rijden snelbussen tussen Groningen Europapark en Groningen.","shortLabel":"Er rijden snelbussen Europapark - Groningen."}},{"start":"2025-06-14T00:53:00+0200","end":"2025-06-14T02:30:00+0200","alternativeTransport":{"location":[{"station":{"coordinate":{"lat":52.9916648864746,"lng":6.57083320617676},"countryCode":"NL","name":"Assen","stationCode":"ASN","uicCode":"8400073"},"description":"vanaf het busstation"},{"station":{"coordinate":{"lat":53.2105560302734,"lng":6.56472206115723},"countryCode":"NL","name":"Groningen","stationCode":"GN","uicCode":"8400263"},"description":"vanaf het Emmaplein"}],"label":"Er rijden snelbussen van Assen naar Groningen.","shortLabel":"Er rijden snelbussen Assen -> Groningen."}},{"start":"2025-06-14T00:58:00+0200","end":"2025-06-14T03:13:00+0200","alternativeTransport":{"location":[{"station":{"coordinate":{"lat":52.9916648864746,"lng":6.57083320617676},"countryCode":"NL","name":"Assen","stationCode":"ASN","uicCode":"8400073"},"description":"vanaf het busstation"},{"station":{"coordinate":{"lat":53.1761093139648,"lng":6.61722230911255},"countryCode":"NL","name":"Haren","stationCode":"HRN","uicCode":"8400297"},"description":"vanaf de doorgaande weg"},{"station":{"coordinate":{"lat":53.20480027,"lng":6.5854178},"countryCode":"NL","name":"Groningen Europapark","stationCode":"GERP","uicCode":"8400238"},"description":"vanaf de bushalte"},{"station":{"coordinate":{"lat":53.2105560302734,"lng":6.56472206115723},"countryCode":"NL","name":"Groningen","stationCode":"GN","uicCode":"8400263"},"description":"vanaf het Emmaplein"}],"label":"Er rijden stopbussen tussen Assen, Haren, Groningen Europapark en Groningen.","shortLabel":"Er rijden stopbussen Assen - Haren - Europapark - Groningen."}},{"start":"2025-06-14T01:35:00+0200","end":"2025-06-14T02:18:00+0200","alternativeTransport":{"location":[{"station":{"coordinate":{"lat":52.9916648864746,"lng":6.57083320617676},"countryCode":"NL","name":"Assen","stationCode":"ASN","uicCode":"8400073"},"description":"vanaf het busstation"},{"station":{"coordinate":{"lat":53.1761093139648,"lng":6.61722230911255},"countryCode":"NL","name":"Haren","stationCode":"HRN","uicCode":"8400297"},"description":"vanaf de doorgaande weg"},{"station":{"coordinate":{"lat":53.20480027,"lng":6.5854178},"countryCode":"NL","name":"Groningen Europapark","stationCode":"GERP","uicCode":"8400238"},"description":"vanaf de bushalte"},{"station":{"coordinate":{"lat":53.2105560302734,"lng":6.56472206115723},"countryCode":"NL","name":"Groningen","stationCode":"GN","uicCode":"8400263"},"description":"vanaf het Emmaplein"}],"label":"Er rijden stopbussen van Assen, Haren, Groningen Europapark naar Groningen.","shortLabel":"Er rijden stopbussen Assen -> Haren -> Europapark -> Groningen."}}]},{"type":"MAINTENANCE","id":"7006518","title":"Leeuwarden - Stavoren.","isActive":true,"local":false,"titleSections":[[{"type":"STATION","value":"Leeuwarden"},{"type":"ICON","value":"MAINTENANCE"},{"type":"STATION","value":"Stavoren"}]],"registrationTime":"2025-06-12T17:51:21+0200","start":"2025-06-13T05:15:00+0200","releaseTime":"2025-06-12T17:51:21+0200","end":"2025-06-22T23:30:00+0200","period":"Vrijdag 13 juni 5:15 uur t/m zondag 22 juni 23:30 uur.","impact":{"value":1},"publicationSections":[{"section":{"stations":[{"coordinate":{"lat":53.1958351135254,"lng":5.79222202301025},"countryCode":"NL","name":"Leeuwarden","stationCode":"LW","uicCode":"8400387"},{"coordinate":{"lat":53.1296368,"lng":5.7131996},"countryCode":"NL","name":"Mantgum","stationCode":"MG","uicCode":"8400427"},{"coordinate":{"lat":53.0409319,"lng":5.6631808},"countryCode":"NL","name":"Sneek Noord","stationCode":"SKND","uicCode":"8400574"},{"coordinate":{"lat":53.0328688,"lng":5.6523969},"countryCode":"NL","name":"Sneek","stationCode":"SK","uicCode":"8400566"},{"coordinate":{"lat":53.0146614,"lng":5.6160801},"countryCode":"NL","name":"IJlst","stationCode":"IJT","uicCode":"8400722"},{"coordinate":{"lat":52.9724864,"lng":5.4564285},"countryCode":"NL","name":"Workum","stationCode":"WK","uicCode":"8400706"},{"coordinate":{"lat":52.9464903,"lng":5.423063},"countryCode":"NL","name":"Hindeloopen","stationCode":"HNP","uicCode":"8400323"},{"coordinate":{"lat":52.9028197,"lng":5.4106913},"countryCode":"NL","name":"Koudum-Molkwerum","stationCode":"KMW","uicCode":"8400366"},{"coordinate":{"lat":52.8865535,"lng":5.3600212},"countryCode":"NL","name":"Stavoren","stationCode":"STV","uicCode":"8400575"}],"direction":"ONE_WAY","operators":["Arriva"]},"consequence":{"section":{"stations":[{"coordinate":{"lat":53.1958351135254,"lng":5.79222202301025},"countryCode":"NL","name":"Leeuwarden","stationCode":"LW","uicCode":"8400387"},{"coordinate":{"lat":53.1296368,"lng":5.7131996},"countryCode":"NL","name":"Mantgum","stationCode":"MG","uicCode":"8400427"},{"coordinate":{"lat":53.0409319,"lng":5.6631808},"countryCode":"NL","name":"Sneek Noord","stationCode":"SKND","uicCode":"8400574"},{"coordinate":{"lat":53.0328688,"lng":5.6523969},"countryCode":"NL","name":"Sneek","stationCode":"SK","uicCode":"8400566"},{"coordinate":{"lat":53.0146614,"lng":5.6160801},"countryCode":"NL","name":"IJlst","stationCode":"IJT","uicCode":"8400722"},{"coordinate":{"lat":52.9724864,"lng":5.4564285},"countryCode":"NL","name":"Workum","stationCode":"WK","uicCode":"8400706"},{"coordinate":{"lat":52.9464903,"lng":5.423063},"countryCode":"NL","name":"Hindeloopen","stationCode":"HNP","uicCode":"8400323"},{"coordinate":{"lat":52.9028197,"lng":5.4106913},"countryCode":"NL","name":"Koudum-Molkwerum","stationCode":"KMW","uicCode":"8400366"},{"coordinate":{"lat":52.8865535,"lng":5.3600212},"countryCode":"NL","name":"Stavoren","stationCode":"STV","uicCode":"8400575"}],"direction":"ONE_WAY","operators":["Arriva"]},"description":"dienstregeling aangepast","level":"LESS_TRAINS"},"sectionType":"NL"}],"summaryAdditionalTravelTime":{"label":"U heeft geen langere reistijd.","shortLabel":"Geen extra reistijd."},"timespans":[{"start":"2025-06-13T05:15:00+0200","end":"2025-06-22T23:30:00+0200","period":"Vrijdag 13 juni 5:15 uur t/m zondag 22 juni 23:30 uur.","situation":{"label":"Door werkzaamheden op een station: van Leeuwarden naar Stavoren is de dienstregeling aangepast."},"cause":{"label":"werkzaamheden op station"},"additionalTravelTime":{"label":"U heeft geen langere reistijd.","shortLabel":"Geen extra reistijd."},"advices":[]}],"alternativeTransportTimespans":[]},{"type":"MAINTENANCE","id":"7006387","title":"Enschede - Gronau - Münster.","isActive":true,"local":false,"titleSections":[[{"type":"STATION","value":"Enschede"},{"type":"STATION","value":"Ochtrup"},{"type":"ICON","value":"MAINTENANCE"},{"type":"STATION","value":"Steinfurt-Burgst"},{"type":"STATION","value":"Münster (Westf)"}]],"registrationTime":"2025-06-01T17:12:43+0200","start":"2025-06-13T23:00:00+0200","releaseTime":"2025-06-01T17:12:43+0200","end":"2025-10-09T23:00:00+0200","period":"Vrijdag 13 juni 23:00 uur t/m donderdag 9 oktober 23:00 uur.","impact":{"value":3},"publicationSections":[{"section":{"stations":[{"coordinate":{"lat":52.2224998474121,"lng":6.8899998664856},"countryCode":"NL","name":"Enschede","stationCode":"ES","uicCode":"8400212"},{"coordinate":{"lat":52.2213897705078,"lng":6.95111131668091},"countryCode":"NL","name":"Enschede De Eschmarke","stationCode":"ESE","uicCode":"8400217"},{"coordinate":{"lat":52.2186126708984,"lng":6.97444438934326},"countryCode":"NL","name":"Glanerbrug","stationCode":"GBR","uicCode":"8400262"},{"coordinate":{"lat":52.21521,"lng":7.022109},"countryCode":"D","name":"Gronau (Westf.)","stationCode":"G","uicCode":"8021128"},{"coordinate":{"lat":52.201703,"lng":7.182643},"countryCode":"D","name":"Ochtrup","stationCode":"EOP","uicCode":"8021152"},{"coordinate":{"lat":52.162444,"lng":7.254423},"countryCode":"D","name":"Metelen Land","stationCode":"EMTE","uicCode":"8021151"},{"coordinate":{"lat":52.147384,"lng":7.32934},"countryCode":"D","name":"Steinfurt-Burgsteinfurt","stationCode":"EBFT","uicCode":"8021143"},{"coordinate":{"lat":52.123439,"lng":7.376031},"countryCode":"D","name":"Steinfurt-Grottenkamp","stationCode":"EGRK","uicCode":"8071069"},{"coordinate":{"lat":52.118791,"lng":7.397581},"countryCode":"D","name":"Steinfurt-Borghorst","stationCode":"EBGO","uicCode":"8021150"},{"coordinate":{"lat":52.077618,"lng":7.461706},"countryCode":"D","name":"Nordwalde","stationCode":"ENOW","uicCode":"8021149"},{"coordinate":{"lat":52.05223,"lng":7.481202},"countryCode":"D","name":"Altenberge","stationCode":"EABG","uicCode":"8021148"},{"coordinate":{"lat":52.022327,"lng":7.562668},"countryCode":"D","name":"Münster-Häger","stationCode":"ENBE","uicCode":"8021147"},{"coordinate":{"lat":51.984987,"lng":7.63861},"countryCode":"D","name":"Münster (W) Zentrum Nord","stationCode":"ENHF","uicCode":"8023783"},{"coordinate":{"lat":51.956892,"lng":7.635895},"countryCode":"D","name":"Münster (Westf) Hbf","stationCode":"MUNST","uicCode":"8021011"}],"direction":"BOTH","operators":["DB"]},"consequence":{"section":{"stations":[{"coordinate":{"lat":52.201703,"lng":7.182643},"countryCode":"D","name":"Ochtrup","stationCode":"EOP","uicCode":"8021152"},{"coordinate":{"lat":52.162444,"lng":7.254423},"countryCode":"D","name":"Metelen Land","stationCode":"EMTE","uicCode":"8021151"},{"coordinate":{"lat":52.147384,"lng":7.32934},"countryCode":"D","name":"Steinfurt-Burgsteinfurt","stationCode":"EBFT","uicCode":"8021143"}],"direction":"BOTH","operators":["DB"]},"description":"er rijden bussen","level":"LESS_TRAINS"},"sectionType":"NEIGHBORING_COUNTRY"}],"summaryAdditionalTravelTime":{"label":"De extra reistijd is ongeveer 15 minuten.","shortLabel":"Extra reistijd 15 min.","minimumDurationInMinutes":15,"maximumDurationInMinutes":15},"timespans":[{"start":"2025-06-13T23:00:00+0200","end":"2025-10-09T23:00:00+0200","period":"Vrijdag 13 juni 23:00 uur t/m donderdag 9 oktober 23:00 uur.","situation":{"label":"Door werkzaamheden: tussen Ochtrup en Steinfurt-Burgsteinfurt rijden er bussen."},"cause":{"label":"werkzaamheden"},"additionalTravelTime":{"label":"De extra reistijd is ongeveer 15 minuten.","shortLabel":"Extra reistijd 15 min.","minimumDurationInMinutes":15,"maximumDurationInMinutes":15},"alternativeTransport":{"label":"maak gebruik van het vervangende vervoer","shortLabel":"gebruik het vervangende vervoer"},"advices":["Vanaf Gronau rijdt een bus via Ochtrup naar Steinfurt-Burgsteinfurt. Een taxibus rijdt van/naar Metelen Land. Raadpleeg ook zuginfo.nrw."]}],"alternativeTransportTimespans":[{"start":"2025-06-13T23:00:00+0200","end":"2025-10-09T23:00:00+0200","alternativeTransport":{"location":[{"station":{"coordinate":{"lat":52.21521,"lng":7.022109},"countryCode":"D","name":"Gronau (Westf.)","stationCode":"G","uicCode":"8021128"},"description":"volg de aanwijzingen op het station"},{"station":{"coordinate":{"lat":52.201703,"lng":7.182643},"countryCode":"D","name":"Ochtrup","stationCode":"EOP","uicCode":"8021152"},"description":"volg de aanwijzingen op het station"},{"station":{"coordinate":{"lat":52.147384,"lng":7.32934},"countryCode":"D","name":"Steinfurt-Burgsteinfurt","stationCode":"EBFT","uicCode":"8021143"},"description":"volg de aanwijzingen op het station"}],"label":"Er rijden stopbussen tussen Gronau (Westf.), Ochtrup en Steinfurt-Burgsteinfurt.","shortLabel":"Er rijden stopbussen Gronau (Westf.) - Ochtrup - Steinfurt-Burgst."}},{"start":"2025-06-13T23:00:00+0200","end":"2025-10-09T23:00:00+0200","alternativeTransport":{"location":[{"station":{"coordinate":{"lat":52.201703,"lng":7.182643},"countryCode":"D","name":"Ochtrup","stationCode":"EOP","uicCode":"8021152"},"description":"volg de aanwijzingen op het station"},{"station":{"coordinate":{"lat":52.162444,"lng":7.254423},"countryCode":"D","name":"Metelen Land","stationCode":"EMTE","uicCode":"8021151"},"description":"volg de aanwijzingen op het station"}],"label":"Er rijden taxibusjes tussen Ochtrup en Metelen Land.","shortLabel":"Er rijden taxibusjes Ochtrup - Metelen Land."}},{"start":"2025-06-13T23:00:00+0200","end":"2025-10-09T23:00:00+0200","alternativeTransport":{"location":[{"station":{"coordinate":{"lat":52.147384,"lng":7.32934},"countryCode":"D","name":"Steinfurt-Burgsteinfurt","stationCode":"EBFT","uicCode":"8021143"},"description":"volg de aanwijzingen op het station"},{"station":{"coordinate":{"lat":52.162444,"lng":7.254423},"countryCode":"D","name":"Metelen Land","stationCode":"EMTE","uicCode":"8021151"},"description":"volg de aanwijzingen op het station"}],"label":"Er rijden taxibusjes tussen Steinfurt-Burgsteinfurt en Metelen Land.","shortLabel":"Er rijden taxibusjes Steinfurt-Burgst - Metelen Land."}}]},{"type":"MAINTENANCE","id":"7006197","title":"Groningen - Leeuwarden.","isActive":true,"local":false,"titleSections":[[{"type":"STATION","value":"Groningen"},{"type":"ICON","value":"MAINTENANCE"},{"type":"STATION","value":"Zuidhorn"},{"type":"STATION","value":"Leeuwarden"}]],"registrationTime":"2025-06-10T09:24:37+0200","start":"2025-06-14T04:00:00+0200","releaseTime":"2025-06-10T09:24:37+0200","end":"2025-07-13T02:00:00+0200","period":"Zaterdag 14 juni 4:00 uur t/m zondag 13 juli 2:00 uur.","impact":{"value":3},"publicationSections":[{"section":{"stations":[{"coordinate":{"lat":53.2105560302734,"lng":6.56472206115723},"countryCode":"NL","name":"Groningen","stationCode":"GN","uicCode":"8400263"},{"coordinate":{"lat":53.2486292,"lng":6.4062361},"countryCode":"NL","name":"Zuidhorn","stationCode":"ZH","uicCode":"8400743"},{"coordinate":{"lat":53.2557403255735,"lng":6.30977869033813},"countryCode":"NL","name":"Grijpskerk","stationCode":"GK","uicCode":"8400267"},{"coordinate":{"lat":53.2564547,"lng":6.1446496},"countryCode":"NL","name":"Buitenpost","stationCode":"BP","uicCode":"8400139"},{"coordinate":{"lat":53.24817,"lng":6.03463},"countryCode":"NL","name":"De Westereen","stationCode":"DWE","uicCode":"8400745"},{"coordinate":{"lat":53.2351834,"lng":5.9886615},"countryCode":"NL","name":"Feanwâlden","stationCode":"FWD","uicCode":"8400638"},{"coordinate":{"lat":53.2187783,"lng":5.934543},"countryCode":"NL","name":"Hurdegaryp","stationCode":"HDG","uicCode":"8400292"},{"coordinate":{"lat":53.2021808,"lng":5.8422968},"countryCode":"NL","name":"Leeuwarden Camminghaburen","stationCode":"LWC","uicCode":"8400389"},{"coordinate":{"lat":53.1958351135254,"lng":5.79222202301025},"countryCode":"NL","name":"Leeuwarden","stationCode":"LW","uicCode":"8400387"}],"direction":"BOTH","operators":["Arriva"]},"consequence":{"section":{"stations":[{"coordinate":{"lat":53.2105560302734,"lng":6.56472206115723},"countryCode":"NL","name":"Groningen","stationCode":"GN","uicCode":"8400263"},{"coordinate":{"lat":53.2486292,"lng":6.4062361},"countryCode":"NL","name":"Zuidhorn","stationCode":"ZH","uicCode":"8400743"}],"direction":"BOTH","operators":["Arriva"]},"description":"er rijden bussen","level":"LESS_TRAINS"},"sectionType":"NL"}],"summaryAdditionalTravelTime":{"label":"De extra reistijd is ongeveer 15 minuten.","shortLabel":"Extra reistijd 15 min.","minimumDurationInMinutes":15,"maximumDurationInMinutes":15},"timespans":[{"start":"2025-06-14T04:00:00+0200","end":"2025-07-13T02:00:00+0200","period":"Zaterdag 14 juni 4:00 uur t/m zondag 13 juli 2:00 uur.","situation":{"label":"Door werkzaamheden: tussen Groningen en Zuidhorn rijden er bussen."},"cause":{"label":"werkzaamheden"},"additionalTravelTime":{"label":"De extra reistijd is ongeveer 15 minuten.","shortLabel":"Extra reistijd 15 min.","minimumDurationInMinutes":15,"maximumDurationInMinutes":15},"alternativeTransport":{"label":"er rijden stopbussen","shortLabel":"er rijden stopbussen"},"advices":["Deze werkzaamheden vallen samen met de 64-daagse Groningen-Groningen Europapark."]}],"alternativeTransportTimespans":[{"start":"2025-06-14T04:00:00+0200","end":"2025-07-13T02:00:00+0200","alternativeTransport":{"location":[{"station":{"coordinate":{"lat":53.2105560302734,"lng":6.56472206115723},"countryCode":"NL","name":"Groningen","stationCode":"GN","uicCode":"8400263"},"description":"vanaf het busstation halte AB"},{"station":{"coordinate":{"lat":53.2486292,"lng":6.4062361},"countryCode":"NL","name":"Zuidhorn","stationCode":"ZH","uicCode":"8400743"},"description":"vanaf het busstation"}],"label":"Er rijden stopbussen tussen Groningen en Zuidhorn.","shortLabel":"Er rijden stopbussen Groningen - Zuidhorn."}}]},{"type":"MAINTENANCE","id":"7006208","title":"Groningen - Delfzijl; Groningen - Eemshaven.","isActive":true,"local":false,"titleSections":[[{"type":"STATION","value":"Groningen"},{"type":"ICON","value":"MAINTENANCE"},{"type":"STATION","value":"Eemshaven"}],[{"type":"STATION","value":"Groningen"},{"type":"ICON","value":"MAINTENANCE"},{"type":"STATION","value":"Delfzijl"}]],"registrationTime":"2025-06-10T09:25:37+0200","start":"2025-06-14T04:00:00+0200","releaseTime":"2025-06-10T09:25:37+0200","end":"2025-07-13T02:00:00+0200","period":"Zaterdag 14 juni 4:00 uur t/m zondag 13 juli 2:00 uur.","impact":{"value":4},"publicationSections":[{"section":{"stations":[{"coordinate":{"lat":53.2105560302734,"lng":6.56472206115723},"countryCode":"NL","name":"Groningen","stationCode":"GN","uicCode":"8400263"},{"coordinate":{"lat":53.2301469,"lng":6.5563172},"countryCode":"NL","name":"Groningen Noord","stationCode":"GNN","uicCode":"8400264"},{"coordinate":{"lat":53.29113,"lng":6.5404},"countryCode":"NL","name":"Sauwerd","stationCode":"SWD","uicCode":"8400547"},{"coordinate":{"lat":53.3300994,"lng":6.5202905},"countryCode":"NL","name":"Winsum","stationCode":"WSM","uicCode":"8400697"},{"coordinate":{"lat":53.3608969,"lng":6.5185581},"countryCode":"NL","name":"Baflo","stationCode":"BF","uicCode":"8400089"},{"coordinate":{"lat":53.3908431,"lng":6.5671364},"countryCode":"NL","name":"Warffum","stationCode":"WFM","uicCode":"8400679"},{"coordinate":{"lat":53.4014742,"lng":6.6093776},"countryCode":"NL","name":"Usquert","stationCode":"UST","uicCode":"8400619"},{"coordinate":{"lat":53.4099568,"lng":6.6748869},"countryCode":"NL","name":"Uithuizen","stationCode":"UHZ","uicCode":"8400617"},{"coordinate":{"lat":53.4145845,"lng":6.7202975},"countryCode":"NL","name":"Uithuizermeeden","stationCode":"UHM","uicCode":"8400618"},{"coordinate":{"lat":53.421262,"lng":6.7587},"countryCode":"NL","name":"Roodeschool","stationCode":"RD","uicCode":"8400525"},{"coordinate":{"lat":53.458419,"lng":6.832},"countryCode":"NL","name":"Eemshaven","stationCode":"EEM","uicCode":"8400202"}],"direction":"BOTH","operators":["Arriva"]},"consequence":{"section":{"stations":[{"coordinate":{"lat":53.2105560302734,"lng":6.56472206115723},"countryCode":"NL","name":"Groningen","stationCode":"GN","uicCode":"8400263"},{"coordinate":{"lat":53.2301469,"lng":6.5563172},"countryCode":"NL","name":"Groningen Noord","stationCode":"GNN","uicCode":"8400264"},{"coordinate":{"lat":53.29113,"lng":6.5404},"countryCode":"NL","name":"Sauwerd","stationCode":"SWD","uicCode":"8400547"},{"coordinate":{"lat":53.3300994,"lng":6.5202905},"countryCode":"NL","name":"Winsum","stationCode":"WSM","uicCode":"8400697"},{"coordinate":{"lat":53.3608969,"lng":6.5185581},"countryCode":"NL","name":"Baflo","stationCode":"BF","uicCode":"8400089"},{"coordinate":{"lat":53.3908431,"lng":6.5671364},"countryCode":"NL","name":"Warffum","stationCode":"WFM","uicCode":"8400679"},{"coordinate":{"lat":53.4014742,"lng":6.6093776},"countryCode":"NL","name":"Usquert","stationCode":"UST","uicCode":"8400619"},{"coordinate":{"lat":53.4099568,"lng":6.6748869},"countryCode":"NL","name":"Uithuizen","stationCode":"UHZ","uicCode":"8400617"},{"coordinate":{"lat":53.4145845,"lng":6.7202975},"countryCode":"NL","name":"Uithuizermeeden","stationCode":"UHM","uicCode":"8400618"},{"coordinate":{"lat":53.421262,"lng":6.7587},"countryCode":"NL","name":"Roodeschool","stationCode":"RD","uicCode":"8400525"},{"coordinate":{"lat":53.458419,"lng":6.832},"countryCode":"NL","name":"Eemshaven","stationCode":"EEM","uicCode":"8400202"}],"direction":"BOTH","operators":["Arriva"]},"description":"er rijden bussen","level":"LESS_TRAINS"},"sectionType":"NL"},{"section":{"stations":[{"coordinate":{"lat":53.2105560302734,"lng":6.56472206115723},"countryCode":"NL","name":"Groningen","stationCode":"GN","uicCode":"8400263"},{"coordinate":{"lat":53.2301469,"lng":6.5563172},"countryCode":"NL","name":"Groningen Noord","stationCode":"GNN","uicCode":"8400264"},{"coordinate":{"lat":53.29113,"lng":6.5404},"countryCode":"NL","name":"Sauwerd","stationCode":"SWD","uicCode":"8400547"},{"coordinate":{"lat":53.3068857,"lng":6.593054},"countryCode":"NL","name":"Bedum","stationCode":"BDM","uicCode":"8400094"},{"coordinate":{"lat":53.3262092,"lng":6.6875551},"countryCode":"NL","name":"Stedum","stationCode":"STM","uicCode":"8400576"},{"coordinate":{"lat":53.3347145,"lng":6.7472625},"countryCode":"NL","name":"Loppersum","stationCode":"LP","uicCode":"8400403"},{"coordinate":{"lat":53.3258135,"lng":6.8619577},"countryCode":"NL","name":"Appingedam","stationCode":"APG","uicCode":"8400067"},{"coordinate":{"lat":53.3320834,"lng":6.9069092},"countryCode":"NL","name":"Delfzijl West","stationCode":"DZW","uicCode":"8400175"},{"coordinate":{"lat":53.3336625,"lng":6.9240797},"countryCode":"NL","name":"Delfzijl","stationCode":"DZ","uicCode":"8400171"}],"direction":"BOTH","operators":["Arriva"]},"consequence":{"section":{"stations":[{"coordinate":{"lat":53.2105560302734,"lng":6.56472206115723},"countryCode":"NL","name":"Groningen","stationCode":"GN","uicCode":"8400263"},{"coordinate":{"lat":53.2301469,"lng":6.5563172},"countryCode":"NL","name":"Groningen Noord","stationCode":"GNN","uicCode":"8400264"},{"coordinate":{"lat":53.29113,"lng":6.5404},"countryCode":"NL","name":"Sauwerd","stationCode":"SWD","uicCode":"8400547"},{"coordinate":{"lat":53.3068857,"lng":6.593054},"countryCode":"NL","name":"Bedum","stationCode":"BDM","uicCode":"8400094"},{"coordinate":{"lat":53.3262092,"lng":6.6875551},"countryCode":"NL","name":"Stedum","stationCode":"STM","uicCode":"8400576"},{"coordinate":{"lat":53.3347145,"lng":6.7472625},"countryCode":"NL","name":"Loppersum","stationCode":"LP","uicCode":"8400403"},{"coordinate":{"lat":53.3258135,"lng":6.8619577},"countryCode":"NL","name":"Appingedam","stationCode":"APG","uicCode":"8400067"},{"coordinate":{"lat":53.3320834,"lng":6.9069092},"countryCode":"NL","name":"Delfzijl West","stationCode":"DZW","uicCode":"8400175"},{"coordinate":{"lat":53.3336625,"lng":6.9240797},"countryCode":"NL","name":"Delfzijl","stationCode":"DZ","uicCode":"8400171"}],"direction":"BOTH","operators":["Arriva"]},"description":"er rijden bussen","level":"LESS_TRAINS"},"sectionType":"NL"}],"summaryAdditionalTravelTime":{"label":"De extra reistijd ligt tussen 30 en 45 minuten.","shortLabel":"Extra reistijd: 30 - 45 min.","minimumDurationInMinutes":30,"maximumDurationInMinutes":45},"timespans":[{"start":"2025-06-14T04:00:00+0200","end":"2025-07-13T02:00:00+0200","period":"Zaterdag 14 juni 4:00 uur t/m zondag 13 juli 2:00 uur.","situation":{"label":"Door werkzaamheden: tussen Groningen en Eemshaven rijden er bussen en tussen Groningen en Delfzijl rijden er bussen."},"cause":{"label":"werkzaamheden"},"additionalTravelTime":{"label":"De extra reistijd ligt tussen 30 en 45 minuten.","shortLabel":"Extra reistijd: 30 - 45 min.","minimumDurationInMinutes":30,"maximumDurationInMinutes":45},"alternativeTransport":{"label":"er rijden stop- en snelbussen","shortLabel":"er rijden stop- en snelbussen"},"advices":["Deze werkzaamheden vallen samen met de 64-daagse Groningen-Groningen Europapark."]}],"alternativeTransportTimespans":[{"start":"2025-06-14T04:00:00+0200","end":"2025-07-13T02:00:00+0200","alternativeTransport":{"location":[{"station":{"coordinate":{"lat":53.2105560302734,"lng":6.56472206115723},"countryCode":"NL","name":"Groningen","stationCode":"GN","uicCode":"8400263"},"description":"vanaf het busstation"},{"station":{"coordinate":{"lat":53.2301469,"lng":6.5563172},"countryCode":"NL","name":"Groningen Noord","stationCode":"GNN","uicCode":"8400264"},"description":"vanaf de bushalte"},{"station":{"coordinate":{"lat":53.29113,"lng":6.5404},"countryCode":"NL","name":"Sauwerd","stationCode":"SWD","uicCode":"8400547"},"description":"vanaf de voorzijde van het station"},{"station":{"coordinate":{"lat":53.3300994,"lng":6.5202905},"countryCode":"NL","name":"Winsum","stationCode":"WSM","uicCode":"8400697"},"description":"vanaf het busstation"},{"station":{"coordinate":{"lat":53.3608969,"lng":6.5185581},"countryCode":"NL","name":"Baflo","stationCode":"BF","uicCode":"8400089"},"description":"vanaf de voorzijde van het station"},{"station":{"coordinate":{"lat":53.3908431,"lng":6.5671364},"countryCode":"NL","name":"Warffum","stationCode":"WFM","uicCode":"8400679"},"description":"vanaf het Stationsplein"},{"station":{"coordinate":{"lat":53.4014742,"lng":6.6093776},"countryCode":"NL","name":"Usquert","stationCode":"UST","uicCode":"8400619"},"description":"vanaf het Stationsplein"},{"station":{"coordinate":{"lat":53.4099568,"lng":6.6748869},"countryCode":"NL","name":"Uithuizen","stationCode":"UHZ","uicCode":"8400617"},"description":"vanaf de voorzijde van het station"},{"station":{"coordinate":{"lat":53.4145845,"lng":6.7202975},"countryCode":"NL","name":"Uithuizermeeden","stationCode":"UHM","uicCode":"8400618"},"description":"vanaf de parkeerplaats"},{"station":{"coordinate":{"lat":53.421262,"lng":6.7587},"countryCode":"NL","name":"Roodeschool","stationCode":"RD","uicCode":"8400525"},"description":"vanaf het Stationsplein"}],"label":"Er rijden stopbussen tussen Groningen, Groningen Noord, Sauwerd, Winsum, Baflo, Warffum, Usquert, Uithuizen, Uithuizermeeden en Roodeschool.","shortLabel":"Er rijden stopbussen Groningen - Groningen Noord - Sauwerd - Winsum - Baflo - Warffum - Usquert - Uithuizen - Uithuizermeeden - Roodeschool."}},{"start":"2025-06-14T04:00:00+0200","end":"2025-07-13T02:00:00+0200","alternativeTransport":{"location":[{"station":{"coordinate":{"lat":53.2105560302734,"lng":6.56472206115723},"countryCode":"NL","name":"Groningen","stationCode":"GN","uicCode":"8400263"},"description":"vanaf het busstation"},{"station":{"coordinate":{"lat":53.2301469,"lng":6.5563172},"countryCode":"NL","name":"Groningen Noord","stationCode":"GNN","uicCode":"8400264"},"description":"vanaf de bushalte"},{"station":{"coordinate":{"lat":53.3068857,"lng":6.593054},"countryCode":"NL","name":"Bedum","stationCode":"BDM","uicCode":"8400094"},"description":"vanaf de voorzijde van het station"},{"station":{"coordinate":{"lat":53.3262092,"lng":6.6875551},"countryCode":"NL","name":"Stedum","stationCode":"STM","uicCode":"8400576"},"description":"vanaf de voorzijde van het station"},{"station":{"coordinate":{"lat":53.3347145,"lng":6.7472625},"countryCode":"NL","name":"Loppersum","stationCode":"LP","uicCode":"8400403"},"description":"vanaf het busstation"},{"station":{"coordinate":{"lat":53.3258135,"lng":6.8619577},"countryCode":"NL","name":"Appingedam","stationCode":"APG","uicCode":"8400067"},"description":"vanaf het busstation"},{"station":{"coordinate":{"lat":53.3320834,"lng":6.9069092},"countryCode":"NL","name":"Delfzijl West","stationCode":"DZW","uicCode":"8400175"},"description":"vanaf de bushalte"},{"station":{"coordinate":{"lat":53.3336625,"lng":6.9240797},"countryCode":"NL","name":"Delfzijl","stationCode":"DZ","uicCode":"8400171"},"description":"vanaf het busstation"}],"label":"Er rijden stopbussen tussen Groningen, Groningen Noord, Bedum, Stedum, Loppersum, Appingedam, Delfzijl West en Delfzijl.","shortLabel":"Er rijden stopbussen Groningen - Groningen Noord - Bedum - Stedum - Loppersum - Appingedam - Delfzijl West - Delfzijl."}},{"start":"2025-06-14T04:00:00+0200","end":"2025-07-13T02:00:00+0200","alternativeTransport":{"location":[{"station":{"coordinate":{"lat":53.2105560302734,"lng":6.56472206115723},"countryCode":"NL","name":"Groningen","stationCode":"GN","uicCode":"8400263"},"description":"vanaf het busstation"},{"station":{"coordinate":{"lat":53.421262,"lng":6.7587},"countryCode":"NL","name":"Roodeschool","stationCode":"RD","uicCode":"8400525"},"description":"vanaf het Stationsplein"},{"station":{"coordinate":{"lat":53.458419,"lng":6.832},"countryCode":"NL","name":"Eemshaven","stationCode":"EEM","uicCode":"8400202"},"description":"vanaf de voorzijde van het station"}],"label":"Er rijden snelbussen tussen Groningen, Roodeschool en Eemshaven.","shortLabel":"Er rijden snelbussen Groningen - Roodeschool - Eemshaven."}}]},{"type":"MAINTENANCE","id":"7006345","title":"Nijmegen - Venray.","isActive":true,"local":false,"titleSections":[[{"type":"STATION","value":"Nijmegen"},{"type":"ICON","value":"MAINTENANCE"},{"type":"STATION","value":"Venray"}]],"registrationTime":"2025-06-18T10:17:30+0200","start":"2025-06-16T20:50:00+0200","releaseTime":"2025-06-18T10:17:30+0200","end":"2025-06-24T01:13:00+0200","period":"Maandag 16 juni 20:50 uur t/m dinsdag 24 juni 1:13 uur.","impact":{"value":4},"publicationSections":[{"section":{"stations":[{"coordinate":{"lat":51.8436126708984,"lng":5.85222244262695},"countryCode":"NL","name":"Nijmegen","stationCode":"NM","uicCode":"8400470"},{"coordinate":{"lat":51.8269462585449,"lng":5.86749982833862},"countryCode":"NL","name":"Nijmegen Heyendaal","stationCode":"NMH","uicCode":"8400468"},{"coordinate":{"lat":51.766262,"lng":5.879133},"countryCode":"NL","name":"Mook-Molenhoek","stationCode":"MMLH","uicCode":"8400446"},{"coordinate":{"lat":51.7266825879048,"lng":5.87429523468017},"countryCode":"NL","name":"Cuijk","stationCode":"CK","uicCode":"8400155"},{"coordinate":{"lat":51.6445217676531,"lng":5.93903303146362},"countryCode":"NL","name":"Boxmeer","stationCode":"BMR","uicCode":"8400128"},{"coordinate":{"lat":51.59193,"lng":5.99714},"countryCode":"NL","name":"Vierlingsbeek","stationCode":"VLB","uicCode":"8400647"},{"coordinate":{"lat":51.526568099007,"lng":6.01417779922485},"countryCode":"NL","name":"Venray","stationCode":"VRY","uicCode":"8400646"}],"direction":"BOTH","operators":["Arriva"]},"consequence":{"section":{"stations":[{"coordinate":{"lat":51.8436126708984,"lng":5.85222244262695},"countryCode":"NL","name":"Nijmegen","stationCode":"NM","uicCode":"8400470"},{"coordinate":{"lat":51.8269462585449,"lng":5.86749982833862},"countryCode":"NL","name":"Nijmegen Heyendaal","stationCode":"NMH","uicCode":"8400468"},{"coordinate":{"lat":51.766262,"lng":5.879133},"countryCode":"NL","name":"Mook-Molenhoek","stationCode":"MMLH","uicCode":"8400446"},{"coordinate":{"lat":51.7266825879048,"lng":5.87429523468017},"countryCode":"NL","name":"Cuijk","stationCode":"CK","uicCode":"8400155"},{"coordinate":{"lat":51.6445217676531,"lng":5.93903303146362},"countryCode":"NL","name":"Boxmeer","stationCode":"BMR","uicCode":"8400128"},{"coordinate":{"lat":51.59193,"lng":5.99714},"countryCode":"NL","name":"Vierlingsbeek","stationCode":"VLB","uicCode":"8400647"},{"coordinate":{"lat":51.526568099007,"lng":6.01417779922485},"countryCode":"NL","name":"Venray","stationCode":"VRY","uicCode":"8400646"}],"direction":"BOTH","operators":["Arriva"]},"description":"dienstregeling aangepast","level":"LESS_TRAINS"},"sectionType":"NL"},{"section":{"stations":[{"coordinate":{"lat":51.8436126708984,"lng":5.85222244262695},"countryCode":"NL","name":"Nijmegen","stationCode":"NM","uicCode":"8400470"},{"coordinate":{"lat":51.8269462585449,"lng":5.86749982833862},"countryCode":"NL","name":"Nijmegen Heyendaal","stationCode":"NMH","uicCode":"8400468"},{"coordinate":{"lat":51.766262,"lng":5.879133},"countryCode":"NL","name":"Mook-Molenhoek","stationCode":"MMLH","uicCode":"8400446"},{"coordinate":{"lat":51.7266825879048,"lng":5.87429523468017},"countryCode":"NL","name":"Cuijk","stationCode":"CK","uicCode":"8400155"},{"coordinate":{"lat":51.6445217676531,"lng":5.93903303146362},"countryCode":"NL","name":"Boxmeer","stationCode":"BMR","uicCode":"8400128"},{"coordinate":{"lat":51.59193,"lng":5.99714},"countryCode":"NL","name":"Vierlingsbeek","stationCode":"VLB","uicCode":"8400647"},{"coordinate":{"lat":51.526568099007,"lng":6.01417779922485},"countryCode":"NL","name":"Venray","stationCode":"VRY","uicCode":"8400646"}],"direction":"BOTH","operators":["Arriva"]},"consequence":{"section":{"stations":[{"coordinate":{"lat":51.8436126708984,"lng":5.85222244262695},"countryCode":"NL","name":"Nijmegen","stationCode":"NM","uicCode":"8400470"},{"coordinate":{"lat":51.8269462585449,"lng":5.86749982833862},"countryCode":"NL","name":"Nijmegen Heyendaal","stationCode":"NMH","uicCode":"8400468"},{"coordinate":{"lat":51.766262,"lng":5.879133},"countryCode":"NL","name":"Mook-Molenhoek","stationCode":"MMLH","uicCode":"8400446"},{"coordinate":{"lat":51.7266825879048,"lng":5.87429523468017},"countryCode":"NL","name":"Cuijk","stationCode":"CK","uicCode":"8400155"},{"coordinate":{"lat":51.6445217676531,"lng":5.93903303146362},"countryCode":"NL","name":"Boxmeer","stationCode":"BMR","uicCode":"8400128"},{"coordinate":{"lat":51.59193,"lng":5.99714},"countryCode":"NL","name":"Vierlingsbeek","stationCode":"VLB","uicCode":"8400647"},{"coordinate":{"lat":51.526568099007,"lng":6.01417779922485},"countryCode":"NL","name":"Venray","stationCode":"VRY","uicCode":"8400646"}],"direction":"BOTH","operators":["Arriva"]},"description":"er rijden bussen","level":"LESS_TRAINS"},"sectionType":"NL"}],"summaryAdditionalTravelTime":{"label":"De extra reistijd kan oplopen tot 45 minuten.","shortLabel":"Extra reistijd tot 45 min.","maximumDurationInMinutes":45},"timespans":[{"start":"2025-06-18T20:50:00+0200","end":"2025-06-19T01:18:00+0200","period":"Woensdag 18 juni 20:50 uur t/m donderdag 19 juni 1:18 uur.","situation":{"label":"Door werkzaamheden: tussen Nijmegen en Venray is de dienstregeling aangepast."},"cause":{"label":"werkzaamheden"},"additionalTravelTime":{"label":"De extra reistijd kan oplopen tot 45 minuten.","shortLabel":"Extra reistijd tot 45 min.","maximumDurationInMinutes":45},"alternativeTransport":{"label":"er rijden stopbussen","shortLabel":"er rijden stopbussen"},"advices":["In de avond rijden er bussen in plaats van treinen. Plan uw reis in de app."]},{"start":"2025-06-19T20:50:00+0200","end":"2025-06-20T01:18:00+0200","period":"Donderdag 19 juni 20:50 uur t/m vrijdag 20 juni 1:18 uur.","situation":{"label":"Door werkzaamheden: tussen Nijmegen en Venray is de dienstregeling aangepast."},"cause":{"label":"werkzaamheden"},"additionalTravelTime":{"label":"De extra reistijd kan oplopen tot 45 minuten.","shortLabel":"Extra reistijd tot 45 min.","maximumDurationInMinutes":45},"alternativeTransport":{"label":"er rijden stopbussen","shortLabel":"er rijden stopbussen"},"advices":["In de avond rijden er bussen in plaats van treinen. Plan uw reis in de app."]},{"start":"2025-06-20T21:50:00+0200","end":"2025-06-21T01:15:00+0200","period":"Vrijdag 20 juni 21:50 uur t/m zaterdag 21 juni 1:15 uur.","situation":{"label":"Door werkzaamheden: tussen Nijmegen en Venray is de dienstregeling aangepast."},"cause":{"label":"werkzaamheden"},"additionalTravelTime":{"label":"De extra reistijd kan oplopen tot 45 minuten.","shortLabel":"Extra reistijd tot 45 min.","maximumDurationInMinutes":45},"alternativeTransport":{"label":"er rijden stopbussen","shortLabel":"er rijden stopbussen"},"advices":["In de avond rijden er bussen in plaats van treinen. Plan uw reis in de app."]},{"start":"2025-06-21T22:50:00+0200","end":"2025-06-22T01:09:00+0200","period":"Zaterdag 21 juni 22:50 uur t/m zondag 22 juni 1:09 uur.","situation":{"label":"Door werkzaamheden: tussen Nijmegen en Venray is de dienstregeling aangepast."},"cause":{"label":"werkzaamheden"},"additionalTravelTime":{"label":"De extra reistijd kan oplopen tot 45 minuten.","shortLabel":"Extra reistijd tot 45 min.","maximumDurationInMinutes":45},"alternativeTransport":{"label":"er rijden stopbussen","shortLabel":"er rijden stopbussen"},"advices":["In de avond rijden er bussen in plaats van treinen. Plan uw reis in de app."]},{"start":"2025-06-22T20:50:00+0200","end":"2025-06-23T01:09:00+0200","period":"Zondag 22 juni 20:50 uur t/m maandag 23 juni 1:09 uur.","situation":{"label":"Door werkzaamheden: tussen Nijmegen en Venray is de dienstregeling aangepast."},"cause":{"label":"werkzaamheden"},"additionalTravelTime":{"label":"De extra reistijd kan oplopen tot 45 minuten.","shortLabel":"Extra reistijd tot 45 min.","maximumDurationInMinutes":45},"alternativeTransport":{"label":"er rijden stopbussen","shortLabel":"er rijden stopbussen"},"advices":["In de avond rijden er bussen in plaats van treinen. Plan uw reis in de app."]},{"start":"2025-06-23T20:50:00+0200","end":"2025-06-24T01:13:00+0200","period":"Maandag 23 juni 20:50 uur t/m dinsdag 24 juni 1:13 uur.","situation":{"label":"Door werkzaamheden: tussen Nijmegen en Venray is de dienstregeling aangepast."},"cause":{"label":"werkzaamheden"},"additionalTravelTime":{"label":"De extra reistijd kan oplopen tot 45 minuten.","shortLabel":"Extra reistijd tot 45 min.","maximumDurationInMinutes":45},"alternativeTransport":{"label":"er rijden stopbussen","shortLabel":"er rijden stopbussen"},"advices":["In de avond rijden er bussen in plaats van treinen. Plan uw reis in de app."]}],"alternativeTransportTimespans":[{"start":"2025-06-16T20:50:00+0200","end":"2025-06-17T01:18:00+0200","alternativeTransport":{"location":[{"station":{"coordinate":{"lat":51.8436126708984,"lng":5.85222244262695},"countryCode":"NL","name":"Nijmegen","stationCode":"NM","uicCode":"8400470"},"description":"vanaf de voorzijde van het station"},{"station":{"coordinate":{"lat":51.8269462585449,"lng":5.86749982833862},"countryCode":"NL","name":"Nijmegen Heyendaal","stationCode":"NMH","uicCode":"8400468"},"description":"vanaf de bushalte"},{"station":{"coordinate":{"lat":51.766262,"lng":5.879133},"countryCode":"NL","name":"Mook-Molenhoek","stationCode":"MMLH","uicCode":"8400446"},"description":"vanaf het P+R-terrein"},{"station":{"coordinate":{"lat":51.7266825879048,"lng":5.87429523468017},"countryCode":"NL","name":"Cuijk","stationCode":"CK","uicCode":"8400155"},"description":"vanaf de bushalte, aan achterzijde station"},{"station":{"coordinate":{"lat":51.6445217676531,"lng":5.93903303146362},"countryCode":"NL","name":"Boxmeer","stationCode":"BMR","uicCode":"8400128"},"description":"aan de achterzijde van het station, vanaf de Wim de Körverstraat"},{"station":{"coordinate":{"lat":51.59193,"lng":5.99714},"countryCode":"NL","name":"Vierlingsbeek","stationCode":"VLB","uicCode":"8400647"},"description":"vanaf de bushalte"},{"station":{"coordinate":{"lat":51.526568099007,"lng":6.01417779922485},"countryCode":"NL","name":"Venray","stationCode":"VRY","uicCode":"8400646"},"description":"vanaf de voorzijde van het station"}],"label":"Er rijden stopbussen tussen Nijmegen, Nijmegen Heyendaal, Mook-Molenhoek, Cuijk, Boxmeer, Vierlingsbeek en Venray.","shortLabel":"Er rijden stopbussen Nijmegen - Nm Heyendaal - Molenhoek - Cuijk - Boxmeer - Vierlingsbeek - Venray."}},{"start":"2025-06-17T20:50:00+0200","end":"2025-06-18T01:18:00+0200","alternativeTransport":{"location":[{"station":{"coordinate":{"lat":51.8436126708984,"lng":5.85222244262695},"countryCode":"NL","name":"Nijmegen","stationCode":"NM","uicCode":"8400470"},"description":"vanaf de voorzijde van het station"},{"station":{"coordinate":{"lat":51.8269462585449,"lng":5.86749982833862},"countryCode":"NL","name":"Nijmegen Heyendaal","stationCode":"NMH","uicCode":"8400468"},"description":"vanaf de bushalte"},{"station":{"coordinate":{"lat":51.766262,"lng":5.879133},"countryCode":"NL","name":"Mook-Molenhoek","stationCode":"MMLH","uicCode":"8400446"},"description":"vanaf het P+R-terrein"},{"station":{"coordinate":{"lat":51.7266825879048,"lng":5.87429523468017},"countryCode":"NL","name":"Cuijk","stationCode":"CK","uicCode":"8400155"},"description":"vanaf de bushalte, aan achterzijde station"},{"station":{"coordinate":{"lat":51.6445217676531,"lng":5.93903303146362},"countryCode":"NL","name":"Boxmeer","stationCode":"BMR","uicCode":"8400128"},"description":"aan de achterzijde van het station, vanaf de Wim de Körverstraat"},{"station":{"coordinate":{"lat":51.59193,"lng":5.99714},"countryCode":"NL","name":"Vierlingsbeek","stationCode":"VLB","uicCode":"8400647"},"description":"vanaf de bushalte"},{"station":{"coordinate":{"lat":51.526568099007,"lng":6.01417779922485},"countryCode":"NL","name":"Venray","stationCode":"VRY","uicCode":"8400646"},"description":"vanaf de voorzijde van het station"}],"label":"Er rijden stopbussen tussen Nijmegen, Nijmegen Heyendaal, Mook-Molenhoek, Cuijk, Boxmeer, Vierlingsbeek en Venray.","shortLabel":"Er rijden stopbussen Nijmegen - Nm Heyendaal - Molenhoek - Cuijk - Boxmeer - Vierlingsbeek - Venray."}},{"start":"2025-06-18T20:50:00+0200","end":"2025-06-19T01:18:00+0200","alternativeTransport":{"location":[{"station":{"coordinate":{"lat":51.8436126708984,"lng":5.85222244262695},"countryCode":"NL","name":"Nijmegen","stationCode":"NM","uicCode":"8400470"},"description":"vanaf de voorzijde van het station"},{"station":{"coordinate":{"lat":51.8269462585449,"lng":5.86749982833862},"countryCode":"NL","name":"Nijmegen Heyendaal","stationCode":"NMH","uicCode":"8400468"},"description":"vanaf de bushalte"},{"station":{"coordinate":{"lat":51.766262,"lng":5.879133},"countryCode":"NL","name":"Mook-Molenhoek","stationCode":"MMLH","uicCode":"8400446"},"description":"vanaf het P+R-terrein"},{"station":{"coordinate":{"lat":51.7266825879048,"lng":5.87429523468017},"countryCode":"NL","name":"Cuijk","stationCode":"CK","uicCode":"8400155"},"description":"vanaf de bushalte, aan achterzijde station"},{"station":{"coordinate":{"lat":51.6445217676531,"lng":5.93903303146362},"countryCode":"NL","name":"Boxmeer","stationCode":"BMR","uicCode":"8400128"},"description":"aan de achterzijde van het station, vanaf de Wim de Körverstraat"},{"station":{"coordinate":{"lat":51.59193,"lng":5.99714},"countryCode":"NL","name":"Vierlingsbeek","stationCode":"VLB","uicCode":"8400647"},"description":"vanaf de bushalte"},{"station":{"coordinate":{"lat":51.526568099007,"lng":6.01417779922485},"countryCode":"NL","name":"Venray","stationCode":"VRY","uicCode":"8400646"},"description":"vanaf de voorzijde van het station"}],"label":"Er rijden stopbussen tussen Nijmegen, Nijmegen Heyendaal, Mook-Molenhoek, Cuijk, Boxmeer, Vierlingsbeek en Venray.","shortLabel":"Er rijden stopbussen Nijmegen - Nm Heyendaal - Molenhoek - Cuijk - Boxmeer - Vierlingsbeek - Venray."}},{"start":"2025-06-19T20:50:00+0200","end":"2025-06-20T01:18:00+0200","alternativeTransport":{"location":[{"station":{"coordinate":{"lat":51.8436126708984,"lng":5.85222244262695},"countryCode":"NL","name":"Nijmegen","stationCode":"NM","uicCode":"8400470"},"description":"vanaf de voorzijde van het station"},{"station":{"coordinate":{"lat":51.8269462585449,"lng":5.86749982833862},"countryCode":"NL","name":"Nijmegen Heyendaal","stationCode":"NMH","uicCode":"8400468"},"description":"vanaf de bushalte"},{"station":{"coordinate":{"lat":51.766262,"lng":5.879133},"countryCode":"NL","name":"Mook-Molenhoek","stationCode":"MMLH","uicCode":"8400446"},"description":"vanaf het P+R-terrein"},{"station":{"coordinate":{"lat":51.7266825879048,"lng":5.87429523468017},"countryCode":"NL","name":"Cuijk","stationCode":"CK","uicCode":"8400155"},"description":"vanaf de bushalte, aan achterzijde station"},{"station":{"coordinate":{"lat":51.6445217676531,"lng":5.93903303146362},"countryCode":"NL","name":"Boxmeer","stationCode":"BMR","uicCode":"8400128"},"description":"aan de achterzijde van het station, vanaf de Wim de Körverstraat"},{"station":{"coordinate":{"lat":51.59193,"lng":5.99714},"countryCode":"NL","name":"Vierlingsbeek","stationCode":"VLB","uicCode":"8400647"},"description":"vanaf de bushalte"},{"station":{"coordinate":{"lat":51.526568099007,"lng":6.01417779922485},"countryCode":"NL","name":"Venray","stationCode":"VRY","uicCode":"8400646"},"description":"vanaf de voorzijde van het station"}],"label":"Er rijden stopbussen tussen Nijmegen, Nijmegen Heyendaal, Mook-Molenhoek, Cuijk, Boxmeer, Vierlingsbeek en Venray.","shortLabel":"Er rijden stopbussen Nijmegen - Nm Heyendaal - Molenhoek - Cuijk - Boxmeer - Vierlingsbeek - Venray."}},{"start":"2025-06-20T21:50:00+0200","end":"2025-06-21T01:15:00+0200","alternativeTransport":{"location":[{"station":{"coordinate":{"lat":51.8436126708984,"lng":5.85222244262695},"countryCode":"NL","name":"Nijmegen","stationCode":"NM","uicCode":"8400470"},"description":"vanaf de voorzijde van het station"},{"station":{"coordinate":{"lat":51.8269462585449,"lng":5.86749982833862},"countryCode":"NL","name":"Nijmegen Heyendaal","stationCode":"NMH","uicCode":"8400468"},"description":"vanaf de bushalte"},{"station":{"coordinate":{"lat":51.766262,"lng":5.879133},"countryCode":"NL","name":"Mook-Molenhoek","stationCode":"MMLH","uicCode":"8400446"},"description":"vanaf het P+R-terrein"},{"station":{"coordinate":{"lat":51.7266825879048,"lng":5.87429523468017},"countryCode":"NL","name":"Cuijk","stationCode":"CK","uicCode":"8400155"},"description":"vanaf de bushalte, aan achterzijde station"},{"station":{"coordinate":{"lat":51.6445217676531,"lng":5.93903303146362},"countryCode":"NL","name":"Boxmeer","stationCode":"BMR","uicCode":"8400128"},"description":"aan de achterzijde van het station, vanaf de Wim de Körverstraat"},{"station":{"coordinate":{"lat":51.59193,"lng":5.99714},"countryCode":"NL","name":"Vierlingsbeek","stationCode":"VLB","uicCode":"8400647"},"description":"vanaf de bushalte"},{"station":{"coordinate":{"lat":51.526568099007,"lng":6.01417779922485},"countryCode":"NL","name":"Venray","stationCode":"VRY","uicCode":"8400646"},"description":"vanaf de voorzijde van het station"}],"label":"Er rijden stopbussen tussen Nijmegen, Nijmegen Heyendaal, Mook-Molenhoek, Cuijk, Boxmeer, Vierlingsbeek en Venray.","shortLabel":"Er rijden stopbussen Nijmegen - Nm Heyendaal - Molenhoek - Cuijk - Boxmeer - Vierlingsbeek - Venray."}},{"start":"2025-06-20T21:50:00+0200","end":"2025-06-21T01:15:00+0200","alternativeTransport":{"location":[{"station":{"coordinate":{"lat":51.59193,"lng":5.99714},"countryCode":"NL","name":"Vierlingsbeek","stationCode":"VLB","uicCode":"8400647"},"description":"vanaf de bushalte"},{"station":{"coordinate":{"lat":51.526568099007,"lng":6.01417779922485},"countryCode":"NL","name":"Venray","stationCode":"VRY","uicCode":"8400646"},"description":"vanaf de voorzijde van het station"}],"label":"Er rijden stopbussen tussen Vierlingsbeek en Venray.","shortLabel":"Er rijden stopbussen Vierlingsbeek - Venray."}},{"start":"2025-06-21T22:50:00+0200","end":"2025-06-22T01:09:00+0200","alternativeTransport":{"location":[{"station":{"coordinate":{"lat":51.8436126708984,"lng":5.85222244262695},"countryCode":"NL","name":"Nijmegen","stationCode":"NM","uicCode":"8400470"},"description":"vanaf de voorzijde van het station"},{"station":{"coordinate":{"lat":51.8269462585449,"lng":5.86749982833862},"countryCode":"NL","name":"Nijmegen Heyendaal","stationCode":"NMH","uicCode":"8400468"},"description":"vanaf de bushalte"},{"station":{"coordinate":{"lat":51.766262,"lng":5.879133},"countryCode":"NL","name":"Mook-Molenhoek","stationCode":"MMLH","uicCode":"8400446"},"description":"vanaf het P+R-terrein"},{"station":{"coordinate":{"lat":51.7266825879048,"lng":5.87429523468017},"countryCode":"NL","name":"Cuijk","stationCode":"CK","uicCode":"8400155"},"description":"vanaf de bushalte, aan achterzijde station"},{"station":{"coordinate":{"lat":51.6445217676531,"lng":5.93903303146362},"countryCode":"NL","name":"Boxmeer","stationCode":"BMR","uicCode":"8400128"},"description":"aan de achterzijde van het station, vanaf de Wim de Körverstraat"},{"station":{"coordinate":{"lat":51.59193,"lng":5.99714},"countryCode":"NL","name":"Vierlingsbeek","stationCode":"VLB","uicCode":"8400647"},"description":"vanaf de bushalte"},{"station":{"coordinate":{"lat":51.526568099007,"lng":6.01417779922485},"countryCode":"NL","name":"Venray","stationCode":"VRY","uicCode":"8400646"},"description":"vanaf de voorzijde van het station"}],"label":"Er rijden stopbussen tussen Nijmegen, Nijmegen Heyendaal, Mook-Molenhoek, Cuijk, Boxmeer, Vierlingsbeek en Venray.","shortLabel":"Er rijden stopbussen Nijmegen - Nm Heyendaal - Molenhoek - Cuijk - Boxmeer - Vierlingsbeek - Venray."}},{"start":"2025-06-21T22:50:00+0200","end":"2025-06-22T01:09:00+0200","alternativeTransport":{"location":[{"station":{"coordinate":{"lat":51.59193,"lng":5.99714},"countryCode":"NL","name":"Vierlingsbeek","stationCode":"VLB","uicCode":"8400647"},"description":"vanaf de bushalte"},{"station":{"coordinate":{"lat":51.526568099007,"lng":6.01417779922485},"countryCode":"NL","name":"Venray","stationCode":"VRY","uicCode":"8400646"},"description":"vanaf de voorzijde van het station"}],"label":"Er rijden stopbussen tussen Vierlingsbeek en Venray.","shortLabel":"Er rijden stopbussen Vierlingsbeek - Venray."}},{"start":"2025-06-22T20:50:00+0200","end":"2025-06-23T01:09:00+0200","alternativeTransport":{"location":[{"station":{"coordinate":{"lat":51.8436126708984,"lng":5.85222244262695},"countryCode":"NL","name":"Nijmegen","stationCode":"NM","uicCode":"8400470"},"description":"vanaf de voorzijde van het station"},{"station":{"coordinate":{"lat":51.8269462585449,"lng":5.86749982833862},"countryCode":"NL","name":"Nijmegen Heyendaal","stationCode":"NMH","uicCode":"8400468"},"description":"vanaf de bushalte"},{"station":{"coordinate":{"lat":51.766262,"lng":5.879133},"countryCode":"NL","name":"Mook-Molenhoek","stationCode":"MMLH","uicCode":"8400446"},"description":"vanaf het P+R-terrein"},{"station":{"coordinate":{"lat":51.7266825879048,"lng":5.87429523468017},"countryCode":"NL","name":"Cuijk","stationCode":"CK","uicCode":"8400155"},"description":"vanaf de bushalte, aan achterzijde station"},{"station":{"coordinate":{"lat":51.6445217676531,"lng":5.93903303146362},"countryCode":"NL","name":"Boxmeer","stationCode":"BMR","uicCode":"8400128"},"description":"aan de achterzijde van het station, vanaf de Wim de Körverstraat"},{"station":{"coordinate":{"lat":51.59193,"lng":5.99714},"countryCode":"NL","name":"Vierlingsbeek","stationCode":"VLB","uicCode":"8400647"},"description":"vanaf de bushalte"},{"station":{"coordinate":{"lat":51.526568099007,"lng":6.01417779922485},"countryCode":"NL","name":"Venray","stationCode":"VRY","uicCode":"8400646"},"description":"vanaf de voorzijde van het station"}],"label":"Er rijden stopbussen tussen Nijmegen, Nijmegen Heyendaal, Mook-Molenhoek, Cuijk, Boxmeer, Vierlingsbeek en Venray.","shortLabel":"Er rijden stopbussen Nijmegen - Nm Heyendaal - Molenhoek - Cuijk - Boxmeer - Vierlingsbeek - Venray."}},{"start":"2025-06-22T20:50:00+0200","end":"2025-06-23T01:09:00+0200","alternativeTransport":{"location":[{"station":{"coordinate":{"lat":51.59193,"lng":5.99714},"countryCode":"NL","name":"Vierlingsbeek","stationCode":"VLB","uicCode":"8400647"},"description":"vanaf de bushalte"},{"station":{"coordinate":{"lat":51.526568099007,"lng":6.01417779922485},"countryCode":"NL","name":"Venray","stationCode":"VRY","uicCode":"8400646"},"description":"vanaf de voorzijde van het station"}],"label":"Er rijden stopbussen tussen Vierlingsbeek en Venray.","shortLabel":"Er rijden stopbussen Vierlingsbeek - Venray."}},{"start":"2025-06-23T20:50:00+0200","end":"2025-06-24T01:13:00+0200","alternativeTransport":{"location":[{"station":{"coordinate":{"lat":51.8436126708984,"lng":5.85222244262695},"countryCode":"NL","name":"Nijmegen","stationCode":"NM","uicCode":"8400470"},"description":"vanaf de voorzijde van het station"},{"station":{"coordinate":{"lat":51.8269462585449,"lng":5.86749982833862},"countryCode":"NL","name":"Nijmegen Heyendaal","stationCode":"NMH","uicCode":"8400468"},"description":"vanaf de bushalte"},{"station":{"coordinate":{"lat":51.766262,"lng":5.879133},"countryCode":"NL","name":"Mook-Molenhoek","stationCode":"MMLH","uicCode":"8400446"},"description":"vanaf het P+R-terrein"},{"station":{"coordinate":{"lat":51.7266825879048,"lng":5.87429523468017},"countryCode":"NL","name":"Cuijk","stationCode":"CK","uicCode":"8400155"},"description":"vanaf de bushalte, aan achterzijde station"},{"station":{"coordinate":{"lat":51.6445217676531,"lng":5.93903303146362},"countryCode":"NL","name":"Boxmeer","stationCode":"BMR","uicCode":"8400128"},"description":"aan de achterzijde van het station, vanaf de Wim de Körverstraat"},{"station":{"coordinate":{"lat":51.59193,"lng":5.99714},"countryCode":"NL","name":"Vierlingsbeek","stationCode":"VLB","uicCode":"8400647"},"description":"vanaf de bushalte"},{"station":{"coordinate":{"lat":51.526568099007,"lng":6.01417779922485},"countryCode":"NL","name":"Venray","stationCode":"VRY","uicCode":"8400646"},"description":"vanaf de voorzijde van het station"}],"label":"Er rijden stopbussen tussen Nijmegen, Nijmegen Heyendaal, Mook-Molenhoek, Cuijk, Boxmeer, Vierlingsbeek en Venray.","shortLabel":"Er rijden stopbussen Nijmegen - Nm Heyendaal - Molenhoek - Cuijk - Boxmeer - Vierlingsbeek - Venray."}}]},{"type":"MAINTENANCE","id":"7006375","title":"Amsterdam - Köln - Zürich HB.","isActive":false,"local":false,"titleSections":[[{"type":"STATION","value":"Amsterdam C."},{"type":"ICON","value":"MAINTENANCE"},{"type":"STATION","value":"Frankfurt Hbf"},{"type":"STATION","value":"Zürich HB"}]],"registrationTime":"2025-06-01T17:04:15+0200","start":"2025-06-18T20:15:00+0200","releaseTime":"2025-06-01T17:04:15+0200","end":"2025-06-18T22:15:00+0200","period":"Woensdag 18 juni 20:15 uur t/m woensdag 18 juni 22:15 uur.","impact":{"value":2},"publicationSections":[{"section":{"stations":[{"coordinate":{"lat":52.3788871765137,"lng":4.90027761459351},"countryCode":"NL","name":"Amsterdam Centraal","stationCode":"ASD","uicCode":"8400058"},{"coordinate":{"lat":52.3605537414551,"lng":4.93111133575439},"countryCode":"NL","name":"Amsterdam Muiderpoort","stationCode":"ASDM","uicCode":"8400060"},{"coordinate":{"lat":52.3466682434082,"lng":4.91777801513672},"countryCode":"NL","name":"Amsterdam Amstel","stationCode":"ASA","uicCode":"8400057"},{"coordinate":{"lat":52.3233337402344,"lng":4.93638896942139},"countryCode":"NL","name":"Duivendrecht","stationCode":"DVD","uicCode":"8400194"},{"coordinate":{"lat":52.3122215270996,"lng":4.94694423675537},"countryCode":"NL","name":"Amsterdam Bijlmer ArenA","stationCode":"ASB","uicCode":"8400074"},{"coordinate":{"lat":52.29844,"lng":4.95972},"countryCode":"NL","name":"Amsterdam Holendrecht","stationCode":"ASHD","uicCode":"8400231"},{"coordinate":{"lat":52.2785,"lng":4.977},"countryCode":"NL","name":"Abcoude","stationCode":"AC","uicCode":"8400047"},{"coordinate":{"lat":52.17149,"lng":4.9906},"countryCode":"NL","name":"Breukelen","stationCode":"BKL","uicCode":"8400133"},{"coordinate":{"lat":52.1352767944336,"lng":5.03361129760742},"countryCode":"NL","name":"Maarssen","stationCode":"MAS","uicCode":"8400419"},{"coordinate":{"lat":52.103055,"lng":5.09},"countryCode":"NL","name":"Utrecht Zuilen","stationCode":"UTZL","uicCode":"8400613"},{"coordinate":{"lat":52.0888900756836,"lng":5.11027765274048},"countryCode":"NL","name":"Utrecht Centraal","stationCode":"UT","uicCode":"8400621"},{"coordinate":{"lat":52.078889,"lng":5.121667},"countryCode":"NL","name":"Utrecht Vaartsche Rijn","stationCode":"UTVR","uicCode":"8400606"},{"coordinate":{"lat":52.0630569458008,"lng":5.19444465637207},"countryCode":"NL","name":"Bunnik","stationCode":"BNK","uicCode":"8400141"},{"coordinate":{"lat":52.0652770996094,"lng":5.25861120223999},"countryCode":"NL","name":"Driebergen-Zeist","stationCode":"DB","uicCode":"8400182"},{"coordinate":{"lat":52.0641670227051,"lng":5.36999988555908},"countryCode":"NL","name":"Maarn","stationCode":"MRN","uicCode":"8400417"},{"coordinate":{"lat":52.0458335876465,"lng":5.57388877868652},"countryCode":"NL","name":"Veenendaal-De Klomp","stationCode":"KLP","uicCode":"8400637"},{"coordinate":{"lat":52.0277786254883,"lng":5.67305564880371},"countryCode":"NL","name":"Ede-Wageningen","stationCode":"ED","uicCode":"8400200"},{"coordinate":{"lat":52.0055541992188,"lng":5.7936110496521},"countryCode":"NL","name":"Wolfheze","stationCode":"WF","uicCode":"8400704"},{"coordinate":{"lat":51.9949989318848,"lng":5.84000015258789},"countryCode":"NL","name":"Oosterbeek","stationCode":"OTB","uicCode":"8400489"},{"coordinate":{"lat":51.9850006103516,"lng":5.89916658401489},"countryCode":"NL","name":"Arnhem Centraal","stationCode":"AH","uicCode":"8400071"},{"coordinate":{"lat":51.985279083252,"lng":5.91944456100464},"countryCode":"NL","name":"Arnhem Velperpoort","stationCode":"AHP","uicCode":"8400072"},{"coordinate":{"lat":51.96286,"lng":5.9695},"countryCode":"NL","name":"Westervoort","stationCode":"WTV","uicCode":"8400688"},{"coordinate":{"lat":51.9433326721191,"lng":6.01472234725952},"countryCode":"NL","name":"Duiven","stationCode":"DVN","uicCode":"8400193"},{"coordinate":{"lat":51.9230537414551,"lng":6.07194423675537},"countryCode":"NL","name":"Zevenaar","stationCode":"ZV","uicCode":"8400735"},{"coordinate":{"lat":51.8743,"lng":6.15417},"countryCode":"D","name":"Emmerich-Elten","stationCode":"EL","uicCode":"8033415"},{"coordinate":{"lat":51.834283,"lng":6.255718},"countryCode":"D","name":"Emmerich","stationCode":"EM","uicCode":"8010288"},{"coordinate":{"lat":51.47512,"lng":6.852038},"countryCode":"D","name":"Oberhausen Hbf","stationCode":"OBERH","uicCode":"8010263"},{"coordinate":{"lat":51.4297785713316,"lng":6.77590370178222},"countryCode":"D","name":"Duisburg Hbf","stationCode":"DUISB","uicCode":"8010316"},{"coordinate":{"lat":51.220146,"lng":6.793137},"countryCode":"D","name":"Düsseldorf Hbf","stationCode":"DUSSEL","uicCode":"8008094"},{"coordinate":{"lat":50.9432158,"lng":6.9589214},"countryCode":"D","name":"Köln Hbf","stationCode":"KOLN","uicCode":"8015458"},{"coordinate":{"lat":50.7320141646745,"lng":7.09712505340576},"countryCode":"D","name":"Bonn Hbf","stationCode":"BONN","uicCode":"8015485"},{"coordinate":{"lat":50.351085,"lng":7.588649},"countryCode":"D","name":"Koblenz Hbf","stationCode":"KKO","uicCode":"8019023"},{"coordinate":{"lat":50.001117,"lng":8.25872},"countryCode":"D","name":"Mainz Hbf","stationCode":"FMZ","uicCode":"8019051"},{"coordinate":{"lat":50.0531710299286,"lng":8.570237159729},"countryCode":"D","name":"Frankfurt Flughafen Fernb","stationCode":"FNAF","uicCode":"8061676"},{"coordinate":{"lat":50.1071222,"lng":8.6638338},"countryCode":"D","name":"Frankfurt (M) Hbf","stationCode":"FFFM","uicCode":"8011068"},{"coordinate":{"lat":49.479354,"lng":8.468921},"countryCode":"D","name":"Mannheim Hbf","stationCode":"MANNHE","uicCode":"8014008"},{"coordinate":{"lat":48.9936223,"lng":8.400743},"countryCode":"D","name":"Karlsruhe Hbf","stationCode":"KARLSR","uicCode":"8014228"},{"coordinate":{"lat":48.790082,"lng":8.190468},"countryCode":"D","name":"Baden-Baden","stationCode":"RBB","uicCode":"8014277"},{"coordinate":{"lat":48.476475,"lng":7.946723},"countryCode":"D","name":"Offenburg","stationCode":"RO","uicCode":"8014309"},{"coordinate":{"lat":47.99789,"lng":7.84134},"countryCode":"D","name":"Freiburg (Breisgau) Hbf","stationCode":"RF","uicCode":"8014350"},{"coordinate":{"lat":47.56815,"lng":7.6073},"countryCode":"D","name":"Basel Bad Bf","stationCode":"BASELB","uicCode":"8014431"},{"coordinate":{"lat":47.5474,"lng":7.58956},"countryCode":"CH","name":"Basel SBB","stationCode":"BASELS","uicCode":"8500010"},{"coordinate":{"lat":47.37819,"lng":8.5392},"countryCode":"CH","name":"Zürich HB","stationCode":"ZUE","uicCode":"8503000"}],"direction":"BOTH","operators":["NS Int"]},"consequence":{"section":{"stations":[{"coordinate":{"lat":52.3788871765137,"lng":4.90027761459351},"countryCode":"NL","name":"Amsterdam Centraal","stationCode":"ASD","uicCode":"8400058"},{"coordinate":{"lat":52.3605537414551,"lng":4.93111133575439},"countryCode":"NL","name":"Amsterdam Muiderpoort","stationCode":"ASDM","uicCode":"8400060"},{"coordinate":{"lat":52.3466682434082,"lng":4.91777801513672},"countryCode":"NL","name":"Amsterdam Amstel","stationCode":"ASA","uicCode":"8400057"},{"coordinate":{"lat":52.3233337402344,"lng":4.93638896942139},"countryCode":"NL","name":"Duivendrecht","stationCode":"DVD","uicCode":"8400194"},{"coordinate":{"lat":52.3122215270996,"lng":4.94694423675537},"countryCode":"NL","name":"Amsterdam Bijlmer ArenA","stationCode":"ASB","uicCode":"8400074"},{"coordinate":{"lat":52.29844,"lng":4.95972},"countryCode":"NL","name":"Amsterdam Holendrecht","stationCode":"ASHD","uicCode":"8400231"},{"coordinate":{"lat":52.2785,"lng":4.977},"countryCode":"NL","name":"Abcoude","stationCode":"AC","uicCode":"8400047"},{"coordinate":{"lat":52.17149,"lng":4.9906},"countryCode":"NL","name":"Breukelen","stationCode":"BKL","uicCode":"8400133"},{"coordinate":{"lat":52.1352767944336,"lng":5.03361129760742},"countryCode":"NL","name":"Maarssen","stationCode":"MAS","uicCode":"8400419"},{"coordinate":{"lat":52.103055,"lng":5.09},"countryCode":"NL","name":"Utrecht Zuilen","stationCode":"UTZL","uicCode":"8400613"},{"coordinate":{"lat":52.0888900756836,"lng":5.11027765274048},"countryCode":"NL","name":"Utrecht Centraal","stationCode":"UT","uicCode":"8400621"},{"coordinate":{"lat":52.078889,"lng":5.121667},"countryCode":"NL","name":"Utrecht Vaartsche Rijn","stationCode":"UTVR","uicCode":"8400606"},{"coordinate":{"lat":52.0630569458008,"lng":5.19444465637207},"countryCode":"NL","name":"Bunnik","stationCode":"BNK","uicCode":"8400141"},{"coordinate":{"lat":52.0652770996094,"lng":5.25861120223999},"countryCode":"NL","name":"Driebergen-Zeist","stationCode":"DB","uicCode":"8400182"},{"coordinate":{"lat":52.0641670227051,"lng":5.36999988555908},"countryCode":"NL","name":"Maarn","stationCode":"MRN","uicCode":"8400417"},{"coordinate":{"lat":52.0458335876465,"lng":5.57388877868652},"countryCode":"NL","name":"Veenendaal-De Klomp","stationCode":"KLP","uicCode":"8400637"},{"coordinate":{"lat":52.0277786254883,"lng":5.67305564880371},"countryCode":"NL","name":"Ede-Wageningen","stationCode":"ED","uicCode":"8400200"},{"coordinate":{"lat":52.0055541992188,"lng":5.7936110496521},"countryCode":"NL","name":"Wolfheze","stationCode":"WF","uicCode":"8400704"},{"coordinate":{"lat":51.9949989318848,"lng":5.84000015258789},"countryCode":"NL","name":"Oosterbeek","stationCode":"OTB","uicCode":"8400489"},{"coordinate":{"lat":51.9850006103516,"lng":5.89916658401489},"countryCode":"NL","name":"Arnhem Centraal","stationCode":"AH","uicCode":"8400071"},{"coordinate":{"lat":51.985279083252,"lng":5.91944456100464},"countryCode":"NL","name":"Arnhem Velperpoort","stationCode":"AHP","uicCode":"8400072"},{"coordinate":{"lat":51.96286,"lng":5.9695},"countryCode":"NL","name":"Westervoort","stationCode":"WTV","uicCode":"8400688"},{"coordinate":{"lat":51.9433326721191,"lng":6.01472234725952},"countryCode":"NL","name":"Duiven","stationCode":"DVN","uicCode":"8400193"},{"coordinate":{"lat":51.9230537414551,"lng":6.07194423675537},"countryCode":"NL","name":"Zevenaar","stationCode":"ZV","uicCode":"8400735"},{"coordinate":{"lat":51.8743,"lng":6.15417},"countryCode":"D","name":"Emmerich-Elten","stationCode":"EL","uicCode":"8033415"},{"coordinate":{"lat":51.834283,"lng":6.255718},"countryCode":"D","name":"Emmerich","stationCode":"EM","uicCode":"8010288"},{"coordinate":{"lat":51.47512,"lng":6.852038},"countryCode":"D","name":"Oberhausen Hbf","stationCode":"OBERH","uicCode":"8010263"},{"coordinate":{"lat":51.4297785713316,"lng":6.77590370178222},"countryCode":"D","name":"Duisburg Hbf","stationCode":"DUISB","uicCode":"8010316"},{"coordinate":{"lat":51.220146,"lng":6.793137},"countryCode":"D","name":"Düsseldorf Hbf","stationCode":"DUSSEL","uicCode":"8008094"},{"coordinate":{"lat":50.9432158,"lng":6.9589214},"countryCode":"D","name":"Köln Hbf","stationCode":"KOLN","uicCode":"8015458"},{"coordinate":{"lat":50.7320141646745,"lng":7.09712505340576},"countryCode":"D","name":"Bonn Hbf","stationCode":"BONN","uicCode":"8015485"},{"coordinate":{"lat":50.351085,"lng":7.588649},"countryCode":"D","name":"Koblenz Hbf","stationCode":"KKO","uicCode":"8019023"},{"coordinate":{"lat":50.001117,"lng":8.25872},"countryCode":"D","name":"Mainz Hbf","stationCode":"FMZ","uicCode":"8019051"},{"coordinate":{"lat":50.0531710299286,"lng":8.570237159729},"countryCode":"D","name":"Frankfurt Flughafen Fernb","stationCode":"FNAF","uicCode":"8061676"},{"coordinate":{"lat":50.1071222,"lng":8.6638338},"countryCode":"D","name":"Frankfurt (M) Hbf","stationCode":"FFFM","uicCode":"8011068"}],"direction":"BOTH","operators":["NS Int"]},"description":"aangepaste internationale dienstregeling","level":"LESS_TRAINS"},"sectionType":"NEIGHBORING_COUNTRY"}],"summaryAdditionalTravelTime":{"label":"De extra reistijd is ongeveer 0 minuten.","shortLabel":"Extra reistijd 0 min.","minimumDurationInMinutes":0,"maximumDurationInMinutes":0},"timespans":[{"start":"2025-06-18T20:15:00+0200","end":"2025-06-18T22:15:00+0200","period":"Woensdag 18 juni 20:15 uur t/m woensdag 18 juni 22:15 uur.","situation":{"label":"Door werkzaamheden: tussen Amsterdam Centraal en Frankfurt (M) Hbf is de internationale dienstregeling aangepast."},"cause":{"label":"werkzaamheden"},"additionalTravelTime":{"label":"De extra reistijd is ongeveer 0 minuten.","shortLabel":"Extra reistijd 0 min.","minimumDurationInMinutes":0,"maximumDurationInMinutes":0},"advices":["Nightjet 403 rijdt via een andere route en stopt niet in Eindhoven Centraal maar stopt in plaats daarvan op Arnhem C. en Emmerich. "]}],"alternativeTransportTimespans":[]},{"type":"MAINTENANCE","id":"7006257","title":"Heerlen - Aachen Hbf.","isActive":false,"local":false,"titleSections":[[{"type":"STATION","value":"Heerlen"},{"type":"ICON","value":"MAINTENANCE"},{"type":"STATION","value":"Aachen Hbf"},{"type":"ICON","value":"MAINTENANCE"},{"type":"STATION","value":"Landgraaf"}]],"registrationTime":"2025-06-06T19:33:56+0200","start":"2025-06-19T00:01:00+0200","releaseTime":"2025-06-06T19:33:56+0200","end":"2025-06-23T15:05:00+0200","period":"Donderdag 19 juni 0:01 uur t/m maandag 23 juni 15:05 uur.","impact":{"value":4},"publicationSections":[{"section":{"stations":[{"coordinate":{"lat":50.8908348083496,"lng":5.97499990463257},"countryCode":"NL","name":"Heerlen","stationCode":"HRL","uicCode":"8400307"},{"coordinate":{"lat":50.8963890075684,"lng":6.01916646957398},"countryCode":"NL","name":"Landgraaf","stationCode":"LG","uicCode":"8400548"},{"coordinate":{"lat":50.8960498196442,"lng":6.0602474212646396},"countryCode":"NL","name":"Eygelshoven Markt","stationCode":"EGHM","uicCode":"8400234"},{"coordinate":{"lat":50.870916,"lng":6.094486},"countryCode":"D","name":"Herzogenrath","stationCode":"HZ","uicCode":"8015190"},{"coordinate":{"lat":50.7678,"lng":6.091499},"countryCode":"D","name":"Aachen Hbf","stationCode":"AHBF","uicCode":"8015345"}],"direction":"BOTH","operators":["Arriva"]},"consequence":{"section":{"stations":[{"coordinate":{"lat":50.8908348083496,"lng":5.97499990463257},"countryCode":"NL","name":"Heerlen","stationCode":"HRL","uicCode":"8400307"},{"coordinate":{"lat":50.8963890075684,"lng":6.01916646957398},"countryCode":"NL","name":"Landgraaf","stationCode":"LG","uicCode":"8400548"},{"coordinate":{"lat":50.8960498196442,"lng":6.0602474212646396},"countryCode":"NL","name":"Eygelshoven Markt","stationCode":"EGHM","uicCode":"8400234"},{"coordinate":{"lat":50.870916,"lng":6.094486},"countryCode":"D","name":"Herzogenrath","stationCode":"HZ","uicCode":"8015190"},{"coordinate":{"lat":50.7678,"lng":6.091499},"countryCode":"D","name":"Aachen Hbf","stationCode":"AHBF","uicCode":"8015345"}],"direction":"BOTH","operators":["Arriva"]},"description":"er rijden bussen","level":"LESS_TRAINS"},"sectionType":"NEIGHBORING_COUNTRY"},{"section":{"stations":[{"coordinate":{"lat":50.8908348083496,"lng":5.97499990463257},"countryCode":"NL","name":"Heerlen","stationCode":"HRL","uicCode":"8400307"},{"coordinate":{"lat":50.8963890075684,"lng":6.01916646957398},"countryCode":"NL","name":"Landgraaf","stationCode":"LG","uicCode":"8400548"},{"coordinate":{"lat":50.8960498196442,"lng":6.0602474212646396},"countryCode":"NL","name":"Eygelshoven Markt","stationCode":"EGHM","uicCode":"8400234"},{"coordinate":{"lat":50.870916,"lng":6.094486},"countryCode":"D","name":"Herzogenrath","stationCode":"HZ","uicCode":"8015190"},{"coordinate":{"lat":50.7678,"lng":6.091499},"countryCode":"D","name":"Aachen Hbf","stationCode":"AHBF","uicCode":"8015345"}],"direction":"BOTH","operators":["Arriva"]},"consequence":{"section":{"stations":[{"coordinate":{"lat":50.8908348083496,"lng":5.97499990463257},"countryCode":"NL","name":"Heerlen","stationCode":"HRL","uicCode":"8400307"},{"coordinate":{"lat":50.8963890075684,"lng":6.01916646957398},"countryCode":"NL","name":"Landgraaf","stationCode":"LG","uicCode":"8400548"}],"direction":"BOTH","operators":["Arriva"]},"description":"extra treinen","level":"LESS_TRAINS"},"sectionType":"NEIGHBORING_COUNTRY"}],"summaryAdditionalTravelTime":{"label":"De extra reistijd kan oplopen tot 45 minuten.","shortLabel":"Extra reistijd tot 45 min.","maximumDurationInMinutes":45},"timespans":[{"start":"2025-06-19T00:01:00+0200","end":"2025-06-23T15:05:00+0200","period":"Donderdag 19 juni 0:01 uur t/m maandag 23 juni 15:05 uur.","situation":{"label":"Door werkzaamheden: tussen Heerlen en Aachen Hbf rijden er bussen en tussen Heerlen en Landgraaf rijden er extra treinen."},"cause":{"label":"werkzaamheden"},"additionalTravelTime":{"label":"De extra reistijd kan oplopen tot 45 minuten.","shortLabel":"Extra reistijd tot 45 min.","maximumDurationInMinutes":45},"alternativeTransport":{"label":"er rijden stopbussen","shortLabel":"er rijden stopbussen"},"advices":["Vervangend internationaal vervoer tussen Heerlen-Aachen. Pinkpop: station Landgraaf bereikbaar met speciale pendeltreindienst."]}],"alternativeTransportTimespans":[{"start":"2025-06-19T00:01:00+0200","end":"2025-06-23T15:05:00+0200","alternativeTransport":{"location":[{"station":{"coordinate":{"lat":50.8908348083496,"lng":5.97499990463257},"countryCode":"NL","name":"Heerlen","stationCode":"HRL","uicCode":"8400307"},"description":"vanaf het busstation Perron A"},{"station":{"coordinate":{"lat":50.8963890075684,"lng":6.01916646957398},"countryCode":"NL","name":"Landgraaf","stationCode":"LG","uicCode":"8400548"},"description":"volg de aanwijzingen op het station"},{"station":{"coordinate":{"lat":50.8960498196442,"lng":6.0602474212646396},"countryCode":"NL","name":"Eygelshoven Markt","stationCode":"EGHM","uicCode":"8400234"},"description":"vanaf de bushalte Centrum"},{"station":{"coordinate":{"lat":50.870916,"lng":6.094486},"countryCode":"D","name":"Herzogenrath","stationCode":"HZ","uicCode":"8015190"},"description":"vanaf de bushalte"},{"station":{"coordinate":{"lat":50.78036,"lng":6.070715},"countryCode":"D","name":"Aachen West","stationCode":"AW","uicCode":"8015199"},"description":"volg de aanwijzingen op het station"},{"station":{"coordinate":{"lat":50.7678,"lng":6.091499},"countryCode":"D","name":"Aachen Hbf","stationCode":"AHBF","uicCode":"8015345"},"description":"vanaf de bushalte perron H3"}],"label":"Er rijden stopbussen tussen Heerlen, Landgraaf, Eygelshoven Markt, Herzogenrath, Aachen West en Aachen Hbf.","shortLabel":"Er rijden stopbussen Heerlen - Landgraaf - Eygelshoven Mrkt - Herzogenrath - Aachen West - Aachen Hbf."}}]},{"type":"MAINTENANCE","id":"7006285","title":"Haarlem - Leiden; Haarlem - Zandvoort.","isActive":false,"local":false,"titleSections":[[{"type":"STATION","value":"Haarlem"},{"type":"ICON","value":"MAINTENANCE"},{"type":"STATION","value":"Leiden C."}],[{"type":"STATION","value":"Haarlem"},{"type":"ICON","value":"MAINTENANCE"},{"type":"STATION","value":"Zandvoort"}]],"registrationTime":"2025-06-18T13:04:12+0200","start":"2025-06-20T04:00:00+0200","releaseTime":"2025-06-18T13:04:12+0200","end":"2025-06-23T02:00:00+0200","period":"Vrijdag 20 juni 4:00 uur t/m maandag 23 juni 2:00 uur.","impact":{"value":4},"publicationSections":[{"section":{"stations":[{"coordinate":{"lat":52.3877792358398,"lng":4.63833332061768},"countryCode":"NL","name":"Haarlem","stationCode":"HLM","uicCode":"8400285"},{"coordinate":{"lat":52.3591651916504,"lng":4.60666656494141},"countryCode":"NL","name":"Heemstede-Aerdenhout","stationCode":"HAD","uicCode":"8400302"},{"coordinate":{"lat":52.3025016784668,"lng":4.56555557250977},"countryCode":"NL","name":"Hillegom","stationCode":"HIL","uicCode":"8400329"},{"coordinate":{"lat":52.2244453430176,"lng":4.4844446182251},"countryCode":"NL","name":"Voorhout","stationCode":"VH","uicCode":"8400655"},{"coordinate":{"lat":52.1661109924316,"lng":4.48166656494141},"countryCode":"NL","name":"Leiden Centraal","stationCode":"LEDN","uicCode":"8400390"}],"direction":"BOTH","operators":["NS"]},"consequence":{"section":{"stations":[{"coordinate":{"lat":52.3877792358398,"lng":4.63833332061768},"countryCode":"NL","name":"Haarlem","stationCode":"HLM","uicCode":"8400285"},{"coordinate":{"lat":52.3591651916504,"lng":4.60666656494141},"countryCode":"NL","name":"Heemstede-Aerdenhout","stationCode":"HAD","uicCode":"8400302"},{"coordinate":{"lat":52.3025016784668,"lng":4.56555557250977},"countryCode":"NL","name":"Hillegom","stationCode":"HIL","uicCode":"8400329"},{"coordinate":{"lat":52.2244453430176,"lng":4.4844446182251},"countryCode":"NL","name":"Voorhout","stationCode":"VH","uicCode":"8400655"},{"coordinate":{"lat":52.1661109924316,"lng":4.48166656494141},"countryCode":"NL","name":"Leiden Centraal","stationCode":"LEDN","uicCode":"8400390"}],"direction":"BOTH","operators":["NS"]},"description":"er rijden bussen","level":"LESS_TRAINS"},"sectionType":"NL"},{"section":{"stations":[{"coordinate":{"lat":52.3877792358398,"lng":4.63833332061768},"countryCode":"NL","name":"Haarlem","stationCode":"HLM","uicCode":"8400285"},{"coordinate":{"lat":52.3911094665527,"lng":4.6061110496521},"countryCode":"NL","name":"Overveen","stationCode":"OVN","uicCode":"8400501"},{"coordinate":{"lat":52.3752784729004,"lng":4.53277778625488},"countryCode":"NL","name":"Zandvoort aan Zee","stationCode":"ZVT","uicCode":"8400733"}],"direction":"BOTH","operators":["NS"]},"consequence":{"section":{"stations":[{"coordinate":{"lat":52.3877792358398,"lng":4.63833332061768},"countryCode":"NL","name":"Haarlem","stationCode":"HLM","uicCode":"8400285"},{"coordinate":{"lat":52.3911094665527,"lng":4.6061110496521},"countryCode":"NL","name":"Overveen","stationCode":"OVN","uicCode":"8400501"},{"coordinate":{"lat":52.3752784729004,"lng":4.53277778625488},"countryCode":"NL","name":"Zandvoort aan Zee","stationCode":"ZVT","uicCode":"8400733"}],"direction":"BOTH","operators":["NS"]},"description":"er rijden bussen","level":"LESS_TRAINS"},"sectionType":"NL"}],"summaryAdditionalTravelTime":{"label":"De extra reistijd is meer dan 30 minuten.","shortLabel":"Extra reistijd meer dan 30 min.","minimumDurationInMinutes":30},"timespans":[{"start":"2025-06-20T04:00:00+0200","end":"2025-06-23T02:00:00+0200","period":"Vrijdag 20 juni 4:00 uur t/m maandag 23 juni 2:00 uur.","situation":{"label":"Door werkzaamheden: tussen Haarlem en Leiden Centraal rijden er bussen en tussen Haarlem en Zandvoort aan Zee rijden er bussen."},"cause":{"label":"werkzaamheden"},"additionalTravelTime":{"label":"De extra reistijd is meer dan 30 minuten.","shortLabel":"Extra reistijd meer dan 30 min.","minimumDurationInMinutes":30},"alternativeTransport":{"label":"er rijden stopbussen","shortLabel":"er rijden stopbussen"},"advices":["Door hoge temperaturen wordt er druk wegverkeer verwacht. Dit kan de NS-bussen ernstig vertragen. Kies bij voorkeur een andere strandbestemming.","Tussen Sloterdijk en Leiden C. reis via Schiphol Airport."]}],"alternativeTransportTimespans":[{"start":"2025-06-20T04:00:00+0200","end":"2025-06-23T02:00:00+0200","alternativeTransport":{"location":[{"station":{"coordinate":{"lat":52.3877792358398,"lng":4.63833332061768},"countryCode":"NL","name":"Haarlem","stationCode":"HLM","uicCode":"8400285"},"description":"vanaf de Jansweg"},{"station":{"coordinate":{"lat":52.3591651916504,"lng":4.60666656494141},"countryCode":"NL","name":"Heemstede-Aerdenhout","stationCode":"HAD","uicCode":"8400302"},"description":"vanaf het Stationsplein"},{"station":{"coordinate":{"lat":52.3025016784668,"lng":4.56555557250977},"countryCode":"NL","name":"Hillegom","stationCode":"HIL","uicCode":"8400329"},"description":"vanaf de voorzijde van het station"},{"station":{"coordinate":{"lat":52.2244453430176,"lng":4.4844446182251},"countryCode":"NL","name":"Voorhout","stationCode":"VH","uicCode":"8400655"},"description":"vanaf de Jacoba van Beierenweg"},