[{"id":"6017727","type":"DISRUPTION","registrationTime":"2022-07-23T17:38:38+0200","releaseTime":"2022-07-23T17:38:38+0200","local":false,"title":"Roermond-Sittard","titleSections":[[{"type":"STATION","value":"Roermond"},{"type":"ICON","value":"DISRUPTION"},{"type":"STATION","value":"Sittard"}]],"topic":"disruption_6017727_nl","isActive":true,"start":"2022-07-16T05:06:05+0200","end":"2022-09-26T05:00:00+0200","phase":{"id":"2","label":"Impact bekend"},"impact":{"value":2},"expectedDuration":{"description":"Dit duurt ten minste tot maandag 26 september 05:00 uur.","endTime":"2022-09-26T05:00:00+0200"},"summaryAdditionalTravelTime":{"label":"De extra reistijd kan oplopen tot 30 minuten.","shortLabel":"Extra reistijd tot 30 min.","maximumDurationInMinutes":30},"publicationSections":[{"section":{"stations":[{"uicCode":"8400523","stationCode":"RM","name":"Roermond","coordinate":{"lat":51.1930541992188,"lng":5.9941668510437},"countryCode":"NL"},{"uicCode":"8400195","stationCode":"EC","name":"Echt","coordinate":{"lat":51.1005554199219,"lng":5.87888908386231},"countryCode":"NL"},{"uicCode":"8400582","stationCode":"SRN","name":"Susteren","coordinate":{"lat":51.0613899230957,"lng":5.86305570602417},"countryCode":"NL"},{"uicCode":"8400564","stationCode":"STD","name":"Sittard","coordinate":{"lat":51.0016670227051,"lng":5.85861110687256},"countryCode":"NL"}],"direction":"BOTH"},"consequence":{"section":{"stations":[{"uicCode":"8400523","stationCode":"RM","name":"Roermond","coordinate":{"lat":51.1930541992188,"lng":5.9941668510437},"countryCode":"NL"},{"uicCode":"8400195","stationCode":"EC","name":"Echt","coordinate":{"lat":51.1005554199219,"lng":5.87888908386231},"countryCode":"NL"},{"uicCode":"8400582","stationCode":"SRN","name":"Susteren","coordinate":{"lat":51.0613899230957,"lng":5.86305570602417},"countryCode":"NL"},{"uicCode":"8400564","stationCode":"STD","name":"Sittard","coordinate":{"lat":51.0016670227051,"lng":5.85861110687256},"countryCode":"NL"}],"direction":"ONE_WAY"},"description":"minder treinen","level":"LESS_TRAINS"},"sectionType":"NL"}],"timespans":[{"start":"2022-07-16T05:06:05+0200","end":"2022-09-26T05:00:00+0200","situation":{"label":"Tussen Roermond en Sittard rijden er minder treinen door een beschadigde spoorbrug."},"cause":{"label":"Beschadigde spoorbrug"},"additionalTravelTime":{"label":"De extra reistijd kan oplopen tot 30 minuten.","shortLabel":"Extra reistijd tot 30 min.","maximumDurationInMinutes":30},"advices":["De reisplanner wordt per dag bijgewerkt."]}],"alternativeTransportTimespans":[]},{"id":"6018113","type":"DISRUPTION","registrationTime":"2022-08-10T16:00:04+0200","releaseTime":"2022-08-10T16:00:04+0200","local":false,"title":"Venlo-Mönchengladbach-Düsseldorf","titleSections":[[{"type":"STATION","value":"Venlo"},{"type":"ICON","value":"DISRUPTION"},{"type":"STATION","value":"Kaldenkirchen"},{"type":"STATION","value":"Düsseldorf Hbf"}]],"topic":"disruption_6018113_nl","isActive":true,"start":"2022-08-10T14:17:59+0200","end":"2022-08-10T23:00:00+0200","phase":{"id":"2","label":"Impact bekend"},"impact":{"value":3},"expectedDuration":{"description":"Dit duurt tot ongeveer 23:00 uur.","endTime":"2022-08-10T23:00:00+0200"},"summaryAdditionalTravelTime":{"label":"De extra reistijd is meer dan 60 minuten.","shortLabel":"Extra reistijd meer dan 60 min.","minimumDurationInMinutes":60},"publicationSections":[{"section":{"stations":[{"uicCode":"8400644","stationCode":"VL","name":"Venlo","coordinate":{"lat":51.3636093139648,"lng":6.17277765274048},"countryCode":"NL"},{"uicCode":"8015130","stationCode":"KN","name":"Kaldenkirchen","coordinate":{"lat":51.327184,"lng":6.203225},"countryCode":"D"},{"uicCode":"8015129","stationCode":"KBRY","name":"Breyell","coordinate":{"lat":51.294615,"lng":6.241174},"countryCode":"D"},{"uicCode":"8015128","stationCode":"KBOI","name":"Boisheim","coordinate":{"lat":51.274323,"lng":6.274591},"countryCode":"D"},{"uicCode":"8015125","stationCode":"KDUL","name":"Dülken","coordinate":{"lat":51.257149,"lng":6.33793},"countryCode":"D"},{"uicCode":"8015122","stationCode":"VIERS","name":"Viersen","coordinate":{"lat":51.25516,"lng":6.40388},"countryCode":"D"},{"uicCode":"8015165","stationCode":"MCGB","name":"Mönchengladbach Hbf","coordinate":{"lat":51.196583,"lng":6.446111},"countryCode":"D"},{"uicCode":"8015149","stationCode":"NEUSS","name":"Neuss Hbf","coordinate":{"lat":51.20444,"lng":6.68468},"countryCode":"D"},{"uicCode":"8008094","stationCode":"DUSSEL","name":"Düsseldorf Hbf","coordinate":{"lat":51.220146,"lng":6.793137},"countryCode":"D"}],"direction":"BOTH"},"consequence":{"section":{"stations":[{"uicCode":"8400644","stationCode":"VL","name":"Venlo","coordinate":{"lat":51.3636093139648,"lng":6.17277765274048},"countryCode":"NL"},{"uicCode":"8015130","stationCode":"KN","name":"Kaldenkirchen","coordinate":{"lat":51.327184,"lng":6.203225},"countryCode":"D"}],"direction":"ONE_WAY"},"description":"geen treinen","level":"NO_OR_MUCH_LESS_TRAINS"},"sectionType":"NEIGHBORING_COUNTRY"}],"timespans":[{"start":"2022-08-10T14:17:59+0200","end":"2022-08-10T23:00:00+0200","situation":{"label":"Tussen Venlo en Kaldenkirchen rijden er geen treinen door een defecte trein."},"cause":{"label":"Defecte trein"},"additionalTravelTime":{"label":"De extra reistijd is meer dan 60 minuten.","shortLabel":"Extra reistijd meer dan 60 min.","minimumDurationInMinutes":60},"advices":[]}],"alternativeTransportTimespans":[]},{"id":"6018120","type":"DISRUPTION","registrationTime":"2022-08-10T20:17:28+0200","releaseTime":"2022-08-10T20:17:28+0200","local":false,"title":"Utrecht-Amersfoort","titleSections":[[{"type":"STATION","value":"Utrecht C."},{"type":"ICON","value":"DISRUPTION"},{"type":"STATION","value":"Amersfoort C."}]],"topic":"disruption_6018120_nl","isActive":true,"start":"2022-08-10T18:18:28+0200","end":"2022-08-10T22:30:00+0200","phase":{"id":"2","label":"Impact bekend"},"impact":{"value":3},"expectedDuration":{"description":"Dit duurt tot ongeveer 22:30 uur.","endTime":"2022-08-10T22:30:00+0200"},"publicationSections":[{"section":{"stations":[{"uicCode":"8400621","stationCode":"UT","name":"Utrecht Centraal","coordinate":{"lat":52.0888900756836,"lng":5.11027765274048},"countryCode":"NL"},{"uicCode":"8400620","stationCode":"UTO","name":"Utrecht Overvecht","coordinate":{"lat":52.1100006103516,"lng":5.12472200393677},"countryCode":"NL"},{"uicCode":"8400114","stationCode":"BHV","name":"Bilthoven","coordinate":{"lat":52.1300010681152,"lng":5.20388889312744},"countryCode":"NL"},{"uicCode":"8400179","stationCode":"DLD","name":"Den Dolder","coordinate":{"lat":52.1402778625488,"lng":5.24277782440186},"countryCode":"NL"},{"uicCode":"8400055","stationCode":"AMF","name":"Amersfoort Centraal","coordinate":{"lat":52.1538887023926,"lng":5.37055540084839},"countryCode":"NL"}],"direction":"BOTH"},"consequence":{"section":{"stations":[{"uicCode":"8400621","stationCode":"UT","name":"Utrecht Centraal","coordinate":{"lat":52.0888900756836,"lng":5.11027765274048},"countryCode":"NL"},{"uicCode":"8400620","stationCode":"UTO","name":"Utrecht Overvecht","coordinate":{"lat":52.1100006103516,"lng":5.12472200393677},"countryCode":"NL"},{"uicCode":"8400114","stationCode":"BHV","name":"Bilthoven","coordinate":{"lat":52.1300010681152,"lng":5.20388889312744},"countryCode":"NL"},{"uicCode":"8400179","stationCode":"DLD","name":"Den Dolder","coordinate":{"lat":52.1402778625488,"lng":5.24277782440186},"countryCode":"NL"},{"uicCode":"8400055","stationCode":"AMF","name":"Amersfoort Centraal","coordinate":{"lat":52.1538887023926,"lng":5.37055540084839},"countryCode":"NL"}],"direction":"ONE_WAY"},"description":"geen Intercity's","level":"LESS_TRAINS"},"sectionType":"NL"}],"timespans":[{"start":"2022-08-10T18:18:28+0200","end":"2022-08-10T22:30:00+0200","situation":{"label":"Tussen Amersfoort Centraal en Utrecht Centraal rijden er geen Intercity's door herstelwerkzaamheden."},"cause":{"label":"Herstelwerkzaamheden"},"advices":[]}],"alternativeTransportTimespans":[]},{"id":"6018121","type":"DISRUPTION","registrationTime":"2022-08-10T21:34:25+0200","releaseTime":"2022-08-10T21:34:25+0200","local":false,"title":"Amsterdam-Schiphol-Rotterdam (HSL)","titleSections":[[{"type":"STATION","value":"Amsterdam C."},{"type":"ICON","value":"DISRUPTION"},{"type":"STATION","value":"Rotterdam C."}]],"topic":"disruption_6018121_nl","isActive":true,"start":"2022-08-10T21:00:29+0200","end":"2022-08-10T23:00:00+0200","phase":{"id":"2","label":"Impact bekend"},"impact":{"value":3},"expectedDuration":{"description":"Dit duurt tot ongeveer 23:00 uur.","endTime":"2022-08-10T23:00:00+0200"},"publicationSections":[{"section":{"stations":[{"uicCode":"8400058","stationCode":"ASD","name":"Amsterdam Centraal","coordinate":{"lat":52.3788871765137,"lng":4.90027761459351},"countryCode":"NL"},{"uicCode":"8400059","stationCode":"ASS","name":"Amsterdam Sloterdijk","coordinate":{"lat":52.3888893127441,"lng":4.83777761459351},"countryCode":"NL"},{"uicCode":"8400079","stationCode":"ASDL","name":"Amsterdam Lelylaan","coordinate":{"lat":52.3577766418457,"lng":4.83388900756836},"countryCode":"NL"},{"uicCode":"8400561","stationCode":"SHL","name":"Schiphol Airport","coordinate":{"lat":52.3094444274902,"lng":4.76194429397583},"countryCode":"NL"},{"uicCode":"8400332","stationCode":"HFD","name":"Hoofddorp","coordinate":{"lat":52.2933349609375,"lng":4.70055532455444},"countryCode":"NL"},{"uicCode":"8400530","stationCode":"RTD","name":"Rotterdam Centraal","coordinate":{"lat":51.9249992370605,"lng":4.46888875961304},"countryCode":"NL"}],"direction":"BOTH"},"consequence":{"section":{"stations":[{"uicCode":"8400058","stationCode":"ASD","name":"Amsterdam Centraal","coordinate":{"lat":52.3788871765137,"lng":4.90027761459351},"countryCode":"NL"},{"uicCode":"8400059","stationCode":"ASS","name":"Amsterdam Sloterdijk","coordinate":{"lat":52.3888893127441,"lng":4.83777761459351},"countryCode":"NL"},{"uicCode":"8400079","stationCode":"ASDL","name":"Amsterdam Lelylaan","coordinate":{"lat":52.3577766418457,"lng":4.83388900756836},"countryCode":"NL"},{"uicCode":"8400561","stationCode":"SHL","name":"Schiphol Airport","coordinate":{"lat":52.3094444274902,"lng":4.76194429397583},"countryCode":"NL"},{"uicCode":"8400332","stationCode":"HFD","name":"Hoofddorp","coordinate":{"lat":52.2933349609375,"lng":4.70055532455444},"countryCode":"NL"},{"uicCode":"8400530","stationCode":"RTD","name":"Rotterdam Centraal","coordinate":{"lat":51.9249992370605,"lng":4.46888875961304},"countryCode":"NL"}],"direction":"ONE_WAY"},"description":"geen treinen","level":"NO_OR_MUCH_LESS_TRAINS"},"sectionType":"HSL"}],"timespans":[{"start":"2022-08-10T21:00:29+0200","end":"2022-08-10T23:00:00+0200","situation":{"label":"Tussen Amsterdam Centraal en Rotterdam Centraal rijden er geen treinen door een gestrande trein."},"cause":{"label":"Gestrande trein"},"advices":[]}],"alternativeTransportTimespans":[]},{"id":"8e3de374-26c8-4919-b26f-4c8c67f9df1f","title":"Geldermalsen-Tiel , maandag 15 t/m vrijdag 19 augustus","topic":"disruption_8e3de374-26c8-4919-b26f-4c8c67f9df1f_nl","description":"Door werkzaamheden rijden van maandag 15 t/m vrijdag 19 augustus bussen tussen Geldermalsen en Tiel. Plan je reis vooraf met de reisplanner.","priority":"PRIO_3","lastUpdated":"2022-07-06T11:52:00+0200","bodyItems":[],"buttons":{"position":["BOTTOM"],"items":[{"label":"Plan je reis","type":"PLANNER","accessibilityLabel":"Plan je reis","url":"https://www.ns.nl/reisplanner"},{"label":"Werk aan het spoor","type":"MAINTENANCE","accessibilityLabel":"Werk aan het spoor","url":"https://www.ns.nl/reisinformatie/werk-aan-het-spoor"}]},"url":"https://www.ns.nl/reisinformatie/calamiteiten/geldermalsen-tiel.html","type":"CALAMITY","isActive":true},{"id":"6750abad-769a-4b8b-9c9e-7fd8a15b3188","title":"Momenteel op een aantal trajecten minder treinen","topic":"disruption_6750abad-769a-4b8b-9c9e-7fd8a15b3188_nl","description":"Door een tekort aan personeel rijden momenteel op een aantal trajecten minder treinen. Net als veel andere bedrijven en sectoren ondervindt NS de gevolgen van de krappe arbeidsmarkt. Daarom wordt vooraf bepaald of het nodig is om op een aantal trajecten minder treinen te rijden. Zo kunnen we je informeren en dat beperkt vervelende verrassingen. Plan je reis in de reisplanner.","priority":"PRIO_3","lastUpdated":"2022-07-14T17:40:00+0200","bodyItems":[],"buttons":{"position":["BOTTOM"],"items":[{"label":"Reisplanner","type":"PLANNER","accessibilityLabel":"Reisplanner","url":"https://www.ns.nl/reisplanner/"},{"label":"Aangepaste dienstregeling","type":"EXTERNAL","accessibilityLabel":"Aangepaste dienstregeling","url":"https://www.ns.nl/reisinformatie/dienstregeling"}]},"url":"https://www.ns.nl/reisinformatie/calamiteiten/momenteel-op-een-aantal-trajecten-minder-treinen.html","type":"CALAMITY","isActive":true},{"id":"7002645","type":"MAINTENANCE","registrationTime":"2022-07-27T09:41:39+0200","releaseTime":"2022-07-27T09:41:39+0200","local":false,"title":"Amsterdam - Hannover - Berlin","titleSections":[[{"type":"STATION","value":"Amsterdam C."},{"type":"STATION","value":"Bad Bentheim"},{"type":"ICON","value":"MAINTENANCE"},{"type":"STATION","value":"Berlin Hbf"}]],"isActive":true,"start":"2022-08-05T04:00:00+0200","end":"2022-08-20T02:00:00+0200","period":"Vrijdag 05-08-2022 04:00 uur t/m zaterdag 20-08-2022 02:00 uur.","impact":{"value":2},"summaryAdditionalTravelTime":{"label":"De extra reistijd kan oplopen tot 0 minuten.","shortLabel":"Extra reistijd tot 0 min.","maximumDurationInMinutes":0},"publicationSections":[{"section":{"stations":[{"uicCode":"8400058","stationCode":"ASD","name":"Amsterdam Centraal","coordinate":{"lat":52.3788871765137,"lng":4.90027761459351},"countryCode":"NL"},{"uicCode":"8400060","stationCode":"ASDM","name":"Amsterdam Muiderpoort","coordinate":{"lat":52.3605537414551,"lng":4.93111133575439},"countryCode":"NL"},{"uicCode":"8400235","stationCode":"ASSP","name":"Amsterdam Science Park","coordinate":{"lat":52.35526,"lng":4.94651},"countryCode":"NL"},{"uicCode":"8400165","stationCode":"DMN","name":"Diemen","coordinate":{"lat":52.34515,"lng":4.967566},"countryCode":"NL"},{"uicCode":"8400685","stationCode":"WP","name":"Weesp","coordinate":{"lat":52.3127784729004,"lng":5.04305553436279},"countryCode":"NL"},{"uicCode":"8400452","stationCode":"NDB","name":"Naarden-Bussum","coordinate":{"lat":52.2802772521973,"lng":5.15694427490234},"countryCode":"NL"},{"uicCode":"8400145","stationCode":"BSMZ","name":"Bussum Zuid","coordinate":{"lat":52.2658348083496,"lng":5.16305541992188},"countryCode":"NL"},{"uicCode":"8400324","stationCode":"HVSM","name":"Hilversum Media Park","coordinate":{"lat":52.2380561828613,"lng":5.17388868331909},"countryCode":"NL"},{"uicCode":"8400322","stationCode":"HVS","name":"Hilversum","coordinate":{"lat":52.2258338928223,"lng":5.18194437026978},"countryCode":"NL"},{"uicCode":"8400086","stationCode":"BRN","name":"Baarn","coordinate":{"lat":52.2083320617676,"lng":5.28083324432373},"countryCode":"NL"},{"uicCode":"8400055","stationCode":"AMF","name":"Amersfoort Centraal","coordinate":{"lat":52.1538887023926,"lng":5.37055540084839},"countryCode":"NL"},{"uicCode":"8400490","stationCode":"HVL","name":"Hoevelaken","coordinate":{"lat":52.16652,"lng":5.45718},"countryCode":"NL"},{"uicCode":"8400066","stationCode":"APD","name":"Apeldoorn","coordinate":{"lat":52.2091674804687,"lng":5.97027778625488},"countryCode":"NL"},{"uicCode":"8400229","stationCode":"APDO","name":"Apeldoorn Osseveld","coordinate":{"lat":52.2152786254883,"lng":6.00444459915161},"countryCode":"NL"},{"uicCode":"8400599","stationCode":"TWL","name":"Twello","coordinate":{"lat":52.2377777099609,"lng":6.09861087799072},"countryCode":"NL"},{"uicCode":"8400173","stationCode":"DV","name":"Deventer","coordinate":{"lat":52.2574996948242,"lng":6.16055536270142},"countryCode":"NL"},{"uicCode":"8400185","stationCode":"DVC","name":"Deventer Colmschate","coordinate":{"lat":52.2502784729004,"lng":6.21444463729858},"countryCode":"NL"},{"uicCode":"8400328","stationCode":"HON","name":"Holten","coordinate":{"lat":52.2838897705078,"lng":6.42027759552002},"countryCode":"NL"},{"uicCode":"8400538","stationCode":"RSN","name":"Rijssen","coordinate":{"lat":52.3122215270996,"lng":6.52027797698975},"countryCode":"NL"},{"uicCode":"8400691","stationCode":"WDN","name":"Wierden","coordinate":{"lat":52.3613891601562,"lng":6.59166669845581},"countryCode":"NL"},{"uicCode":"8400051","stationCode":"AML","name":"Almelo","coordinate":{"lat":52.3580551147461,"lng":6.65388870239258},"countryCode":"NL"},{"uicCode":"8400520","stationCode":"AMRI","name":"Almelo de Riet","coordinate":{"lat":52.3419456481934,"lng":6.66666650772095},"countryCode":"NL"},{"uicCode":"8400124","stationCode":"BN","name":"Borne","coordinate":{"lat":52.2988891601562,"lng":6.74805545806885},"countryCode":"NL"},{"uicCode":"8400316","stationCode":"HGL","name":"Hengelo","coordinate":{"lat":52.2616653442383,"lng":6.79388904571533},"countryCode":"NL"},{"uicCode":"8400312","stationCode":"HGLO","name":"Hengelo Oost","coordinate":{"lat":52.2688903808594,"lng":6.81944465637207},"countryCode":"NL"},{"uicCode":"8400483","stationCode":"ODZ","name":"Oldenzaal","coordinate":{"lat":52.3063888549805,"lng":6.93472242355347},"countryCode":"NL"},{"uicCode":"8021156","stationCode":"BH","name":"Bad Bentheim","coordinate":{"lat":52.309685595156,"lng":7.15853691101074},"countryCode":"D"},{"uicCode":"8021067","stationCode":"RHEINE","name":"Rheine","coordinate":{"lat":52.276299,"lng":7.434255},"countryCode":"D"},{"uicCode":"8021025","stationCode":"OSNH","name":"Osnabrück Hbf","coordinate":{"lat":52.272851,"lng":8.061781},"countryCode":"D"},{"uicCode":"8013552","stationCode":"HANN","name":"Hannover Hbf","coordinate":{"lat":52.3770401,"lng":9.7416759},"countryCode":"D"},{"uicCode":"8065969","stationCode":"BERHBL","name":"Berlin Hbf","coordinate":{"lat":52.52503,"lng":13.36946},"countryCode":"D"}],"direction":"BOTH"},"consequence":{"section":{"stations":[{"uicCode":"8021156","stationCode":"BH","name":"Bad Bentheim","coordinate":{"lat":52.309685595156,"lng":7.15853691101074},"countryCode":"D"},{"uicCode":"8021067","stationCode":"RHEINE","name":"Rheine","coordinate":{"lat":52.276299,"lng":7.434255},"countryCode":"D"},{"uicCode":"8021025","stationCode":"OSNH","name":"Osnabrück Hbf","coordinate":{"lat":52.272851,"lng":8.061781},"countryCode":"D"},{"uicCode":"8013552","stationCode":"HANN","name":"Hannover Hbf","coordinate":{"lat":52.3770401,"lng":9.7416759},"countryCode":"D"},{"uicCode":"8065969","stationCode":"BERHBL","name":"Berlin Hbf","coordinate":{"lat":52.52503,"lng":13.36946},"countryCode":"D"}],"direction":"ONE_WAY"},"description":"aangepaste internationale dienstregeling","level":"LESS_TRAINS"},"sectionType":"NEIGHBORING_COUNTRY"}],"timespans":[{"start":"2022-08-05T04:00:00+0200","end":"2022-08-20T02:00:00+0200","period":"Vrijdag 05-08-2022 04:00 uur t/m zaterdag 20-08-2022 02:00 uur.","situation":{"label":"Door werkzaamheden: tussen Bad Bentheim en Berlin Hbf is de internationale dienstregeling aangepast."},"cause":{"label":"Werkzaamheden"},"additionalTravelTime":{"label":"De extra reistijd kan oplopen tot 0 minuten.","shortLabel":"Extra reistijd tot 0 min.","maximumDurationInMinutes":0},"advices":["Dit kan gevolgen hebben voor uw reis. Plan uw reis in de internationale app."]}],"alternativeTransportTimespans":[]},{"id":"7002573","type":"MAINTENANCE","registrationTime":"2022-08-09T09:29:15+0200","releaseTime":"2022-08-09T09:29:15+0200","local":false,"title":"Ede-Wageningen","titleSections":[[{"type":"STATION","value":"Ede-Wageningen"}]],"isActive":true,"start":"2022-08-07T01:00:00+0200","end":"2022-08-31T02:00:00+0200","period":"Zondag 07-08-2022 01:00 uur t/m woensdag 31-08-2022 02:00 uur.","impact":{"value":5},"summaryAdditionalTravelTime":{"label":"De extra reistijd kan oplopen tot 30 minuten.","shortLabel":"Extra reistijd tot 30 min.","maximumDurationInMinutes":30},"publicationSections":[{"section":{"stations":[{"uicCode":"8400055","stationCode":"AMF","name":"Amersfoort Centraal","coordinate":{"lat":52.1538887023926,"lng":5.37055540084839},"countryCode":"NL"},{"uicCode":"8400490","stationCode":"HVL","name":"Hoevelaken","coordinate":{"lat":52.16652,"lng":5.45718},"countryCode":"NL"},{"uicCode":"8400092","stationCode":"BNN","name":"Barneveld Noord","coordinate":{"lat":52.1613883972168,"lng":5.59805536270142},"countryCode":"NL"},{"uicCode":"8400091","stationCode":"BNC","name":"Barneveld Centrum","coordinate":{"lat":52.1399993896484,"lng":5.59027767181396},"countryCode":"NL"},{"uicCode":"8400115","stationCode":"BNZ","name":"Barneveld Zuid","coordinate":{"lat":52.128853,"lng":5.60246},"countryCode":"NL"},{"uicCode":"8400405","stationCode":"LTN","name":"Lunteren","coordinate":{"lat":52.085277557373,"lng":5.62444448471069},"countryCode":"NL"},{"uicCode":"8400201","stationCode":"EDC","name":"Ede Centrum","coordinate":{"lat":52.0436096191406,"lng":5.66833353042603},"countryCode":"NL"},{"uicCode":"8400200","stationCode":"ED","name":"Ede-Wageningen","coordinate":{"lat":52.0277786254883,"lng":5.67305564880371},"countryCode":"NL"}],"direction":"BOTH"},"consequence":{"section":{"stations":[{"uicCode":"8400200","stationCode":"ED","name":"Ede-Wageningen","coordinate":{"lat":52.0277786254883,"lng":5.67305564880371},"countryCode":"NL"}],"direction":"ONE_WAY"},"description":"rijden bussen","level":"NO_OR_MUCH_LESS_TRAINS"},"sectionType":"NL"},{"section":{"stations":[{"uicCode":"8400621","stationCode":"UT","name":"Utrecht Centraal","coordinate":{"lat":52.0888900756836,"lng":5.11027765274048},"countryCode":"NL"},{"uicCode":"8400606","stationCode":"UTVR","name":"Utrecht Vaartsche Rijn","coordinate":{"lat":52.078889,"lng":5.121667},"countryCode":"NL"},{"uicCode":"8400141","stationCode":"BNK","name":"Bunnik","coordinate":{"lat":52.0630569458008,"lng":5.19444465637207},"countryCode":"NL"},{"uicCode":"8400182","stationCode":"DB","name":"Driebergen-Zeist","coordinate":{"lat":52.0652770996094,"lng":5.25861120223999},"countryCode":"NL"},{"uicCode":"8400417","stationCode":"MRN","name":"Maarn","coordinate":{"lat":52.0641670227051,"lng":5.36999988555908},"countryCode":"NL"},{"uicCode":"8400637","stationCode":"KLP","name":"Veenendaal-De Klomp","coordinate":{"lat":52.0458335876465,"lng":5.57388877868652},"countryCode":"NL"},{"uicCode":"8400200","stationCode":"ED","name":"Ede-Wageningen","coordinate":{"lat":52.0277786254883,"lng":5.67305564880371},"countryCode":"NL"},{"uicCode":"8400704","stationCode":"WF","name":"Wolfheze","coordinate":{"lat":52.0055541992188,"lng":5.7936110496521},"countryCode":"NL"},{"uicCode":"8400489","stationCode":"OTB","name":"Oosterbeek","coordinate":{"lat":51.9949989318848,"lng":5.84000015258789},"countryCode":"NL"},{"uicCode":"8400071","stationCode":"AH","name":"Arnhem Centraal","coordinate":{"lat":51.9850006103516,"lng":5.89916658401489},"countryCode":"NL"}],"direction":"BOTH"},"consequence":{"section":{"stations":[{"uicCode":"8400200","stationCode":"ED","name":"Ede-Wageningen","coordinate":{"lat":52.0277786254883,"lng":5.67305564880371},"countryCode":"NL"}],"direction":"ONE_WAY"},"description":"rijden bussen","level":"NO_OR_MUCH_LESS_TRAINS"},"sectionType":"NL"}],"timespans":[{"start":"2022-08-07T01:00:00+0200","end":"2022-08-31T02:00:00+0200","period":"Zondag 07-08-2022 01:00 uur t/m woensdag 31-08-2022 02:00 uur.","situation":{"label":"Door werkzaamheden: van, via en naar Ede-Wageningen rijden er bussen."},"cause":{"label":"Werkzaamheden"},"additionalTravelTime":{"label":"De extra reistijd kan oplopen tot 30 minuten.","shortLabel":"Extra reistijd tot 30 min.","maximumDurationInMinutes":30},"alternativeTransport":{"label":"Er rijden stop- en snelbussen.","shortLabel":"er rijden stop- en snelbussen"},"advices":["Mijd de spits of reis om","Tussen Utrecht C. en Nijmegen reist u via 's-Hertogenbosch"]}],"alternativeTransportTimespans":[{"start":"2022-08-07T01:00:00+0200","end":"2022-08-31T02:00:00+0200","alternativeTransport":{"location":[{"station":{"uicCode":"8400182","stationCode":"DB","name":"Driebergen-Zeist","coordinate":{"lat":52.0652770996094,"lng":5.25861120223999},"countryCode":"NL"},"description":"vanaf het busstation"},{"station":{"uicCode":"8400637","stationCode":"KLP","name":"Veenendaal-De Klomp","coordinate":{"lat":52.0458335876465,"lng":5.57388877868652},"countryCode":"NL"},"description":"vanaf het busstation"},{"station":{"uicCode":"8400200","stationCode":"ED","name":"Ede-Wageningen","coordinate":{"lat":52.0277786254883,"lng":5.67305564880371},"countryCode":"NL"},"description":"vanaf het P+R-terrein"},{"station":{"uicCode":"8400071","stationCode":"AH","name":"Arnhem Centraal","coordinate":{"lat":51.9850006103516,"lng":5.89916658401489},"countryCode":"NL"},"description":"vanaf de bus-terminal"}],"label":"Er rijden snelbussen tussen Driebergen-Zeist, Veenendaal-De Klomp, Ede-Wageningen en Arnhem Centraal.","shortLabel":"Er rijden snelbussen Driebergen-Zeist - De Klomp - Ede-Wageningen - Arnhem C."}},{"start":"2022-08-07T01:00:00+0200","end":"2022-08-31T02:00:00+0200","alternativeTransport":{"location":[{"station":{"uicCode":"8400200","stationCode":"ED","name":"Ede-Wageningen","coordinate":{"lat":52.0277786254883,"lng":5.67305564880371},"countryCode":"NL"},"description":"vanaf het P+R-terrein"},{"station":{"uicCode":"8400704","stationCode":"WF","name":"Wolfheze","coordinate":{"lat":52.0055541992188,"lng":5.7936110496521},"countryCode":"NL"},"description":"vanaf de voorzijde van het station"}],"label":"Er rijden stopbussen tussen Ede-Wageningen en Wolfheze.","shortLabel":"Er rijden stopbussen Ede-Wageningen - Wolfheze"}},{"start":"2022-08-07T01:00:00+0200","end":"2022-08-31T02:00:00+0200","alternativeTransport":{"location":[{"station":{"uicCode":"8400200","stationCode":"ED","name":"Ede-Wageningen","coordinate":{"lat":52.0277786254883,"lng":5.67305564880371},"countryCode":"NL"},"description":"vanaf het P+R-terrein"},{"station":{"uicCode":"8400201","stationCode":"EDC","name":"Ede Centrum","coordinate":{"lat":52.0436096191406,"lng":5.66833353042603},"countryCode":"NL"},"description":"vanaf de bushalte aan de Telefoonweg"},{"station":{"uicCode":"8400405","stationCode":"LTN","name":"Lunteren","coordinate":{"lat":52.085277557373,"lng":5.62444448471069},"countryCode":"NL"},"description":"vanaf het Stationsplein"},{"station":{"uicCode":"8400115","stationCode":"BNZ","name":"Barneveld Zuid","coordinate":{"lat":52.128853,"lng":5.60246},"countryCode":"NL"},"description":"vanaf het Stationsplein"}],"label":"Er rijden bussen tussen Ede-Wageningen, Ede Centrum, Lunteren, Barneveld Zuid en Barneveld Centrum.","shortLabel":"Er rijden bussen Ede-Wageningen - Ede C. - Lunteren - Barneveld Zuid - Barneveld C."}},{"start":"2022-08-07T01:00:00+0200","end":"2022-08-31T02:00:00+0200","alternativeTransport":{"location":[{"station":{"uicCode":"8400182","stationCode":"DB","name":"Driebergen-Zeist","coordinate":{"lat":52.0652770996094,"lng":5.25861120223999},"countryCode":"NL"},"description":"vanaf het busstation"},{"station":{"uicCode":"8400071","stationCode":"AH","name":"Arnhem Centraal","coordinate":{"lat":51.9850006103516,"lng":5.89916658401489},"countryCode":"NL"},"description":"vanaf de bus-terminal"}],"label":"Er rijden snelbussen tussen Driebergen-Zeist en Arnhem Centraal.","shortLabel":"Er rijden snelbussen Driebergen-Zeist - Arnhem C."}},{"start":"2022-08-07T01:00:00+0200","end":"2022-08-31T02:00:00+0200","alternativeTransport":{"location":[{"station":{"uicCode":"8400200","stationCode":"ED","name":"Ede-Wageningen","coordinate":{"lat":52.0277786254883,"lng":5.67305564880371},"countryCode":"NL"},"description":"vanaf het P+R-terrein"}],"label":"Er rijden bussen tussen Ede-Wageningen en Barneveld Centrum.","shortLabel":"Er rijden bussen Ede-Wageningen - Barneveld C."}}]},{"id":"7002621","type":"MAINTENANCE","registrationTime":"2022-07-19T11:54:32+0200","releaseTime":"2022-07-19T11:54:32+0200","local":false,"title":"Utrecht - Almere","titleSections":[[{"type":"STATION","value":"Utrecht C."},{"type":"STATION","value":"Hilversum"},{"type":"ICON","value":"MAINTENANCE"},{"type":"STATION","value":"Almere C."}]],"isActive":true,"start":"2022-08-07T04:00:00+0200","end":"2022-08-11T02:00:00+0200","period":"Zondag 07-08-2022 04:00 uur t/m donderdag 11-08-2022 02:00 uur.","impact":{"value":2},"summaryAdditionalTravelTime":{"label":"U heeft geen langere reistijd.","shortLabel":"Geen extra reistijd"},"publicationSections":[{"section":{"stations":[{"uicCode":"8400621","stationCode":"UT","name":"Utrecht Centraal","coordinate":{"lat":52.0888900756836,"lng":5.11027765274048},"countryCode":"NL"},{"uicCode":"8400620","stationCode":"UTO","name":"Utrecht Overvecht","coordinate":{"lat":52.1100006103516,"lng":5.12472200393677},"countryCode":"NL"},{"uicCode":"8400327","stationCode":"HOR","name":"Hollandsche Rading","coordinate":{"lat":52.1777763366699,"lng":5.17916679382324},"countryCode":"NL"},{"uicCode":"8400570","stationCode":"HVSP","name":"Hilversum Sportpark","coordinate":{"lat":52.2161102294922,"lng":5.18722200393677},"countryCode":"NL"},{"uicCode":"8400322","stationCode":"HVS","name":"Hilversum","coordinate":{"lat":52.2258338928223,"lng":5.18194437026978},"countryCode":"NL"},{"uicCode":"8400324","stationCode":"HVSM","name":"Hilversum Media Park","coordinate":{"lat":52.2380561828613,"lng":5.17388868331909},"countryCode":"NL"},{"uicCode":"8400145","stationCode":"BSMZ","name":"Bussum Zuid","coordinate":{"lat":52.2658348083496,"lng":5.16305541992188},"countryCode":"NL"},{"uicCode":"8400452","stationCode":"NDB","name":"Naarden-Bussum","coordinate":{"lat":52.2802772521973,"lng":5.15694427490234},"countryCode":"NL"},{"uicCode":"8400450","stationCode":"AMPO","name":"Almere Poort","coordinate":{"lat":52.342778,"lng":5.151944},"countryCode":"NL"},{"uicCode":"8400082","stationCode":"ALMM","name":"Almere Muziekwijk","coordinate":{"lat":52.3675003051758,"lng":5.19027757644653},"countryCode":"NL"},{"uicCode":"8400080","stationCode":"ALM","name":"Almere Centrum","coordinate":{"lat":52.37503,"lng":5.21764},"countryCode":"NL"}],"direction":"BOTH"},"consequence":{"section":{"stations":[{"uicCode":"8400322","stationCode":"HVS","name":"Hilversum","coordinate":{"lat":52.2258338928223,"lng":5.18194437026978},"countryCode":"NL"},{"uicCode":"8400324","stationCode":"HVSM","name":"Hilversum Media Park","coordinate":{"lat":52.2380561828613,"lng":5.17388868331909},"countryCode":"NL"},{"uicCode":"8400145","stationCode":"BSMZ","name":"Bussum Zuid","coordinate":{"lat":52.2658348083496,"lng":5.16305541992188},"countryCode":"NL"},{"uicCode":"8400452","stationCode":"NDB","name":"Naarden-Bussum","coordinate":{"lat":52.2802772521973,"lng":5.15694427490234},"countryCode":"NL"},{"uicCode":"8400450","stationCode":"AMPO","name":"Almere Poort","coordinate":{"lat":52.342778,"lng":5.151944},"countryCode":"NL"},{"uicCode":"8400082","stationCode":"ALMM","name":"Almere Muziekwijk","coordinate":{"lat":52.3675003051758,"lng":5.19027757644653},"countryCode":"NL"},{"uicCode":"8400080","stationCode":"ALM","name":"Almere Centrum","coordinate":{"lat":52.37503,"lng":5.21764},"countryCode":"NL"}],"direction":"ONE_WAY"},"description":"dienstregeling aangepast","level":"LESS_TRAINS"},"sectionType":"NL"}],"timespans":[{"start":"2022-08-07T04:00:00+0200","end":"2022-08-11T02:00:00+0200","period":"Zondag 07-08-2022 04:00 uur t/m donderdag 11-08-2022 02:00 uur.","situation":{"label":"Door werkzaamheden: tussen Hilversum en Almere Centrum is de dienstregeling aangepast."},"cause":{"label":"Werkzaamheden"},"additionalTravelTime":{"label":"U heeft geen langere reistijd.","shortLabel":"Geen extra reistijd"},"advices":[]}],"alternativeTransportTimespans":[]},{"id":"7002564","type":"MAINTENANCE","registrationTime":"2022-07-20T12:47:07+0200","releaseTime":"2022-07-20T12:47:07+0200","local":false,"title":"Utrecht - Hilversum","titleSections":[[{"type":"STATION","value":"Utrecht C."},{"type":"STATION","value":"Overvecht"},{"type":"ICON","value":"MAINTENANCE"},{"type":"STATION","value":"Hilversum"}]],"isActive":true,"start":"2022-08-08T04:00:00+0200","end":"2022-08-11T02:00:00+0200","period":"Maandag 08-08-2022 04:00 uur t/m donderdag 11-08-2022 02:00 uur.","impact":{"value":5},"summaryAdditionalTravelTime":{"label":"De extra reistijd kan oplopen tot 30 minuten.","shortLabel":"Extra reistijd tot 30 min.","maximumDurationInMinutes":30},"publicationSections":[{"section":{"stations":[{"uicCode":"8400621","stationCode":"UT","name":"Utrecht Centraal","coordinate":{"lat":52.0888900756836,"lng":5.11027765274048},"countryCode":"NL"},{"uicCode":"8400620","stationCode":"UTO","name":"Utrecht Overvecht","coordinate":{"lat":52.1100006103516,"lng":5.12472200393677},"countryCode":"NL"},{"uicCode":"8400327","stationCode":"HOR","name":"Hollandsche Rading","coordinate":{"lat":52.1777763366699,"lng":5.17916679382324},"countryCode":"NL"},{"uicCode":"8400570","stationCode":"HVSP","name":"Hilversum Sportpark","coordinate":{"lat":52.2161102294922,"lng":5.18722200393677},"countryCode":"NL"},{"uicCode":"8400322","stationCode":"HVS","name":"Hilversum","coordinate":{"lat":52.2258338928223,"lng":5.18194437026978},"countryCode":"NL"}],"direction":"BOTH"},"consequence":{"section":{"stations":[{"uicCode":"8400620","stationCode":"UTO","name":"Utrecht Overvecht","coordinate":{"lat":52.1100006103516,"lng":5.12472200393677},"countryCode":"NL"},{"uicCode":"8400327","stationCode":"HOR","name":"Hollandsche Rading","coordinate":{"lat":52.1777763366699,"lng":5.17916679382324},"countryCode":"NL"},{"uicCode":"8400570","stationCode":"HVSP","name":"Hilversum Sportpark","coordinate":{"lat":52.2161102294922,"lng":5.18722200393677},"countryCode":"NL"},{"uicCode":"8400322","stationCode":"HVS","name":"Hilversum","coordinate":{"lat":52.2258338928223,"lng":5.18194437026978},"countryCode":"NL"}],"direction":"ONE_WAY"},"description":"rijden bussen","level":"NO_OR_MUCH_LESS_TRAINS"},"sectionType":"NL"}],"timespans":[{"start":"2022-08-08T04:00:00+0200","end":"2022-08-11T02:00:00+0200","period":"Maandag 08-08-2022 04:00 uur t/m donderdag 11-08-2022 02:00 uur.","situation":{"label":"Door werkzaamheden: tussen Utrecht Overvecht en Hilversum rijden er bussen."},"cause":{"label":"Werkzaamheden"},"additionalTravelTime":{"label":"De extra reistijd kan oplopen tot 30 minuten.","shortLabel":"Extra reistijd tot 30 min.","maximumDurationInMinutes":30},"alternativeTransport":{"label":"Er rijden bussen.","shortLabel":"er rijden bussen"},"advices":["Tussen Utrecht C. en Hilversum reist u via Amersfoort C."]}],"alternativeTransportTimespans":[{"start":"2022-08-08T04:00:00+0200","end":"2022-08-11T02:00:00+0200","alternativeTransport":{"location":[{"station":{"uicCode":"8400322","stationCode":"HVS","name":"Hilversum","coordinate":{"lat":52.2258338928223,"lng":5.18194437026978},"countryCode":"NL"},"description":"vanaf de voorzijde van het station"},{"station":{"uicCode":"8400570","stationCode":"HVSP","name":"Hilversum Sportpark","coordinate":{"lat":52.2161102294922,"lng":5.18722200393677},"countryCode":"NL"},"description":"vanaf de bushalte"},{"station":{"uicCode":"8400327","stationCode":"HOR","name":"Hollandsche Rading","coordinate":{"lat":52.1777763366699,"lng":5.17916679382324},"countryCode":"NL"},"description":"vanaf de bushalte"},{"station":{"uicCode":"8400620","stationCode":"UTO","name":"Utrecht Overvecht","coordinate":{"lat":52.1100006103516,"lng":5.12472200393677},"countryCode":"NL"},"description":"vanaf de bushalte"}],"label":"Er rijden bussen tussen Hilversum, Hilversum Sportpark, Hollandsche Rading en Utrecht Overvecht.","shortLabel":"Er rijden bussen Hilversum - Sportpark - Holl. Rading - Overvecht"}}]},{"id":"7002562","type":"MAINTENANCE","registrationTime":"2022-07-28T14:05:19+0200","releaseTime":"2022-07-28T14:05:19+0200","local":false,"title":"'s-Hertogenbosch - Eindhoven; Tilburg - Eindhoven","titleSections":[[{"type":"STATION","value":"'s-Hertogenbosch"},{"type":"STATION","value":"Boxtel"},{"type":"ICON","value":"MAINTENANCE"},{"type":"STATION","value":"Eindhoven C."}],[{"type":"STATION","value":"Tilburg"},{"type":"STATION","value":"Boxtel"},{"type":"ICON","value":"MAINTENANCE"},{"type":"STATION","value":"Eindhoven C."}]],"isActive":true,"start":"2022-08-09T04:00:00+0200","end":"2022-08-26T02:15:00+0200","period":"Dinsdag 09-08-2022 04:00 uur t/m vrijdag 26-08-2022 02:15 uur.","impact":{"value":5},"summaryAdditionalTravelTime":{"label":"De extra reistijd kan oplopen tot 30 minuten.","shortLabel":"Extra reistijd tot 30 min.","maximumDurationInMinutes":30},"publicationSections":[{"section":{"stations":[{"uicCode":"8400319","stationCode":"HT","name":"'s-Hertogenbosch","coordinate":{"lat":51.69048,"lng":5.29362},"countryCode":"NL"},{"uicCode":"8400667","stationCode":"VG","name":"Vught","coordinate":{"lat":51.6555557250977,"lng":5.29194450378418},"countryCode":"NL"},{"uicCode":"8400129","stationCode":"BTL","name":"Boxtel","coordinate":{"lat":51.58433,"lng":5.31912},"countryCode":"NL"},{"uicCode":"8400112","stationCode":"BET","name":"Best","coordinate":{"lat":51.5099983215332,"lng":5.38916683197022},"countryCode":"NL"},{"uicCode":"8400196","stationCode":"EHS","name":"Eindhoven Strijp-S","coordinate":{"lat":51.4511108398438,"lng":5.45583343505859},"countryCode":"NL"},{"uicCode":"8400206","stationCode":"EHV","name":"Eindhoven Centraal","coordinate":{"lat":51.4433326721191,"lng":5.48138904571533},"countryCode":"NL"}],"direction":"BOTH"},"consequence":{"section":{"stations":[{"uicCode":"8400129","stationCode":"BTL","name":"Boxtel","coordinate":{"lat":51.58433,"lng":5.31912},"countryCode":"NL"},{"uicCode":"8400112","stationCode":"BET","name":"Best","coordinate":{"lat":51.5099983215332,"lng":5.38916683197022},"countryCode":"NL"},{"uicCode":"8400196","stationCode":"EHS","name":"Eindhoven Strijp-S","coordinate":{"lat":51.4511108398438,"lng":5.45583343505859},"countryCode":"NL"},{"uicCode":"8400206","stationCode":"EHV","name":"Eindhoven Centraal","coordinate":{"lat":51.4433326721191,"lng":5.48138904571533},"countryCode":"NL"}],"direction":"ONE_WAY"},"description":"rijden bussen","level":"NO_OR_MUCH_LESS_TRAINS"},"sectionType":"NL"},{"section":{"stations":[{"uicCode":"8400597","stationCode":"TB","name":"Tilburg","coordinate":{"lat":51.5605545043945,"lng":5.08361101150513},"countryCode":"NL"},{"uicCode":"8400482","stationCode":"OT","name":"Oisterwijk","coordinate":{"lat":51.5822219848633,"lng":5.19416666030884},"countryCode":"NL"},{"uicCode":"8400129","stationCode":"BTL","name":"Boxtel","coordinate":{"lat":51.58433,"lng":5.31912},"countryCode":"NL"},{"uicCode":"8400112","stationCode":"BET","name":"Best","coordinate":{"lat":51.5099983215332,"lng":5.38916683197022},"countryCode":"NL"},{"uicCode":"8400196","stationCode":"EHS","name":"Eindhoven Strijp-S","coordinate":{"lat":51.4511108398438,"lng":5.45583343505859},"countryCode":"NL"},{"uicCode":"8400206","stationCode":"EHV","name":"Eindhoven Centraal","coordinate":{"lat":51.4433326721191,"lng":5.48138904571533},"countryCode":"NL"}],"direction":"BOTH"},"consequence":{"section":{"stations":[{"uicCode":"8400129","stationCode":"BTL","name":"Boxtel","coordinate":{"lat":51.58433,"lng":5.31912},"countryCode":"NL"},{"uicCode":"8400112","stationCode":"BET","name":"Best","coordinate":{"lat":51.5099983215332,"lng":5.38916683197022},"countryCode":"NL"},{"uicCode":"8400196","stationCode":"EHS","name":"Eindhoven Strijp-S","coordinate":{"lat":51.4511108398438,"lng":5.45583343505859},"countryCode":"NL"},{"uicCode":"8400206","stationCode":"EHV","name":"Eindhoven Centraal","coordinate":{"lat":51.4433326721191,"lng":5.48138904571533},"countryCode":"NL"}],"direction":"ONE_WAY"},"description":"rijden bussen","level":"NO_OR_MUCH_LESS_TRAINS"},"sectionType":"NL"}],"timespans":[{"start":"2022-08-09T04:00:00+0200","end":"2022-08-26T02:15:00+0200","period":"Dinsdag 09-08-2022 04:00 uur t/m vrijdag 26-08-2022 02:15 uur.","situation":{"label":"Door werkzaamheden: tussen Boxtel en Eindhoven Centraal rijden er bussen."},"cause":{"label":"Werkzaamheden"},"additionalTravelTime":{"label":"De extra reistijd kan oplopen tot 30 minuten.","shortLabel":"Extra reistijd tot 30 min.","maximumDurationInMinutes":30},"alternativeTransport":{"label":"Er rijden stop- en snelbussen.","shortLabel":"er rijden stop- en snelbussen"},"advices":["Mijd de spitsuren!"]}],"alternativeTransportTimespans":[{"start":"2022-08-09T04:00:00+0200","end":"2022-08-26T02:15:00+0200","alternativeTransport":{"location":[{"station":{"uicCode":"8400129","stationCode":"BTL","name":"Boxtel","coordinate":{"lat":51.58433,"lng":5.31912},"countryCode":"NL"},"description":"vanaf het Q-park terrein"},{"station":{"uicCode":"8400206","stationCode":"EHV","name":"Eindhoven Centraal","coordinate":{"lat":51.4433326721191,"lng":5.48138904571533},"countryCode":"NL"},"description":"vanaf het Beursplein, aan de achterzijde van het station"}],"label":"Er rijden snelbussen tussen Boxtel en Eindhoven Centraal.","shortLabel":"Er rijden snelbussen Boxtel - Eindhoven C."}},{"start":"2022-08-09T04:00:00+0200","end":"2022-08-26T02:15:00+0200","alternativeTransport":{"location":[{"station":{"uicCode":"8400129","stationCode":"BTL","name":"Boxtel","coordinate":{"lat":51.58433,"lng":5.31912},"countryCode":"NL"},"description":"vanaf het Q-park terrein"},{"station":{"uicCode":"8400112","stationCode":"BET","name":"Best","coordinate":{"lat":51.5099983215332,"lng":5.38916683197022},"countryCode":"NL"},"description":"vanaf het busstation"},{"station":{"uicCode":"8400196","stationCode":"EHS","name":"Eindhoven Strijp-S","coordinate":{"lat":51.4511108398438,"lng":5.45583343505859},"countryCode":"NL"},"description":"onder het spoorviaduct"},{"station":{"uicCode":"8400206","stationCode":"EHV","name":"Eindhoven Centraal","coordinate":{"lat":51.4433326721191,"lng":5.48138904571533},"countryCode":"NL"},"description":"vanaf het Beursplein, aan de achterzijde van het station"}],"label":"Er rijden stopbussen tussen Boxtel, Best, Eindhoven Strijp-S en Eindhoven Centraal.","shortLabel":"Er rijden stopbussen Boxtel - Best - Strijp-S - Eindhoven C."}},{"start":"2022-08-09T23:15:00+0200","end":"2022-08-10T01:30:00+0200","alternativeTransport":{"location":[{"station":{"uicCode":"8400206","stationCode":"EHV","name":"Eindhoven Centraal","coordinate":{"lat":51.4433326721191,"lng":5.48138904571533},"countryCode":"NL"},"description":"vanaf het Beursplein, aan de achterzijde van het station"},{"station":{"uicCode":"8400196","stationCode":"EHS","name":"Eindhoven Strijp-S","coordinate":{"lat":51.4511108398438,"lng":5.45583343505859},"countryCode":"NL"},"description":"onder het spoorviaduct"},{"station":{"uicCode":"8400112","stationCode":"BET","name":"Best","coordinate":{"lat":51.5099983215332,"lng":5.38916683197022},"countryCode":"NL"},"description":"vanaf het busstation"},{"station":{"uicCode":"8400129","stationCode":"BTL","name":"Boxtel","coordinate":{"lat":51.58433,"lng":5.31912},"countryCode":"NL"},"description":"vanaf het Q-park terrein"},{"station":{"uicCode":"8400667","stationCode":"VG","name":"Vught","coordinate":{"lat":51.6555557250977,"lng":5.29194450378418},"countryCode":"NL"},"description":"vanaf de voorzijde van het station"}],"label":"Er rijden stopbussen van Eindhoven Centraal, Eindhoven Strijp-S, Best, Boxtel, Vught naar 's-Hertogenbosch.","shortLabel":"Er rijden stopbussen Eindhoven C. -> Strijp-S -> Best -> Boxtel -> Vught -> 's-Hertogenbosch"}},{"start":"2022-08-10T00:40:00+0200","end":"2022-08-10T02:15:00+0200","alternativeTransport":{"location":[{"station":{"uicCode":"8400319","stationCode":"HT","name":"'s-Hertogenbosch","coordinate":{"lat":51.69048,"lng":5.29362},"countryCode":"NL"},"description":"vanaf de speciale uitgang op het perron bij spoor 1"},{"station":{"uicCode":"8400667","stationCode":"VG","name":"Vught","coordinate":{"lat":51.6555557250977,"lng":5.29194450378418},"countryCode":"NL"},"description":"vanaf de voorzijde van het station"},{"station":{"uicCode":"8400129","stationCode":"BTL","name":"Boxtel","coordinate":{"lat":51.58433,"lng":5.31912},"countryCode":"NL"},"description":"vanaf het Q-park terrein"},{"station":{"uicCode":"8400112","stationCode":"BET","name":"Best","coordinate":{"lat":51.5099983215332,"lng":5.38916683197022},"countryCode":"NL"},"description":"vanaf het busstation"},{"station":{"uicCode":"8400196","stationCode":"EHS","name":"Eindhoven Strijp-S","coordinate":{"lat":51.4511108398438,"lng":5.45583343505859},"countryCode":"NL"},"description":"onder het spoorviaduct"},{"station":{"uicCode":"8400206","stationCode":"EHV","name":"Eindhoven Centraal","coordinate":{"lat":51.4433326721191,"lng":5.48138904571533},"countryCode":"NL"},"description":"vanaf het Beursplein, aan de achterzijde van het station"}],"label":"Er rijden stopbussen van 's-Hertogenbosch, Vught, Boxtel, Best, Eindhoven Strijp-S naar Eindhoven Centraal.","shortLabel":"Er rijden stopbussen 's-Hertogenbosch -> Vught -> Boxtel -> Best -> Strijp-S -> Eindhoven C."}},{"start":"2022-08-10T23:15:00+0200","end":"2022-08-11T01:30:00+0200","alternativeTransport":{"location":[{"station":{"uicCode":"8400206","stationCode":"EHV","name":"Eindhoven Centraal","coordinate":{"lat":51.4433326721191,"lng":5.48138904571533},"countryCode":"NL"},"description":"vanaf het Beursplein, aan de achterzijde van het station"},{"station":{"uicCode":"8400196","stationCode":"EHS","name":"Eindhoven Strijp-S","coordinate":{"lat":51.4511108398438,"lng":5.45583343505859},"countryCode":"NL"},"description":"onder het spoorviaduct"},{"station":{"uicCode":"8400112","stationCode":"BET","name":"Best","coordinate":{"lat":51.5099983215332,"lng":5.38916683197022},"countryCode":"NL"},"description":"vanaf het busstation"},{"station":{"uicCode":"8400129","stationCode":"BTL","name":"Boxtel","coordinate":{"lat":51.58433,"lng":5.31912},"countryCode":"NL"},"description":"vanaf het Q-park terrein"},{"station":{"uicCode":"8400667","stationCode":"VG","name":"Vught","coordinate":{"lat":51.6555557250977,"lng":5.29194450378418},"countryCode":"NL"},"description":"vanaf de voorzijde van het station"}],"label":"Er rijden stopbussen van Eindhoven Centraal, Eindhoven Strijp-S, Best, Boxtel, Vught naar 's-Hertogenbosch.","shortLabel":"Er rijden stopbussen Eindhoven C. -> Strijp-S -> Best -> Boxtel -> Vught -> 's-Hertogenbosch"}},{"start":"2022-08-11T00:40:00+0200","end":"2022-08-11T02:15:00+0200","alternativeTransport":{"location":[{"station":{"uicCode":"8400319","stationCode":"HT","name":"'s-Hertogenbosch","coordinate":{"lat":51.69048,"lng":5.29362},"countryCode":"NL"},"description":"vanaf de speciale uitgang op het perron bij spoor 1"},{"station":{"uicCode":"8400667","stationCode":"VG","name":"Vught","coordinate":{"lat":51.6555557250977,"lng":5.29194450378418},"countryCode":"NL"},"description":"vanaf de voorzijde van het station"},{"station":{"uicCode":"8400129","stationCode":"BTL","name":"Boxtel","coordinate":{"lat":51.58433,"lng":5.31912},"countryCode":"NL"},"description":"vanaf het Q-park terrein"},{"station":{"uicCode":"8400112","stationCode":"BET","name":"Best","coordinate":{"lat":51.5099983215332,"lng":5.38916683197022},"countryCode":"NL"},"description":"vanaf het busstation"},{"station":{"uicCode":"8400196","stationCode":"EHS","name":"Eindhoven Strijp-S","coordinate":{"lat":51.4511108398438,"lng":5.45583343505859},"countryCode":"NL"},"description":"onder het spoorviaduct"},{"station":{"uicCode":"8400206","stationCode":"EHV","name":"Eindhoven Centraal","coordinate":{"lat":51.4433326721191,"lng":5.48138904571533},"countryCode":"NL"},"description":"vanaf het Beursplein, aan de achterzijde van het station"}],"label":"Er rijden stopbussen van 's-Hertogenbosch, Vught, Boxtel, Best, Eindhoven Strijp-S naar Eindhoven Centraal.","shortLabel":"Er rijden stopbussen 's-Hertogenbosch -> Vught -> Boxtel -> Best -> Strijp-S -> Eindhoven C."}},{"start":"2022-08-11T23:15:00+0200","end":"2022-08-12T01:30:00+0200","alternativeTransport":{"location":[{"station":{"uicCode":"8400206","stationCode":"EHV","name":"Eindhoven Centraal","coordinate":{"lat":51.4433326721191,"lng":5.48138904571533},"countryCode":"NL"},"description":"vanaf het Beursplein, aan de achterzijde van het station"},{"station":{"uicCode":"8400196","stationCode":"EHS","name":"Eindhoven Strijp-S","coordinate":{"lat":51.4511108398438,"lng":5.45583343505859},"countryCode":"NL"},"description":"onder het spoorviaduct"},{"station":{"uicCode":"8400112","stationCode":"BET","name":"Best","coordinate":{"lat":51.5099983215332,"lng":5.38916683197022},"countryCode":"NL"},"description":"vanaf het busstation"},{"station":{"uicCode":"8400129","stationCode":"BTL","name":"Boxtel","coordinate":{"lat":51.58433,"lng":5.31912},"countryCode":"NL"},"description":"vanaf het Q-park terrein"},{"station":{"uicCode":"8400667","stationCode":"VG","name":"Vught","coordinate":{"lat":51.6555557250977,"lng":5.29194450378418},"countryCode":"NL"},"description":"vanaf de voorzijde van het station"}],"label":"Er rijden stopbussen van Eindhoven Centraal, Eindhoven Strijp-S, Best, Boxtel, Vught naar 's-Hertogenbosch.","shortLabel":"Er rijden stopbussen Eindhoven C. -> Strijp-S -> Best -> Boxtel -> Vught -> 's-Hertogenbosch"}},{"start":"2022-08-12T00:40:00+0200","end":"2022-08-12T02:15:00+0200","alternativeTransport":{"location":[{"station":{"uicCode":"8400319","stationCode":"HT","name":"'s-Hertogenbosch","coordinate":{"lat":51.69048,"lng":5.29362},"countryCode":"NL"},"description":"vanaf de speciale uitgang op het perron bij spoor 1"},{"station":{"uicCode":"8400667","stationCode":"VG","name":"Vught","coordinate":{"lat":51.6555557250977,"lng":5.29194450378418},"countryCode":"NL"},"description":"vanaf de voorzijde van het station"},{"station":{"uicCode":"8400129","stationCode":"BTL","name":"Boxtel","coordinate":{"lat":51.58433,"lng":5.31912},"countryCode":"NL"},"description":"vanaf het Q-park terrein"},{"station":{"uicCode":"8400112","stationCode":"BET","name":"Best","coordinate":{"lat":51.5099983215332,"lng":5.38916683197022},"countryCode":"NL"},"description":"vanaf het busstation"},{"station":{"uicCode":"8400196","stationCode":"EHS","name":"Eindhoven Strijp-S","coordinate":{"lat":51.4511108398438,"lng":5.45583343505859},"countryCode":"NL"},"description":"onder het spoorviaduct"},{"station":{"uicCode":"8400206","stationCode":"EHV","name":"Eindhoven Centraal","coordinate":{"lat":51.4433326721191,"lng":5.48138904571533},"countryCode":"NL"},"description":"vanaf het Beursplein, aan de achterzijde van het station"}],"label":"Er rijden stopbussen van 's-Hertogenbosch, Vught, Boxtel, Best, Eindhoven Strijp-S naar Eindhoven Centraal.","shortLabel":"Er rijden stopbussen 's-Hertogenbosch -> Vught -> Boxtel -> Best -> Strijp-S -> Eindhoven C."}},{"start":"2022-08-12T23:15:00+0200","end":"2022-08-13T01:30:00+0200","alternativeTransport":{"location":[{"station":{"uicCode":"8400206","stationCode":"EHV","name":"Eindhoven Centraal","coordinate":{"lat":51.4433326721191,"lng":5.48138904571533},"countryCode":"NL"},"description":"vanaf het Beursplein, aan de achterzijde van het station"},{"station":{"uicCode":"8400196","stationCode":"EHS","name":"Eindhoven Strijp-S","coordinate":{"lat":51.4511108398438,"lng":5.45583343505859},"countryCode":"NL"},"description":"onder het spoorviaduct"},{"station":{"uicCode":"8400112","stationCode":"BET","name":"Best","coordinate":{"lat":51.5099983215332,"lng":5.38916683197022},"countryCode":"NL"},"description":"vanaf het busstation"},{"station":{"uicCode":"8400129","stationCode":"BTL","name":"Boxtel","coordinate":{"lat":51.58433,"lng":5.31912},"countryCode":"NL"},"description":"vanaf het Q-park terrein"},{"station":{"uicCode":"8400667","stationCode":"VG","name":"Vught","coordinate":{"lat":51.6555557250977,"lng":5.29194450378418},"countryCode":"NL"},"description":"vanaf de voorzijde van het station"}],"label":"Er rijden stopbussen van Eindhoven Centraal, Eindhoven Strijp-S, Best, Boxtel, Vught naar 's-Hertogenbosch.","shortLabel":"Er rijden stopbussen Eindhoven C. -> Strijp-S -> Best -> Boxtel -> Vught -> 's-Hertogenbosch"}},{"start":"2022-08-13T00:10:00+0200","end":"2022-08-13T02:15:00+0200","alternativeTransport":{"location":[{"station":{"uicCode":"8400597","stationCode":"TB","name":"Tilburg","coordinate":{"lat":51.5605545043945,"lng":5.08361101150513},"countryCode":"NL"},"description":"vanaf de achterzijde van het station"},{"station":{"uicCode":"8400206","stationCode":"EHV","name":"Eindhoven Centraal","coordinate":{"lat":51.4433326721191,"lng":5.48138904571533},"countryCode":"NL"},"description":"vanaf het Beursplein, aan de achterzijde van het station"}],"label":"Er rijden snelbussen tussen Tilburg en Eindhoven Centraal.","shortLabel":"Er rijden snelbussen Tilburg - Eindhoven C."}},{"start":"2022-08-13T00:30:00+0200","end":"2022-08-13T01:45:00+0200","alternativeTransport":{"location":[{"station":{"uicCode":"8400319","stationCode":"HT","name":"'s-Hertogenbosch","coordinate":{"lat":51.69048,"lng":5.29362},"countryCode":"NL"},"description":"vanaf de speciale uitgang op het perron bij spoor 1"},{"station":{"uicCode":"8400206","stationCode":"EHV","name":"Eindhoven Centraal","coordinate":{"lat":51.4433326721191,"lng":5.48138904571533},"countryCode":"NL"},"description":"vanaf het Beursplein, aan de achterzijde van het station"}],"label":"Er rijden snelbussen tussen 's-Hertogenbosch en Eindhoven Centraal.","shortLabel":"Er rijden snelbussen 's-Hertogenbosch - Eindhoven C."}},{"start":"2022-08-13T00:40:00+0200","end":"2022-08-13T02:15:00+0200","alternativeTransport":{"location":[{"station":{"uicCode":"8400319","stationCode":"HT","name":"'s-Hertogenbosch","coordinate":{"lat":51.69048,"lng":5.29362},"countryCode":"NL"},"description":"vanaf de speciale uitgang op het perron bij spoor 1"},{"station":{"uicCode":"8400667","stationCode":"VG","name":"Vught","coordinate":{"lat":51.6555557250977,"lng":5.29194450378418},"countryCode":"NL"},"description":"vanaf de voorzijde van het station"},{"station":{"uicCode":"8400129","stationCode":"BTL","name":"Boxtel","coordinate":{"lat":51.58433,"lng":5.31912},"countryCode":"NL"},"description":"vanaf het Q-park terrein"},{"station":{"uicCode":"8400112","stationCode":"BET","name":"Best","coordinate":{"lat":51.5099983215332,"lng":5.38916683197022},"countryCode":"NL"},"description":"vanaf het busstation"},{"station":{"uicCode":"8400196","stationCode":"EHS","name":"Eindhoven Strijp-S","coordinate":{"lat":51.4511108398438,"lng":5.45583343505859},"countryCode":"NL"},"description":"onder het spoorviaduct"},{"station":{"uicCode":"8400206","stationCode":"EHV","name":"Eindhoven Centraal","coordinate":{"lat":51.4433326721191,"lng":5.48138904571533},"countryCode":"NL"},"description":"vanaf het Beursplein, aan de achterzijde van het station"}],"label":"Er rijden stopbussen van 's-Hertogenbosch, Vught, Boxtel, Best, Eindhoven Strijp-S naar Eindhoven Centraal.","shortLabel":"Er rijden stopbussen 's-Hertogenbosch -> Vught -> Boxtel -> Best -> Strijp-S -> Eindhoven C."}},{"start":"2022-08-13T23:15:00+0200","end":"2022-08-14T01:30:00+0200","alternativeTransport":{"location":[{"station":{"uicCode":"8400206","stationCode":"EHV","name":"Eindhoven Centraal","coordinate":{"lat":51.4433326721191,"lng":5.48138904571533},"countryCode":"NL"},"description":"vanaf het Beursplein, aan de achterzijde van het station"},{"station":{"uicCode":"8400196","stationCode":"EHS","name":"Eindhoven Strijp-S","coordinate":{"lat":51.4511108398438,"lng":5.45583343505859},"countryCode":"NL"},"description":"onder het spoorviaduct"},{"station":{"uicCode":"8400112","stationCode":"BET","name":"Best","coordinate":{"lat":51.5099983215332,"lng":5.38916683197022},"countryCode":"NL"},"description":"vanaf het busstation"},{"station":{"uicCode":"8400129","stationCode":"BTL","name":"Boxtel","coordinate":{"lat":51.58433,"lng":5.31912},"countryCode":"NL"},"description":"vanaf het Q-park terrein"},{"station":{"uicCode":"8400667","stationCode":"VG","name":"Vught","coordinate":{"lat":51.6555557250977,"lng":5.29194450378418},"countryCode":"NL"},"description":"vanaf de voorzijde van het station"}],"label":"Er rijden stopbussen van Eindhoven Centraal, Eindhoven Strijp-S, Best, Boxtel, Vught naar 's-Hertogenbosch.","shortLabel":"Er rijden stopbussen Eindhoven C. -> Strijp-S -> Best -> Boxtel -> Vught -> 's-Hertogenbosch"}},{"start":"2022-08-14T00:30:00+0200","end":"2022-08-14T01:30:00+0200","alternativeTransport":{"location":[{"station":{"uicCode":"8400131","stationCode":"BD","name":"Breda","coordinate":{"lat":51.5955543518066,"lng":4.78000020980835},"countryCode":"NL"},"description":"vanaf de Belcrumzijde"},{"station":{"uicCode":"8400597","stationCode":"TB","name":"Tilburg","coordinate":{"lat":51.5605545043945,"lng":5.08361101150513},"countryCode":"NL"},"description":"vanaf de achterzijde van het station"},{"station":{"uicCode":"8400206","stationCode":"EHV","name":"Eindhoven Centraal","coordinate":{"lat":51.4433326721191,"lng":5.48138904571533},"countryCode":"NL"},"description":"vanaf het Beursplein, aan de achterzijde van het station"}],"label":"Er rijden snelbussen van Breda, Tilburg naar Eindhoven Centraal.","shortLabel":"Er rijden snelbussen Breda -> Tilburg -> Eindhoven C."}},{"start":"2022-08-14T00:30:00+0200","end":"2022-08-14T01:45:00+0200","alternativeTransport":{"location":[{"station":{"uicCode":"8400319","stationCode":"HT","name":"'s-Hertogenbosch","coordinate":{"lat":51.69048,"lng":5.29362},"countryCode":"NL"},"description":"vanaf de speciale uitgang op het perron bij spoor 1"},{"station":{"uicCode":"8400206","stationCode":"EHV","name":"Eindhoven Centraal","coordinate":{"lat":51.4433326721191,"lng":5.48138904571533},"countryCode":"NL"},"description":"vanaf het Beursplein, aan de achterzijde van het station"}],"label":"Er rijden snelbussen tussen 's-Hertogenbosch en Eindhoven Centraal.","shortLabel":"Er rijden snelbussen 's-Hertogenbosch - Eindhoven C."}},{"start":"2022-08-14T00:30:00+0200","end":"2022-08-14T02:30:00+0200","alternativeTransport":{"location":[{"station":{"uicCode":"8400206","stationCode":"EHV","name":"Eindhoven Centraal","coordinate":{"lat":51.4433326721191,"lng":5.48138904571533},"countryCode":"NL"},"description":"vanaf het Beursplein, aan de achterzijde van het station"},{"station":{"uicCode":"8400597","stationCode":"TB","name":"Tilburg","coordinate":{"lat":51.5605545043945,"lng":5.08361101150513},"countryCode":"NL"},"description":"vanaf de achterzijde van het station"},{"station":{"uicCode":"8400131","stationCode":"BD","name":"Breda","coordinate":{"lat":51.5955543518066,"lng":4.78000020980835},"countryCode":"NL"},"description":"vanaf de Belcrumzijde"},{"station":{"uicCode":"8400180","stationCode":"DDR","name":"Dordrecht","coordinate":{"lat":51.8072204589844,"lng":4.66833353042603},"countryCode":"NL"},"description":"vanaf de achterzijde van het station"},{"station":{"uicCode":"8400530","stationCode":"RTD","name":"Rotterdam Centraal","coordinate":{"lat":51.9249992370605,"lng":4.46888875961304},"countryCode":"NL"},"description":"vanaf de Conradstraat aan de centrumzijde"}],"label":"Er rijden snelbussen van Eindhoven Centraal, Tilburg, Breda, Dordrecht naar Rotterdam Centraal.","shortLabel":"Er rijden snelbussen Eindhoven C. -> Tilburg -> Breda -> Dordrecht -> Rotterdam C."}},{"start":"2022-08-14T00:40:00+0200","end":"2022-08-14T02:15:00+0200","alternativeTransport":{"location":[{"station":{"uicCode":"8400319","stationCode":"HT","name":"'s-Hertogenbosch","coordinate":{"lat":51.69048,"lng":5.29362},"countryCode":"NL"},"description":"vanaf de speciale uitgang op het perron bij spoor 1"},{"station":{"uicCode":"8400667","stationCode":"VG","name":"Vught","coordinate":{"lat":51.6555557250977,"lng":5.29194450378418},"countryCode":"NL"},"description":"vanaf de voorzijde van het station"},{"station":{"uicCode":"8400129","stationCode":"BTL","name":"Boxtel","coordinate":{"lat":51.58433,"lng":5.31912},"countryCode":"NL"},"description":"vanaf het Q-park terrein"},{"station":{"uicCode":"8400112","stationCode":"BET","name":"Best","coordinate":{"lat":51.5099983215332,"lng":5.38916683197022},"countryCode":"NL"},"description":"vanaf het busstation"},{"station":{"uicCode":"8400196","stationCode":"EHS","name":"Eindhoven Strijp-S","coordinate":{"lat":51.4511108398438,"lng":5.45583343505859},"countryCode":"NL"},"description":"onder het spoorviaduct"},{"station":{"uicCode":"8400206","stationCode":"EHV","name":"Eindhoven Centraal","coordinate":{"lat":51.4433326721191,"lng":5.48138904571533},"countryCode":"NL"},"description":"vanaf het Beursplein, aan de achterzijde van het station"}],"label":"Er rijden stopbussen van 's-Hertogenbosch, Vught, Boxtel, Best, Eindhoven Strijp-S naar Eindhoven Centraal.","shortLabel":"Er rijden stopbussen 's-Hertogenbosch -> Vught -> Boxtel -> Best -> Strijp-S -> Eindhoven C."}},{"start":"2022-08-14T01:45:00+0200","end":"2022-08-14T02:15:00+0200","alternativeTransport":{"location":[{"station":{"uicCode":"8400597","stationCode":"TB","name":"Tilburg","coordinate":{"lat":51.5605545043945,"lng":5.08361101150513},"countryCode":"NL"},"description":"vanaf de achterzijde van het station"},{"station":{"uicCode":"8400206","stationCode":"EHV","name":"Eindhoven Centraal","coordinate":{"lat":51.4433326721191,"lng":5.48138904571533},"countryCode":"NL"},"description":"vanaf het Beursplein, aan de achterzijde van het station"}],"label":"Er rijden snelbussen tussen Tilburg en Eindhoven Centraal.","shortLabel":"Er rijden snelbussen Tilburg - Eindhoven C."}},{"start":"2022-08-14T23:15:00+0200","end":"2022-08-15T01:30:00+0200","alternativeTransport":{"location":[{"station":{"uicCode":"8400206","stationCode":"EHV","name":"Eindhoven Centraal","coordinate":{"lat":51.4433326721191,"lng":5.48138904571533},"countryCode":"NL"},"description":"vanaf het Beursplein, aan de achterzijde van het station"},{"station":{"uicCode":"8400196","stationCode":"EHS","name":"Eindhoven Strijp-S","coordinate":{"lat":51.4511108398438,"lng":5.45583343505859},"countryCode":"NL"},"description":"onder het spoorviaduct"},{"station":{"uicCode":"8400112","stationCode":"BET","name":"Best","coordinate":{"lat":51.5099983215332,"lng":5.38916683197022},"countryCode":"NL"},"description":"vanaf het busstation"},{"station":{"uicCode":"8400129","stationCode":"BTL","name":"Boxtel","coordinate":{"lat":51.58433,"lng":5.31912},"countryCode":"NL"},"description":"vanaf het Q-park terrein"},{"station":{"uicCode":"8400667","stationCode":"VG","name":"Vught","coordinate":{"lat":51.6555557250977,"lng":5.29194450378418},"countryCode":"NL"},"description":"vanaf de voorzijde van het station"}],"label":"Er rijden stopbussen van Eindhoven Centraal, Eindhoven Strijp-S, Best, Boxtel, Vught naar 's-Hertogenbosch.","shortLabel":"Er rijden stopbussen Eindhoven C. -> Strijp-S -> Best -> Boxtel -> Vught -> 's-Hertogenbosch"}},{"start":"2022-08-15T00:40:00+0200","end":"2022-08-15T02:15:00+0200","alternativeTransport":{"location":[{"station":{"uicCode":"8400319","stationCode":"HT","name":"'s-Hertogenbosch","coordinate":{"lat":51.69048,"lng":5.29362},"countryCode":"NL"},"description":"vanaf de speciale uitgang op het perron bij spoor 1"},{"station":{"uicCode":"8400667","stationCode":"VG","name":"Vught","coordinate":{"lat":51.6555557250977,"lng":5.29194450378418},"countryCode":"NL"},"description":"vanaf de voorzijde van het station"},{"station":{"uicCode":"8400129","stationCode":"BTL","name":"Boxtel","coordinate":{"lat":51.58433,"lng":5.31912},"countryCode":"NL"},"description":"vanaf het Q-park terrein"},{"station":{"uicCode":"8400112","stationCode":"BET","name":"Best","coordinate":{"lat":51.5099983215332,"lng":5.38916683197022},"countryCode":"NL"},"description":"vanaf het busstation"},{"station":{"uicCode":"8400196","stationCode":"EHS","name":"Eindhoven Strijp-S","coordinate":{"lat":51.4511108398438,"lng":5.45583343505859},"countryCode":"NL"},"description":"onder het spoorviaduct"},{"station":{"uicCode":"8400206","stationCode":"EHV","name":"Eindhoven Centraal","coordinate":{"lat":51.4433326721191,"lng":5.48138904571533},"countryCode":"NL"},"description":"vanaf het Beursplein, aan de achterzijde van het station"}],"label":"Er rijden stopbussen van 's-Hertogenbosch, Vught, Boxtel, Best, Eindhoven Strijp-S naar Eindhoven Centraal.","shortLabel":"Er rijden stopbussen 's-Hertogenbosch -> Vught -> Boxtel -> Best -> Strijp-S -> Eindhoven C."}},{"start":"2022-08-15T23:15:00+0200","end":"2022-08-16T01:30:00+0200","alternativeTransport":{"location":[{"station":{"uicCode":"8400206","stationCode":"EHV","name":"Eindhoven Centraal","coordinate":{"lat":51.4433326721191,"lng":5.48138904571533},"countryCode":"NL"},"description":"vanaf het Beursplein, aan de achterzijde van het station"},{"station":{"uicCode":"8400196","stationCode":"EHS","name":"Eindhoven Strijp-S","coordinate":{"lat":51.4511108398438,"lng":5.45583343505859},"countryCode":"NL"},"description":"onder het spoorviaduct"},{"station":{"uicCode":"8400112","stationCode":"BET","name":"Best","coordinate":{"lat":51.5099983215332,"lng":5.38916683197022},"countryCode":"NL"},"description":"vanaf het busstation"},{"station":{"uicCode":"8400129","stationCode":"BTL","name":"Boxtel","coordinate":{"lat":51.58433,"lng":5.31912},"countryCode":"NL"},"description":"vanaf het Q-park terrein"},{"station":{"uicCode":"8400667","stationCode":"VG","name":"Vught","coordinate":{"lat":51.6555557250977,"lng":5.29194450378418},"countryCode":"NL"},"description":"vanaf de voorzijde van het station"}],"label":"Er rijden stopbussen van Eindhoven Centraal, Eindhoven Strijp-S, Best, Boxtel, Vught naar 's-Hertogenbosch.","shortLabel":"Er rijden stopbussen Eindhoven C. -> Strijp-S -> Best -> Boxtel -> Vught -> 's-Hertogenbosch"}},{"start":"2022-08-16T00:40:00+0200","end":"2022-08-16T02:15:00+0200","alternativeTransport":{"location":[{"station":{"uicCode":"8400319","stationCode":"HT","name":"'s-Hertogenbosch","coordinate":{"lat":51.69048,"lng":5.29362},"countryCode":"NL"},"description":"vanaf de speciale uitgang op het perron bij spoor 1"},{"station":{"uicCode":"8400667","stationCode":"VG","name":"Vught","coordinate":{"lat":51.6555557250977,"lng":5.29194450378418},"countryCode":"NL"},"description":"vanaf de voorzijde van het station"},{"station":{"uicCode":"8400129","stationCode":"BTL","name":"Boxtel","coordinate":{"lat":51.58433,"lng":5.31912},"countryCode":"NL"},"description":"vanaf het Q-park terrein"},{"station":{"uicCode":"8400112","stationCode":"BET","name":"Best","coordinate":{"lat":51.5099983215332,"lng":5.38916683197022},"countryCode":"NL"},"description":"vanaf het busstation"},{"station":{"uicCode":"8400196","stationCode":"EHS","name":"Eindhoven Strijp-S","coordinate":{"lat":51.4511108398438,"lng":5.45583343505859},"countryCode":"NL"},"description":"onder het spoorviaduct"},{"station":{"uicCode":"8400206","stationCode":"EHV","name":"Eindhoven Centraal","coordinate":{"lat":51.4433326721191,"lng":5.48138904571533},"countryCode":"NL"},"description":"vanaf het Beursplein, aan de achterzijde van het station"}],"label":"Er rijden stopbussen van 's-Hertogenbosch, Vught, Boxtel, Best, Eindhoven Strijp-S naar Eindhoven Centraal.","shortLabel":"Er rijden stopbussen 's-Hertogenbosch -> Vught -> Boxtel -> Best -> Strijp-S -> Eindhoven C."}},{"start":"2022-08-16T23:15:00+0200","end":"2022-08-17T01:30:00+0200","alternativeTransport":{"location":[{"station":{"uicCode":"8400206","stationCode":"EHV","name":"Eindhoven Centraal","coordinate":{"lat":51.4433326721191,"lng":5.48138904571533},"countryCode":"NL"},"description":"vanaf het Beursplein, aan de achterzijde van het station"},{"station":{"uicCode":"8400196","stationCode":"EHS","name":"Eindhoven Strijp-S","coordinate":{"lat":51.4511108398438,"lng":5.45583343505859},"countryCode":"NL"},"description":"onder het spoorviaduct"},{"station":{"uicCode":"8400112","stationCode":"BET","name":"Best","coordinate":{"lat":51.5099983215332,"lng":5.38916683197022},"countryCode":"NL"},"description":"vanaf het busstation"},{"station":{"uicCode":"8400129","stationCode":"BTL","name":"Boxtel","coordinate":{"lat":51.58433,"lng":5.31912},"countryCode":"NL"},"description":"vanaf het Q-park terrein"},{"station":{"uicCode":"8400667","stationCode":"VG","name":"Vught","coordinate":{"lat":51.6555557250977,"lng":5.29194450378418},"countryCode":"NL"},"description":"vanaf de voorzijde van het station"}],"label":"Er rijden stopbussen van Eindhoven Centraal, Eindhoven Strijp-S, Best, Boxtel, Vught naar 's-Hertogenbosch.","shortLabel":"Er rijden stopbussen Eindhoven C. -> Strijp-S -> Best -> Boxtel -> Vught -> 's-Hertogenbosch"}},{"start":"2022-08-17T00:40:00+0200","end":"2022-08-17T02:15:00+0200","alternativeTransport":{"location":[{"station":{"uicCode":"8400319","stationCode":"HT","name":"'s-Hertogenbosch","coordinate":{"lat":51.69048,"lng":5.29362},"countryCode":"NL"},"description":"vanaf de speciale uitgang op het perron bij spoor 1"},{"station":{"uicCode":"8400667","stationCode":"VG","name":"Vught","coordinate":{"lat":51.6555557250977,"lng":5.29194450378418},"countryCode":"NL"},"description":"vanaf de voorzijde van het station"},{"station":{"uicCode":"8400129","stationCode":"BTL","name":"Boxtel","coordinate":{"lat":51.58433,"lng":5.31912},"countryCode":"NL"},"description":"vanaf het Q-park terrein"},{"station":{"uicCode":"8400112","stationCode":"BET","name":"Best","coordinate":{"lat":51.5099983215332,"lng":5.38916683197022},"countryCode":"NL"},"description":"vanaf het busstation"},{"station":{"uicCode":"8400196","stationCode":"EHS","name":"Eindhoven Strijp-S","coordinate":{"lat":51.4511108398438,"lng":5.45583343505859},"countryCode":"NL"},"description":"onder het spoorviaduct"},{"station":{"uicCode":"8400206","stationCode":"EHV","name":"Eindhoven Centraal","coordinate":{"lat":51.4433326721191,"lng":5.48138904571533},"countryCode":"NL"},"description":"vanaf het Beursplein, aan de achterzijde van het station"}],"label":"Er rijden stopbussen van 's-Hertogenbosch, Vught, Boxtel, Best, Eindhoven Strijp-S naar Eindhoven Centraal.","shortLabel":"Er rijden stopbussen 's-Hertogenbosch -> Vught -> Boxtel -> Best -> Strijp-S -> Eindhoven C."}},{"start":"2022-08-17T23:15:00+0200","end":"2022-08-18T01:30:00+0200","alternativeTransport":{"location":[{"station":{"uicCode":"8400206","stationCode":"EHV","name":"Eindhoven Centraal","coordinate":{"lat":51.4433326721191,"lng":5.48138904571533},"countryCode":"NL"},"description":"vanaf het Beursplein, aan de achterzijde van het station"},{"station":{"uicCode":"8400196","stationCode":"EHS","name":"Eindhoven Strijp-S","coordinate":{"lat":51.4511108398438,"lng":5.45583343505859},"countryCode":"NL"},"description":"onder het spoorviaduct"},{"station":{"uicCode":"8400112","stationCode":"BET","name":"Best","coordinate":{"lat":51.5099983215332,"lng":5.38916683197022},"countryCode":"NL"},"description":"vanaf het busstation"},{"station":{"uicCode":"8400129","stationCode":"BTL","name":"Boxtel","coordinate":{"lat":51.58433,"lng":5.31912},"countryCode":"NL"},"description":"vanaf het Q-park terrein"},{"station":{"uicCode":"8400667","stationCode":"VG","name":"Vught","coordinate":{"lat":51.6555557250977,"lng":5.29194450378418},"countryCode":"NL"},"description":"vanaf de voorzijde van het station"}],"label":"Er rijden stopbussen van Eindhoven Centraal, Eindhoven Strijp-S, Best, Boxtel, Vught naar 's-Hertogenbosch.","shortLabel":"Er rijden stopbussen Eindhoven C. -> Strijp-S -> Best -> Boxtel -> Vught -> 's-Hertogenbosch"}},{"start":"2022-08-18T00:40:00+0200","end":"2022-08-18T02:15:00+0200","alternativeTransport":{"location":[{"station":{"uicCode":"8400319","stationCode":"HT","name":"'s-Hertogenbosch","coordinate":{"lat":51.69048,"lng":5.29362},"countryCode":"NL"},"description":"vanaf de speciale uitgang op het perron bij spoor 1"},{"station":{"uicCode":"8400667","stationCode":"VG","name":"Vught","coordinate":{"lat":51.6555557250977,"lng":5.29194450378418},"countryCode":"NL"},"description":"vanaf de voorzijde van het station"},{"station":{"uicCode":"8400129","stationCode":"BTL","name":"Boxtel","coordinate":{"lat":51.58433,"lng":5.31912},"countryCode":"NL"},"description":"vanaf het Q-park terrein"},{"station":{"uicCode":"8400112","stationCode":"BET","name":"Best","coordinate":{"lat":51.5099983215332,"lng":5.38916683197022},"countryCode":"NL"},"description":"vanaf het busstation"},{"station":{"uicCode":"8400196","stationCode":"EHS","name":"Eindhoven Strijp-S","coordinate":{"lat":51.4511108398438,"lng":5.45583343505859},"countryCode":"NL"},"description":"onder het spoorviaduct"},{"station":{"uicCode":"8400206","stationCode":"EHV","name":"Eindhoven Centraal","coordinate":{"lat":51.4433326721191,"lng":5.48138904571533},"countryCode":"NL"},"description":"vanaf het Beursplein, aan de achterzijde van het station"}],"label":"Er rijden stopbussen van 's-Hertogenbosch, Vught, Boxtel, Best, Eindhoven Strijp-S naar Eindhoven Centraal.","shortLabel":"Er rijden stopbussen 's-Hertogenbosch -> Vught -> Boxtel -> Best -> Strijp-S -> Eindhoven C."}},{"start":"2022-08-18T23:15:00+0200","end":"2022-08-19T01:30:00+0200","alternativeTransport":{"location":[{"station":{"uicCode":"8400206","stationCode":"EHV","name":"Eindhoven Centraal","coordinate":{"lat":51.4433326721191,"lng":5.48138904571533},"countryCode":"NL"},"description":"vanaf het Beursplein, aan de achterzijde van het station"},{"station":{"uicCode":"8400196","stationCode":"EHS","name":"Eindhoven Strijp-S","coordinate":{"lat":51.4511108398438,"lng":5.45583343505859},"countryCode":"NL"},"description":"onder het spoorviaduct"},{"station":{"uicCode":"8400112","stationCode":"BET","name":"Best","coordinate":{"lat":51.5099983215332,"lng":5.38916683197022},"countryCode":"NL"},"description":"vanaf het busstation"},{"station":{"uicCode":"8400129","stationCode":"BTL","name":"Boxtel","coordinate":{"lat":51.58433,"lng":5.31912},"countryCode":"NL"},"description":"vanaf het Q-park terrein"},{"station":{"uicCode":"8400667","stationCode":"VG","name":"Vught","coordinate":{"lat":51.6555557250977,"lng":5.29194450378418},"countryCode":"NL"},"description":"vanaf de voorzijde van het station"}],"label":"Er rijden stopbussen van Eindhoven Centraal, Eindhoven Strijp-S, Best, Boxtel, Vught naar 's-Hertogenbosch.","shortLabel":"Er rijden stopbussen Eindhoven C. -> Strijp-S -> Best -> Boxtel -> Vught -> 's-Hertogenbosch"}},{"start":"2022-08-19T00:40:00+0200","end":"2022-08-19T02:15:00+0200","alternativeTransport":{"location":[{"station":{"uicCode":"8400319","stationCode":"HT","name":"'s-Hertogenbosch","coordinate":{"lat":51.69048,"lng":5.29362},"countryCode":"NL"},"description":"vanaf de speciale uitgang op het perron bij spoor 1"},{"station":{"uicCode":"8400667","stationCode":"VG","name":"Vught","coordinate":{"lat":51.6555557250977,"lng":5.29194450378418},"countryCode":"NL"},"description":"vanaf de voorzijde van het station"},{"station":{"uicCode":"8400129","stationCode":"BTL","name":"Boxtel","coordinate":{"lat":51.58433,"lng":5.31912},"countryCode":"NL"},"description":"vanaf het Q-park terrein"},{"station":{"uicCode":"8400112","stationCode":"BET","name":"Best","coordinate":{"lat":51.5099983215332,"lng":5.38916683197022},"countryCode":"NL"},"description":"vanaf het busstation"},{"station":{"uicCode":"8400196","stationCode":"EHS","name":"Eindhoven Strijp-S","coordinate":{"lat":51.4511108398438,"lng":5.45583343505859},"countryCode":"NL"},"description":"onder het spoorviaduct"},{"station":{"uicCode":"8400206","stationCode":"EHV","name":"Eindhoven Centraal","coordinate":{"lat":51.4433326721191,"lng":5.48138904571533},"countryCode":"NL"},"description":"vanaf het Beursplein, aan de achterzijde van het station"}],"label":"Er rijden stopbussen van 's-Hertogenbosch, Vught, Boxtel, Best, Eindhoven Strijp-S naar Eindhoven Centraal.","shortLabel":"Er rijden stopbussen 's-Hertogenbosch -> Vught -> Boxtel -> Best -> Strijp-S -> Eindhoven C."}},{"start":"2022-08-19T23:15:00+0200","end":"2022-08-20T01:30:00+0200","alternativeTransport":{"location":[{"station":{"uicCode":"8400206","stationCode":"EHV","name":"Eindhoven Centraal","coordinate":{"lat":51.4433326721191,"lng":5.48138904571533},"countryCode":"NL"},"description":"vanaf het Beursplein, aan de achterzijde van het station"},{"station":{"uicCode":"8400196","stationCode":"EHS","name":"Eindhoven Strijp-S","coordinate":{"lat":51.4511108398438,"lng":5.45583343505859},"countryCode":"NL"},"description":"onder het spoorviaduct"},{"station":{"uicCode":"8400112","stationCode":"BET","name":"Best","coordinate":{"lat":51.5099983215332,"lng":5.38916683197022},"countryCode":"NL"},"description":"vanaf het busstation"},{"station":{"uicCode":"8400129","stationCode":"BTL","name":"Boxtel","coordinate":{"lat":51.58433,"lng":5.31912},"countryCode":"NL"},"description":"vanaf het Q-park terrein"},{"station":{"uicCode":"8400667","stationCode":"VG","name":"Vught","coordinate":{"lat":51.6555557250977,"lng":5.29194450378418},"countryCode":"NL"},"description":"vanaf de voorzijde van het station"}],"label":"Er rijden stopbussen van Eindhoven Centraal, Eindhoven Strijp-S, Best, Boxtel, Vught naar 's-Hertogenbosch.","shortLabel":"Er rijden stopbussen Eindhoven C. -> Strijp-S -> Best -> Boxtel -> Vught -> 's-Hertogenbosch"}},{"start":"2022-08-20T00:40:00+0200","end":"2022-08-20T02:15:00+0200","alternativeTransport":{"location":[{"station":{"uicCode":"8400319","stationCode":"HT","name":"'s-Hertogenbosch","coordinate":{"lat":51.69048,"lng":5.29362},"countryCode":"NL"},"description":"vanaf de speciale uitgang op het perron bij spoor 1"},{"station":{"uicCode":"8400667","stationCode":"VG","name":"Vught","coordinate":{"lat":51.6555557250977,"lng":5.29194450378418},"countryCode":"NL"},"description":"vanaf de voorzijde van het station"},{"station":{"uicCode":"8400129","stationCode":"BTL","name":"Boxtel","coordinate":{"lat":51.58433,"lng":5.31912},"countryCode":"NL"},"description":"vanaf het Q-park terrein"},{"station":{"uicCode":"8400112","stationCode":"BET","name":"Best","coordinate":{"lat":51.5099983215332,"lng":5.38916683197022},"countryCode":"NL"},"description":"vanaf het busstation"},{"station":{"uicCode":"8400196","stationCode":"EHS","name":"Eindhoven Strijp-S","coordinate":{"lat":51.4511108398438,"lng":5.45583343505859},"countryCode":"NL"},"description":"onder het spoorviaduct"},{"station":{"uicCode":"8400206","stationCode":"EHV","name":"Eindhoven Centraal","coordinate":{"lat":51.4433326721191,"lng":5.48138904571533},"countryCode":"NL"},"description":"vanaf het Beursplein, aan de achterzijde van het station"}],"label":"Er rijden stopbussen van 's-Hertogenbosch, Vught, Boxtel, Best, Eindhoven Strijp-S naar Eindhoven Centraal.","shortLabel":"Er rijden stopbussen 's-Hertogenbosch -> Vught -> Boxtel -> Best -> Strijp-S -> Eindhoven C."}},{"start":"2022-08-20T23:15:00+0200","end":"2022-08-21T01:30:00+0200","alternativeTransport":{"location":[{"station":{"uicCode":"8400206","stationCode":"EHV","name":"Eindhoven Centraal","coordinate":{"lat":51.4433326721191,"lng":5.48138904571533},"countryCode":"NL"},"description":"vanaf het Beursplein, aan de achterzijde van het station"},{"station":{"uicCode":"8400196","stationCode":"EHS","name":"Eindhoven Strijp-S","coordinate":{"lat":51.4511108398438,"lng":5.45583343505859},"countryCode":"NL"},"description":"onder het spoorviaduct"},{"station":{"uicCode":"8400112","stationCode":"BET","name":"Best","coordinate":{"lat":51.5099983215332,"lng":5.38916683197022},"countryCode":"NL"},"description":"vanaf het busstation"},{"station":{"uicCode":"8400129","stationCode":"BTL","name":"Boxtel","coordinate":{"lat":51.58433,"lng":5.31912},"countryCode":"NL"},"description":"vanaf het Q-park terrein"},{"station":{"uicCode":"8400667","stationCode":"VG","name":"Vught","coordinate":{"lat":51.6555557250977,"lng":5.29194450378418},"countryCode":"NL"},"description":"vanaf de voorzijde van het station"}],"label":"Er rijden stopbussen van Eindhoven Centraal, Eindhoven Strijp-S, Best, Boxtel, Vught naar 's-Hertogenbosch.","shortLabel":"Er rijden stopbussen Eindhoven C. -> Strijp-S -> Best -> Boxtel -> Vught -> 's-Hertogenbosch"}},{"start":"2022-08-21T00:40:00+0200","end":"2022-08-21T02:15:00+0200","alternativeTransport":{"location":[{"station":{"uicCode":"8400319","stationCode":"HT","name":"'s-Hertogenbosch","coordinate":{"lat":51.69048,"lng":5.29362},"countryCode":"NL"},"description":"vanaf de speciale uitgang op het perron bij spoor 1"},{"station":{"uicCode":"8400667","stationCode":"VG","name":"Vught","coordinate":{"lat":51.6555557250977,"lng":5.29194450378418},"countryCode":"NL"},"description":"vanaf de voorzijde van het station"},{"station":{"uicCode":"8400129","stationCode":"BTL","name":"Boxtel","coordinate":{"lat":51.58433,"lng":5.31912},"countryCode":"NL"},"description":"vanaf het Q-park terrein"},{"station":{"uicCode":"8400112","stationCode":"BET","name":"Best","coordinate":{"lat":51.5099983215332,"lng":5.38916683197022},"countryCode":"NL"},"description":"vanaf het busstation"},{"station":{"uicCode":"8400196","stationCode":"EHS","name":"Eindhoven Strijp-S","coordinate":{"lat":51.4511108398438,"lng":5.45583343505859},"countryCode":"NL"},"description":"onder het spoorviaduct"},{"station":{"uicCode":"8400206","stationCode":"EHV","name":"Eindhoven Centraal","coordinate":{"lat":51.4433326721191,"lng":5.48138904571533},"countryCode":"NL"},"description":"vanaf het Beursplein, aan de achterzijde van het station"}],"label":"Er rijden stopbussen van 's-Hertogenbosch, Vught, Boxtel, Best, Eindhoven Strijp-S naar Eindhoven Centraal.","shortLabel":"Er rijden stopbussen 's-Hertogenbosch -> Vught -> Boxtel -> Best -> Strijp-S -> Eindhoven C."}},{"start":"2022-08-21T23:15:00+0200","end":"2022-08-22T01:30:00+0200","alternativeTransport":{"location":[{"station":{"uicCode":"8400206","stationCode":"EHV","name":"Eindhoven Centraal","coordinate":{"lat":51.4433326721191,"lng":5.48138904571533},"countryCode":"NL"},"description":"vanaf het Beursplein, aan de achterzijde van het station"},{"station":{"uicCode":"8400196","stationCode":"EHS","name":"Eindhoven Strijp-S","coordinate":{"lat":51.4511108398438,"lng":5.45583343505859},"countryCode":"NL"},"description":"onder het spoorviaduct"},{"station":{"uicCode":"8400112","stationCode":"BET","name":"Best","coordinate":{"lat":51.5099983215332,"lng":5.38916683197022},"countryCode":"NL"},"description":"vanaf het busstation"},{"station":{"uicCode":"8400129","stationCode":"BTL","name":"Boxtel","coordinate":{"lat":51.58433,"lng":5.31912},"countryCode":"NL"},"description":"vanaf het Q-park terrein"},{"station":{"uicCode":"8400667","stationCode":"VG","name":"Vught","coordinate":{"lat":51.6555557250977,"lng":5.29194450378418},"countryCode":"NL"},"description":"vanaf de voorzijde van het station"}],"label":"Er rijden stopbussen van Eindhoven Centraal, Eindhoven Strijp-S, Best, Boxtel, Vught naar 's-Hertogenbosch.","shortLabel":"Er rijden stopbussen Eindhoven C. -> Strijp-S -> Best -> Boxtel -> Vught -> 's-Hertogenbosch"}},{"start":"2022-08-22T00:40:00+0200","end":"2022-08-22T02:15:00+0200","alternativeTransport":{"location":[{"station":{"uicCode":"8400319","stationCode":"HT","name":"'s-Hertogenbosch","coordinate":{"lat":51.69048,"lng":5.29362},"countryCode":"NL"},"description":"vanaf de speciale uitgang op het perron bij spoor 1"},{"station":{"uicCode":"8400667","stationCode":"VG","name":"Vught","coordinate":{"lat":51.6555557250977,"lng":5.29194450378418},"countryCode":"NL"},"description":"vanaf de voorzijde van het station"},{"station":{"uicCode":"8400129","stationCode":"BTL","name":"Boxtel","coordinate":{"lat":51.58433,"lng":5.31912},"countryCode":"NL"},"description":"vanaf het Q-park terrein"},{"station":{"uicCode":"8400112","stationCode":"BET","name":"Best","coordinate":{"lat":51.5099983215332,"lng":5.38916683197022},"countryCode":"NL"},"description":"vanaf het busstation"},{"station":{"uicCode":"8400196","stationCode":"EHS","name":"Eindhoven Strijp-S","coordinate":{"lat":51.4511108398438,"lng":5.45583343505859},"countryCode":"NL"},"description":"onder het spoorviaduct"},{"station":{"uicCode":"8400206","stationCode":"EHV","name":"Eindhoven Centraal","coordinate":{"lat":51.4433326721191,"lng":5.48138904571533},"countryCode":"NL"},"description":"vanaf het Beursplein, aan de achterzijde van het station"}],"label":"Er rijden stopbussen van 's-Hertogenbosch, Vught, Boxtel, Best, Eindhoven Strijp-S naar Eindhoven Centraal.","shortLabel":"Er rijden stopbussen 's-Hertogenbosch -> Vught -> Boxtel -> Best -> Strijp-S -> Eindhoven C."}},{"start":"2022-08-22T23:15:00+0200","end":"2022-08-23T01:30:00+0200","alternativeTransport":{"location":[{"station":{"uicCode":"8400206","stationCode":"EHV","name":"Eindhoven Centraal","coordinate":{"lat":51.4433326721191,"lng":5.48138904571533},"countryCode":"NL"},"description":"vanaf het Beursplein, aan de achterzijde van het station"},{"station":{"uicCode":"8400196","stationCode":"EHS","name":"Eindhoven Strijp-S","coordinate":{"lat":51.4511108398438,"lng":5.45583343505859},"countryCode":"NL"},"description":"onder het spoorviaduct"},{"station":{"uicCode":"8400112","stationCode":"BET","name":"Best","coordinate":{"lat":51.5099983215332,"lng":5.38916683197022},"countryCode":"NL"},"description":"vanaf het busstation"},{"station":{"uicCode":"8400129","stationCode":"BTL","name":"Boxtel","coordinate":{"lat":51.58433,"lng":5.31912},"countryCode":"NL"},"description":"vanaf het Q-park terrein"},{"station":{"uicCode":"8400667","stationCode":"VG","name":"Vught","coordinate":{"lat":51.6555557250977,"lng":5.29194450378418},"countryCode":"NL"},"description":"vanaf de voorzijde van het station"}],"label":"Er rijden stopbussen van Eindhoven Centraal, Eindhoven Strijp-S, Best, Boxtel, Vught naar 's-Hertogenbosch.","shortLabel":"Er rijden stopbussen Eindhoven C. -> Strijp-S -> Best -> Boxtel -> Vught -> 's-Hertogenbosch"}},{"start":"2022-08-23T00:40:00+0200","end":"2022-08-23T02:15:00+0200","alternativeTransport":{"location":[{"station":{"uicCode":"8400319","stationCode":"HT","name":"'s-Hertogenbosch","coordinate":{"lat":51.69048,"lng":5.29362},"countryCode":"NL"},"description":"vanaf de speciale uitgang op het perron bij spoor 1"},{"station":{"uicCode":"8400667","stationCode":"VG","name":"Vught","coordinate":{"lat":51.6555557250977,"lng":5.29194450378418},"countryCode":"NL"},"description":"vanaf de voorzijde van het station"},{"station":{"uicCode":"8400129","stationCode":"BTL","name":"Boxtel","coordinate":{"lat":51.58433,"lng":5.31912},"countryCode":"NL"},"description":"vanaf het Q-park terrein"},{"station":{"uicCode":"8400112","stationCode":"BET","name":"Best","coordinate":{"lat":51.5099983215332,"lng":5.38916683197022},"countryCode":"NL"},"description":"vanaf het busstation"},{"station":{"uicCode":"8400196","stationCode":"EHS","name":"Eindhoven Strijp-S","coordinate":{"lat":51.4511108398438,"lng":5.45583343505859},"countryCode":"NL"},"description":"onder het spoorviaduct"},{"station":{"uicCode":"8400206","stationCode":"EHV","name":"Eindhoven Centraal","coordinate":{"lat":51.4433326721191,"lng":5.48138904571533},"countryCode":"NL"},"description":"vanaf het Beursplein, aan de achterzijde van het station"}],"label":"Er rijden stopbussen van 's-Hertogenbosch, Vught, Boxtel, Best, Eindhoven Strijp-S naar Eindhoven Centraal.","shortLabel":"Er rijden stopbussen 's-Hertogenbosch -> Vught -> Boxtel -> Best -> Strijp-S -> Eindhoven C."}},{"start":"2022-08-23T23:15:00+0200","end":"2022-08-24T01:30:00+0200","alternativeTransport":{"location":[{"station":{"uicCode":"8400206","stationCode":"EHV","name":"Eindhoven Centraal","coordinate":{"lat":51.4433326721191,"lng":5.48138904571533},"countryCode":"NL"},"description":"vanaf het Beursplein, aan de achterzijde van het station"},{"station":{"uicCode":"8400196","stationCode":"EHS","name":"Eindhoven Strijp-S","coordinate":{"lat":51.4511108398438,"lng":5.45583343505859},"countryCode":"NL"},"description":"onder het spoorviaduct"},{"station":{"uicCode":"8400112","stationCode":"BET","name":"Best","coordinate":{"lat":51.5099983215332,"lng":5.38916683197022},"countryCode":"NL"},"description":"vanaf het busstation"},{"station":{"uicCode":"8400129","stationCode":"BTL","name":"Boxtel","coordinate":{"lat":51.58433,"lng":5.31912},"countryCode":"NL"},"description":"vanaf het Q-park terrein"},{"station":{"uicCode":"8400667","stationCode":"VG","name":"Vught","coordinate":{"lat":51.6555557250977,"lng":5.29194450378418},"countryCode":"NL"},"description":"vanaf de voorzijde van het station"}],"label":"Er rijden stopbussen van Eindhoven Centraal, Eindhoven Strijp-S, Best, Boxtel, Vught naar 's-Hertogenbosch.","shortLabel":"Er rijden stopbussen Eindhoven C. -> Strijp-S -> Best -> Boxtel -> Vught -> 's-Hertogenbosch"}},{"start":"2022-08-24T00:40:00+0200","end":"2022-08-24T02:15:00+0200","alternativeTransport":{"location":[{"station":{"uicCode":"8400319","stationCode":"HT","name":"'s-Hertogenbosch","coordinate":{"lat":51.69048,"lng":5.29362},"countryCode":"NL"},"description":"vanaf de speciale uitgang op het perron bij spoor 1"},{"station":{"uicCode":"8400667","stationCode":"VG","name":"Vught","coordinate":{"lat":51.6555557250977,"lng":5.29194450378418},"countryCode":"NL"},"description":"vanaf de voorzijde van het station"},{"station":{"uicCode":"8400129","stationCode":"BTL","name":"Boxtel","coordinate":{"lat":51.58433,"lng":5.31912},"countryCode":"NL"},"description":"vanaf het Q-park terrein"},{"station":{"uicCode":"8400112","stationCode":"BET","name":"Best","coordinate":{"lat":51.5099983215332,"lng":5.38916683197022},"countryCode":"NL"},"description":"vanaf het busstation"},{"station":{"uicCode":"8400196","stationCode":"EHS","name":"Eindhoven Strijp-S","coordinate":{"lat":51.4511108398438,"lng":5.45583343505859},"countryCode":"NL"},"description":"onder het spoorviaduct"},{"station":{"uicCode":"8400206","stationCode":"EHV","name":"Eindhoven Centraal","coordinate":{"lat":51.4433326721191,"lng":5.48138904571533},"countryCode":"NL"},"description":"vanaf het Beursplein, aan de achterzijde van het station"}],"label":"Er rijden stopbussen van 's-Hertogenbosch, Vught, Boxtel, Best, Eindhoven Strijp-S naar Eindhoven Centraal.","shortLabel":"Er rijden stopbussen 's-Hertogenbosch -> Vught -> Boxtel -> Best -> Strijp-S -> Eindhoven C."}},{"start":"2022-08-24T23:15:00+0200","end":"2022-08-25T01:30:00+0200","alternativeTransport":{"location":[{"station":{"uicCode":"8400206","stationCode":"EHV","name":"Eindhoven Centraal","coordinate":{"lat":51.4433326721191,"lng":5.48138904571533},"countryCode":"NL"},"description":"vanaf het Beursplein, aan de achterzijde van het station"},{"station":{"uicCode":"8400196","stationCode":"EHS","name":"Eindhoven Strijp-S","coordinate":{"lat":51.4511108398438,"lng":5.45583343505859},"countryCode":"NL"},"description":"onder het spoorviaduct"},{"station":{"uicCode":"8400112","stationCode":"BET","name":"Best","coordinate":{"lat":51.5099983215332,"lng":5.38916683197022},"countryCode":"NL"},"description":"vanaf het busstation"},{"station":{"uicCode":"8400129","stationCode":"BTL","name":"Boxtel","coordinate":{"lat":51.58433,"lng":5.31912},"countryCode":"NL"},"description":"vanaf het Q-park terrein"},{"station":{"uicCode":"8400667","stationCode":"VG","name":"Vught","coordinate":{"lat":51.6555557250977,"lng":5.29194450378418},"countryCode":"NL"},"description":"vanaf de voorzijde van het station"}],"label":"Er rijden stopbussen van Eindhoven Centraal, Eindhoven Strijp-S, Best, Boxtel, Vught naar 's-Hertogenbosch.","shortLabel":"Er rijden stopbussen Eindhoven C. -> Strijp-S -> Best -> Boxtel -> Vught -> 's-Hertogenbosch"}},{"start":"2022-08-25T00:40:00+0200","end":"2022-08-25T02:15:00+0200","alternativeTransport":{"location":[{"station":{"uicCode":"8400319","stationCode":"HT","name":"'s-Hertogenbosch","coordinate":{"lat":51.69048,"lng":5.29362},"countryCode":"NL"},"description":"vanaf de speciale uitgang op het perron bij spoor 1"},{"station":{"uicCode":"8400667","stationCode":"VG","name":"Vught","coordinate":{"lat":51.6555557250977,"lng":5.29194450378418},"countryCode":"NL"},"description":"vanaf de voorzijde van het station"},{"station":{"uicCode":"8400129","stationCode":"BTL","name":"Boxtel","coordinate":{"lat":51.58433,"lng":5.31912},"countryCode":"NL"},"description":"vanaf het Q-park terrein"},{"station":{"uicCode":"8400112","stationCode":"BET","name":"Best","coordinate":{"lat":51.5099983215332,"lng":5.38916683197022},"countryCode":"NL"},"description":"vanaf het busstation"},{"station":{"uicCode":"8400196","stationCode":"EHS","name":"Eindhoven Strijp-S","coordinate":{"lat":51.4511108398438,"lng":5.45583343505859},"countryCode":"NL"},"description":"onder het spoorviaduct"},{"station":{"uicCode":"8400206","stationCode":"EHV","name":"Eindhoven Centraal","coordinate":{"lat":51.4433326721191,"lng":5.48138904571533},"countryCode":"NL"},"description":"vanaf het Beursplein, aan de achterzijde van het station"}],"label":"Er rijden stopbussen van 's-Hertogenbosch, Vught, Boxtel, Best, Eindhoven Strijp-S naar Eindhoven Centraal.","shortLabel":"Er rijden stopbussen 's-Hertogenbosch -> Vught -> Boxtel -> Best -> Strijp-S -> Eindhoven C."}},{"start":"2022-08-25T23:15:00+0200","end":"2022-08-26T01:30:00+0200","alternativeTransport":{"location":[{"station":{"uicCode":"8400206","stationCode":"EHV","name":"Eindhoven Centraal","coordinate":{"lat":51.4433326721191,"lng":5.48138904571533},"countryCode":"NL"},"description":"vanaf het Beursplein, aan de achterzijde van het station"},{"station":{"uicCode":"8400196","stationCode":"EHS","name":"Eindhoven Strijp-S","coordinate":{"lat":51.4511108398438,"lng":5.45583343505859},"countryCode":"NL"},"description":"onder het spoorviaduct"},{"station":{"uicCode":"8400112","stationCode":"BET","name":"Best","coordinate":{"lat":51.5099983215332,"lng":5.38916683197022},"countryCode":"NL"},"description":"vanaf het busstation"},{"station":{"uicCode":"8400129","stationCode":"BTL","name":"Boxtel","coordinate":{"lat":51.58433,"lng":5.31912},"countryCode":"NL"},"description":"vanaf het Q-park terrein"},{"station":{"uicCode":"8400667","stationCode":"VG","name":"Vught","coordinate":{"lat":51.6555557250977,"lng":5.29194450378418},"countryCode":"NL"},"description":"vanaf de voorzijde van het station"}],"label":"Er rijden stopbussen van Eindhoven Centraal, Eindhoven Strijp-S, Best, Boxtel, Vught naar 's-Hertogenbosch.","shortLabel":"Er rijden stopbussen Eindhoven C. -> Strijp-S -> Best -> Boxtel -> Vught -> 's-Hertogenbosch"}},{"start":"2022-08-26T00:40:00+0200","end":"2022-08-26T02:15:00+0200","alternativeTransport":{"location":[{"station":{"uicCode":"8400319","stationCode":"HT","name":"'s-Hertogenbosch","coordinate":{"lat":51.69048,"lng":5.29362},"countryCode":"NL"},"description":"vanaf de speciale uitgang op het perron bij spoor 1"},{"station":{"uicCode":"8400667","stationCode":"VG","name":"Vught","coordinate":{"lat":51.6555557250977,"lng":5.29194450378418},"countryCode":"NL"},"description":"vanaf de voorzijde van het station"},{"station":{"uicCode":"8400129","stationCode":"BTL","name":"Boxtel","coordinate":{"lat":51.58433,"lng":5.31912},"countryCode":"NL"},"description":"vanaf het Q-park terrein"},{"station":{"uicCode":"8400112","stationCode":"BET","name":"Best","coordinate":{"lat":51.5099983215332,"lng":5.38916683197022},"countryCode":"NL"},"description":"vanaf het busstation"},{"station":{"uicCode":"8400196","stationCode":"EHS","name":"Eindhoven Strijp-S","coordinate":{"lat":51.4511108398438,"lng":5.45583343505859},"countryCode":"NL"},"description":"onder het spoorviaduct"},{"station":{"uicCode":"8400206","stationCode":"EHV","name":"Eindhoven Centraal","coordinate":{"lat":51.4433326721191,"lng":5.48138904571533},"countryCode":"NL"},"description":"vanaf het Beursplein, aan de achterzijde van het station"}],"label":"Er rijden stopbussen van 's-Hertogenbosch, Vught, Boxtel, Best, Eindhoven Strijp-S naar Eindhoven Centraal.","shortLabel":"Er rijden stopbussen 's-Hertogenbosch -> Vught -> Boxtel -> Best -> Strijp-S -> Eindhoven C."}}]},{"id":"7002589","type":"MAINTENANCE","registrationTime":"2022-07-20T12:29:30+0200","releaseTime":"2022-07-20T12:29:30+0200","local":false,"title":"Groningen - Eemshaven","titleSections":[[{"type":"STATION","value":"Groningen"},{"type":"ICON","value":"MAINTENANCE"},{"type":"STATION","value":"Eemshaven"}]],"isActive":false,"start":"2022-08-12T23:15:00+0200","end":"2022-08-15T02:30:00+0200","period":"Vrijdag 12-08-2022 23:15 uur t/m maandag 15-08-2022 02:30 uur.","impact":{"value":4},"summaryAdditionalTravelTime":{"label":"De extra reistijd kan oplopen tot 45 minuten.","shortLabel":"Extra reistijd tot 45 min.","maximumDurationInMinutes":45},"publicationSections":[{"section":{"stations":[{"uicCode":"8400263","stationCode":"GN","name":"Groningen","coordinate":{"lat":53.2105560302734,"lng":6.56472206115723},"countryCode":"NL"},{"uicCode":"8400264","stationCode":"GNN","name":"Groningen Noord","coordinate":{"lat":53.2301469,"lng":6.5563172},"countryCode":"NL"},{"uicCode":"8400547","stationCode":"SWD","name":"Sauwerd","coordinate":{"lat":53.29113,"lng":6.5404},"countryCode":"NL"},{"uicCode":"8400697","stationCode":"WSM","name":"Winsum","coordinate":{"lat":53.3300994,"lng":6.5202905},"countryCode":"NL"},{"uicCode":"8400089","stationCode":"BF","name":"Baflo","coordinate":{"lat":53.3608969,"lng":6.5185581},"countryCode":"NL"},{"uicCode":"8400679","stationCode":"WFM","name":"Warffum","coordinate":{"lat":53.3908431,"lng":6.5671364},"countryCode":"NL"},{"uicCode":"8400619","stationCode":"UST","name":"Usquert","coordinate":{"lat":53.4014742,"lng":6.6093776},"countryCode":"NL"},{"uicCode":"8400617","stationCode":"UHZ","name":"Uithuizen","coordinate":{"lat":53.4099568,"lng":6.6748869},"countryCode":"NL"},{"uicCode":"8400618","stationCode":"UHM","name":"Uithuizermeeden","coordinate":{"lat":53.4145845,"lng":6.7202975},"countryCode":"NL"},{"uicCode":"8400525","stationCode":"RD","name":"Roodeschool","coordinate":{"lat":53.421262,"lng":6.7587},"countryCode":"NL"},{"uicCode":"8400202","stationCode":"EEM","name":"Eemshaven","coordinate":{"lat":53.458419,"lng":6.832},"countryCode":"NL"}],"direction":"BOTH"},"consequence":{"section":{"stations":[{"uicCode":"8400263","stationCode":"GN","name":"Groningen","coordinate":{"lat":53.2105560302734,"lng":6.56472206115723},"countryCode":"NL"},{"uicCode":"8400264","stationCode":"GNN","name":"Groningen Noord","coordinate":{"lat":53.2301469,"lng":6.5563172},"countryCode":"NL"},{"uicCode":"8400547","stationCode":"SWD","name":"Sauwerd","coordinate":{"lat":53.29113,"lng":6.5404},"countryCode":"NL"},{"uicCode":"8400697","stationCode":"WSM","name":"Winsum","coordinate":{"lat":53.3300994,"lng":6.5202905},"countryCode":"NL"},{"uicCode":"8400089","stationCode":"BF","name":"Baflo","coordinate":{"lat":53.3608969,"lng":6.5185581},"countryCode":"NL"},{"uicCode":"8400679","stationCode":"WFM","name":"Warffum","coordinate":{"lat":53.3908431,"lng":6.5671364},"countryCode":"NL"},{"uicCode":"8400619","stationCode":"UST","name":"Usquert","coordinate":{"lat":53.4014742,"lng":6.6093776},"countryCode":"NL"},{"uicCode":"8400617","stationCode":"UHZ","name":"Uithuizen","coordinate":{"lat":53.4099568,"lng":6.6748869},"countryCode":"NL"},{"uicCode":"8400618","stationCode":"UHM","name":"Uithuizermeeden","coordinate":{"lat":53.4145845,"lng":6.7202975},"countryCode":"NL"},{"uicCode":"8400525","stationCode":"RD","name":"Roodeschool","coordinate":{"lat":53.421262,"lng":6.7587},"countryCode":"NL"},{"uicCode":"8400202","stationCode":"EEM","name":"Eemshaven","coordinate":{"lat":53.458419,"lng":6.832},"countryCode":"NL"}],"direction":"ONE_WAY"},"description":"rijden bussen","level":"NO_OR_MUCH_LESS_TRAINS"},"sectionType":"NL"}],"timespans":[{"start":"2022-08-12T23:15:00+0200","end":"2022-08-15T02:30:00+0200","period":"Vrijdag 12-08-2022 23:15 uur t/m maandag 15-08-2022 02:30 uur.","situation":{"label":"Door werkzaamheden: tussen Groningen en Eemshaven rijden er bussen."},"cause":{"label":"Werkzaamheden"},"additionalTravelTime":{"label":"De extra reistijd kan oplopen tot 45 minuten.","shortLabel":"Extra reistijd tot 45 min.","maximumDurationInMinutes":45},"alternativeTransport":{"label":"Er rijden bussen.","shortLabel":"er rijden bussen"},