[{"id":"6022109","type":"DISRUPTION","registrationTime":"2023-03-15T20:27:26+0100","releaseTime":"2023-03-15T20:27:26+0100","local":false,"title":"Heerlen","titleSections":[[{"type":"STATION","value":"Heerlen"}]],"topic":"disruption_6022109_nl","isActive":true,"start":"2023-03-09T20:36:46+0100","end":"2023-03-15T22:57:26+0100","phase":{"id":"2","label":"Impact bekend"},"impact":{"value":1},"expectedDuration":{"description":"Dit duurt de rest van de dag."},"publicationSections":[{"section":{"stations":[{"uicCode":"8400307","stationCode":"HRL","name":"Heerlen","coordinate":{"lat":50.8908348083496,"lng":5.97499990463257},"countryCode":"NL"},{"uicCode":"8400548","stationCode":"LG","name":"Landgraaf","coordinate":{"lat":50.8963890075684,"lng":6.01916646957398},"countryCode":"NL"},{"uicCode":"8400338","stationCode":"EGH","name":"Eygelshoven","coordinate":{"lat":50.8905563354492,"lng":6.04500007629395},"countryCode":"NL"},{"uicCode":"8400152","stationCode":"CVM","name":"Chevremont","coordinate":{"lat":50.8761100769043,"lng":6.05972242355347},"countryCode":"NL"},{"uicCode":"8400355","stationCode":"KRD","name":"Kerkrade Centrum","coordinate":{"lat":50.8616676330566,"lng":6.05749988555908},"countryCode":"NL"}],"direction":"BOTH"},"consequence":{"section":{"stations":[{"uicCode":"8400307","stationCode":"HRL","name":"Heerlen","coordinate":{"lat":50.8908348083496,"lng":5.97499990463257},"countryCode":"NL"}],"direction":"ONE_WAY"},"description":"geen Arriva-treinen","level":"NO_OR_MUCH_LESS_TRAINS"},"sectionType":"NL"},{"section":{"stations":[{"uicCode":"8400307","stationCode":"HRL","name":"Heerlen","coordinate":{"lat":50.8908348083496,"lng":5.97499990463257},"countryCode":"NL"},{"uicCode":"8400548","stationCode":"LG","name":"Landgraaf","coordinate":{"lat":50.8963890075684,"lng":6.01916646957398},"countryCode":"NL"},{"uicCode":"8400234","stationCode":"EGHM","name":"Eygelshoven Markt","coordinate":{"lat":50.8960498196442,"lng":6.0602474212646396},"countryCode":"NL"},{"uicCode":"8015190","stationCode":"HZ","name":"Herzogenrath","coordinate":{"lat":50.870916,"lng":6.094486},"countryCode":"D"},{"uicCode":"8015345","stationCode":"AHBF","name":"Aachen Hbf","coordinate":{"lat":50.7678,"lng":6.091499},"countryCode":"D"}],"direction":"BOTH"},"consequence":{"section":{"stations":[{"uicCode":"8400307","stationCode":"HRL","name":"Heerlen","coordinate":{"lat":50.8908348083496,"lng":5.97499990463257},"countryCode":"NL"}],"direction":"ONE_WAY"},"description":"geen Arriva-treinen","level":"NO_OR_MUCH_LESS_TRAINS"},"sectionType":"NL"},{"section":{"stations":[{"uicCode":"8400564","stationCode":"STD","name":"Sittard","coordinate":{"lat":51.0016670227051,"lng":5.85861110687256},"countryCode":"NL"},{"uicCode":"8400246","stationCode":"GLN","name":"Geleen Oost","coordinate":{"lat":50.9669456481934,"lng":5.84305572509766},"countryCode":"NL"},{"uicCode":"8400572","stationCode":"SBK","name":"Spaubeek","coordinate":{"lat":50.94327,"lng":5.850529},"countryCode":"NL"},{"uicCode":"8400554","stationCode":"SN","name":"Schinnen","coordinate":{"lat":50.9391670227051,"lng":5.87444448471069},"countryCode":"NL"},{"uicCode":"8400467","stationCode":"NH","name":"Nuth","coordinate":{"lat":50.9194450378418,"lng":5.89277791976929},"countryCode":"NL"},{"uicCode":"8400326","stationCode":"HB","name":"Hoensbroek","coordinate":{"lat":50.9055557250977,"lng":5.93055534362793},"countryCode":"NL"},{"uicCode":"8400307","stationCode":"HRL","name":"Heerlen","coordinate":{"lat":50.8908348083496,"lng":5.97499990463257},"countryCode":"NL"}],"direction":"BOTH"},"consequence":{"section":{"stations":[{"uicCode":"8400307","stationCode":"HRL","name":"Heerlen","coordinate":{"lat":50.8908348083496,"lng":5.97499990463257},"countryCode":"NL"}],"direction":"ONE_WAY"},"description":"geen Arriva-treinen","level":"NO_OR_MUCH_LESS_TRAINS"},"sectionType":"NL"},{"section":{"stations":[{"uicCode":"8400307","stationCode":"HRL","name":"Heerlen","coordinate":{"lat":50.8908348083496,"lng":5.97499990463257},"countryCode":"NL"},{"uicCode":"8400404","stationCode":"HRLW","name":"Heerlen Woonboulevard","coordinate":{"lat":50.896667,"lng":5.952222},"countryCode":"NL"},{"uicCode":"8400656","stationCode":"VDL","name":"Voerendaal","coordinate":{"lat":50.8872222900391,"lng":5.93027782440186},"countryCode":"NL"},{"uicCode":"8400362","stationCode":"KMR","name":"Klimmen-Ransdaal","coordinate":{"lat":50.8663902282715,"lng":5.8905553817749},"countryCode":"NL"},{"uicCode":"8400555","stationCode":"SOG","name":"Schin op Geul","coordinate":{"lat":50.856388092041,"lng":5.87222242355347},"countryCode":"NL"},{"uicCode":"8400632","stationCode":"VK","name":"Valkenburg","coordinate":{"lat":50.8697204589844,"lng":5.83222198486328},"countryCode":"NL"},{"uicCode":"8400341","stationCode":"SGL","name":"Houthem-St. Gerlach","coordinate":{"lat":50.8733329772949,"lng":5.79722213745117},"countryCode":"NL"},{"uicCode":"8400434","stationCode":"MES","name":"Meerssen","coordinate":{"lat":50.882879392551,"lng":5.75099945068359},"countryCode":"NL"},{"uicCode":"8400449","stationCode":"MTN","name":"Maastricht Noord","coordinate":{"lat":50.87087,"lng":5.71774},"countryCode":"NL"},{"uicCode":"8400424","stationCode":"MT","name":"Maastricht","coordinate":{"lat":50.8502769470215,"lng":5.70555543899536},"countryCode":"NL"}],"direction":"BOTH"},"consequence":{"section":{"stations":[{"uicCode":"8400307","stationCode":"HRL","name":"Heerlen","coordinate":{"lat":50.8908348083496,"lng":5.97499990463257},"countryCode":"NL"}],"direction":"ONE_WAY"},"description":"geen Arriva-treinen","level":"NO_OR_MUCH_LESS_TRAINS"},"sectionType":"NL"}],"timespans":[{"start":"2023-03-09T20:36:46+0100","end":"2023-03-15T22:57:26+0100","situation":{"label":"Van en naar Heerlen rijden er geen Arriva-treinen door een staking."},"cause":{"label":"Staking"},"advices":[]}],"alternativeTransportTimespans":[]},{"id":"6022108","type":"DISRUPTION","registrationTime":"2023-03-15T20:27:33+0100","releaseTime":"2023-03-15T20:27:33+0100","local":false,"title":"Roermond-Maastricht-Maastricht Randwyck","titleSections":[[{"type":"STATION","value":"Roermond"},{"type":"ICON","value":"DISRUPTION"},{"type":"STATION","value":"Randwyck"}]],"topic":"disruption_6022108_nl","isActive":true,"start":"2023-03-09T20:36:46+0100","end":"2023-03-15T22:57:33+0100","phase":{"id":"2","label":"Impact bekend"},"impact":{"value":1},"expectedDuration":{"description":"Dit duurt de rest van de dag."},"publicationSections":[{"section":{"stations":[{"uicCode":"8400523","stationCode":"RM","name":"Roermond","coordinate":{"lat":51.1930541992188,"lng":5.9941668510437},"countryCode":"NL"},{"uicCode":"8400195","stationCode":"EC","name":"Echt","coordinate":{"lat":51.1005554199219,"lng":5.87888908386231},"countryCode":"NL"},{"uicCode":"8400582","stationCode":"SRN","name":"Susteren","coordinate":{"lat":51.0613899230957,"lng":5.86305570602417},"countryCode":"NL"},{"uicCode":"8400564","stationCode":"STD","name":"Sittard","coordinate":{"lat":51.0016670227051,"lng":5.85861110687256},"countryCode":"NL"},{"uicCode":"8400248","stationCode":"LUT","name":"Geleen-Lutterade","coordinate":{"lat":50.9755554199219,"lng":5.82472229003906},"countryCode":"NL"},{"uicCode":"8400096","stationCode":"BK","name":"Beek-Elsloo","coordinate":{"lat":50.9474983215332,"lng":5.78666687011719},"countryCode":"NL"},{"uicCode":"8400140","stationCode":"BDE","name":"Bunde","coordinate":{"lat":50.8969459533691,"lng":5.73666667938232},"countryCode":"NL"},{"uicCode":"8400424","stationCode":"MT","name":"Maastricht","coordinate":{"lat":50.8502769470215,"lng":5.70555543899536},"countryCode":"NL"},{"uicCode":"8400426","stationCode":"MTR","name":"Maastricht Randwyck","coordinate":{"lat":50.8386116027832,"lng":5.71722221374512},"countryCode":"NL"}],"direction":"BOTH"},"consequence":{"section":{"stations":[{"uicCode":"8400523","stationCode":"RM","name":"Roermond","coordinate":{"lat":51.1930541992188,"lng":5.9941668510437},"countryCode":"NL"},{"uicCode":"8400195","stationCode":"EC","name":"Echt","coordinate":{"lat":51.1005554199219,"lng":5.87888908386231},"countryCode":"NL"},{"uicCode":"8400582","stationCode":"SRN","name":"Susteren","coordinate":{"lat":51.0613899230957,"lng":5.86305570602417},"countryCode":"NL"},{"uicCode":"8400564","stationCode":"STD","name":"Sittard","coordinate":{"lat":51.0016670227051,"lng":5.85861110687256},"countryCode":"NL"},{"uicCode":"8400248","stationCode":"LUT","name":"Geleen-Lutterade","coordinate":{"lat":50.9755554199219,"lng":5.82472229003906},"countryCode":"NL"},{"uicCode":"8400096","stationCode":"BK","name":"Beek-Elsloo","coordinate":{"lat":50.9474983215332,"lng":5.78666687011719},"countryCode":"NL"},{"uicCode":"8400140","stationCode":"BDE","name":"Bunde","coordinate":{"lat":50.8969459533691,"lng":5.73666667938232},"countryCode":"NL"},{"uicCode":"8400424","stationCode":"MT","name":"Maastricht","coordinate":{"lat":50.8502769470215,"lng":5.70555543899536},"countryCode":"NL"},{"uicCode":"8400426","stationCode":"MTR","name":"Maastricht Randwyck","coordinate":{"lat":50.8386116027832,"lng":5.71722221374512},"countryCode":"NL"}],"direction":"ONE_WAY"},"description":"geen stoptreinen","level":"LESS_TRAINS"},"sectionType":"NL"}],"timespans":[{"start":"2023-03-09T20:36:46+0100","end":"2023-03-15T22:57:33+0100","situation":{"label":"Tussen Roermond en Maastricht Randwyck rijden er geen stoptreinen door een staking bij Arriva."},"cause":{"label":"Staking Arriva"},"advices":[]}],"alternativeTransportTimespans":[]},{"id":"6022107","type":"DISRUPTION","registrationTime":"2023-03-15T20:27:39+0100","releaseTime":"2023-03-15T20:27:39+0100","local":false,"title":"Nijmegen-Roermond","titleSections":[[{"type":"STATION","value":"Nijmegen"},{"type":"ICON","value":"DISRUPTION"},{"type":"STATION","value":"Roermond"}]],"topic":"disruption_6022107_nl","isActive":true,"start":"2023-03-09T20:36:46+0100","end":"2023-03-15T22:57:39+0100","phase":{"id":"2","label":"Impact bekend"},"impact":{"value":1},"expectedDuration":{"description":"Dit duurt de rest van de dag."},"publicationSections":[{"section":{"stations":[{"uicCode":"8400470","stationCode":"NM","name":"Nijmegen","coordinate":{"lat":51.8436126708984,"lng":5.85222244262695},"countryCode":"NL"},{"uicCode":"8400468","stationCode":"NMH","name":"Nijmegen Heyendaal","coordinate":{"lat":51.8269462585449,"lng":5.86749982833862},"countryCode":"NL"},{"uicCode":"8400446","stationCode":"MMLH","name":"Mook-Molenhoek","coordinate":{"lat":51.766262,"lng":5.879133},"countryCode":"NL"},{"uicCode":"8400155","stationCode":"CK","name":"Cuijk","coordinate":{"lat":51.7266825879048,"lng":5.87429523468017},"countryCode":"NL"},{"uicCode":"8400128","stationCode":"BMR","name":"Boxmeer","coordinate":{"lat":51.6445217676531,"lng":5.93903303146362},"countryCode":"NL"},{"uicCode":"8400647","stationCode":"VLB","name":"Vierlingsbeek","coordinate":{"lat":51.59193,"lng":5.99714},"countryCode":"NL"},{"uicCode":"8400646","stationCode":"VRY","name":"Venray","coordinate":{"lat":51.526568099007,"lng":6.01417779922485},"countryCode":"NL"},{"uicCode":"8400117","stationCode":"BR","name":"Blerick","coordinate":{"lat":51.372501373291,"lng":6.15500020980835},"countryCode":"NL"},{"uicCode":"8400644","stationCode":"VL","name":"Venlo","coordinate":{"lat":51.3636093139648,"lng":6.17277765274048},"countryCode":"NL"},{"uicCode":"8400591","stationCode":"TG","name":"Tegelen","coordinate":{"lat":51.33894,"lng":6.14253},"countryCode":"NL"},{"uicCode":"8400518","stationCode":"RV","name":"Reuver","coordinate":{"lat":51.2832191665301,"lng":6.07895851135253},"countryCode":"NL"},{"uicCode":"8400583","stationCode":"SM","name":"Swalmen","coordinate":{"lat":51.23582,"lng":6.03228},"countryCode":"NL"},{"uicCode":"8400523","stationCode":"RM","name":"Roermond","coordinate":{"lat":51.1930541992188,"lng":5.9941668510437},"countryCode":"NL"}],"direction":"BOTH"},"consequence":{"section":{"stations":[{"uicCode":"8400470","stationCode":"NM","name":"Nijmegen","coordinate":{"lat":51.8436126708984,"lng":5.85222244262695},"countryCode":"NL"},{"uicCode":"8400468","stationCode":"NMH","name":"Nijmegen Heyendaal","coordinate":{"lat":51.8269462585449,"lng":5.86749982833862},"countryCode":"NL"},{"uicCode":"8400446","stationCode":"MMLH","name":"Mook-Molenhoek","coordinate":{"lat":51.766262,"lng":5.879133},"countryCode":"NL"},{"uicCode":"8400155","stationCode":"CK","name":"Cuijk","coordinate":{"lat":51.7266825879048,"lng":5.87429523468017},"countryCode":"NL"},{"uicCode":"8400128","stationCode":"BMR","name":"Boxmeer","coordinate":{"lat":51.6445217676531,"lng":5.93903303146362},"countryCode":"NL"},{"uicCode":"8400647","stationCode":"VLB","name":"Vierlingsbeek","coordinate":{"lat":51.59193,"lng":5.99714},"countryCode":"NL"},{"uicCode":"8400646","stationCode":"VRY","name":"Venray","coordinate":{"lat":51.526568099007,"lng":6.01417779922485},"countryCode":"NL"},{"uicCode":"8400117","stationCode":"BR","name":"Blerick","coordinate":{"lat":51.372501373291,"lng":6.15500020980835},"countryCode":"NL"},{"uicCode":"8400644","stationCode":"VL","name":"Venlo","coordinate":{"lat":51.3636093139648,"lng":6.17277765274048},"countryCode":"NL"},{"uicCode":"8400591","stationCode":"TG","name":"Tegelen","coordinate":{"lat":51.33894,"lng":6.14253},"countryCode":"NL"},{"uicCode":"8400518","stationCode":"RV","name":"Reuver","coordinate":{"lat":51.2832191665301,"lng":6.07895851135253},"countryCode":"NL"},{"uicCode":"8400583","stationCode":"SM","name":"Swalmen","coordinate":{"lat":51.23582,"lng":6.03228},"countryCode":"NL"},{"uicCode":"8400523","stationCode":"RM","name":"Roermond","coordinate":{"lat":51.1930541992188,"lng":5.9941668510437},"countryCode":"NL"}],"direction":"ONE_WAY"},"description":"geen treinen","level":"NO_OR_MUCH_LESS_TRAINS"},"sectionType":"NL"}],"timespans":[{"start":"2023-03-09T20:36:46+0100","end":"2023-03-15T22:57:39+0100","situation":{"label":"Tussen Nijmegen en Roermond rijden er geen treinen door een staking bij Arriva."},"cause":{"label":"Staking Arriva"},"advices":[]}],"alternativeTransportTimespans":[]},{"id":"6022206","type":"DISRUPTION","registrationTime":"2023-03-14T22:12:02+0100","releaseTime":"2023-03-14T22:12:02+0100","local":false,"title":"Leeuwarden-Stavoren","titleSections":[[{"type":"STATION","value":"Leeuwarden"},{"type":"STATION","value":"Workum"},{"type":"ICON","value":"DISRUPTION"},{"type":"STATION","value":"Stavoren"}]],"topic":"disruption_6022206_nl","isActive":true,"start":"2023-03-13T16:02:35+0100","end":"2023-04-23T23:30:00+0200","phase":{"id":"3","label":"Vervangend vervoer"},"impact":{"value":3},"expectedDuration":{"description":"Dit duurt ten minste tot zondag 23 april 23:30 uur.","endTime":"2023-04-23T23:30:00+0200"},"summaryAdditionalTravelTime":{"label":"De extra reistijd is meer dan 60 minuten.","shortLabel":"Extra reistijd meer dan 60 min.","minimumDurationInMinutes":60},"publicationSections":[{"section":{"stations":[{"uicCode":"8400387","stationCode":"LW","name":"Leeuwarden","coordinate":{"lat":53.1958351135254,"lng":5.79222202301025},"countryCode":"NL"},{"uicCode":"8400427","stationCode":"MG","name":"Mantgum","coordinate":{"lat":53.1296368,"lng":5.7131996},"countryCode":"NL"},{"uicCode":"8400574","stationCode":"SKND","name":"Sneek Noord","coordinate":{"lat":53.0409319,"lng":5.6631808},"countryCode":"NL"},{"uicCode":"8400566","stationCode":"SK","name":"Sneek","coordinate":{"lat":53.0328688,"lng":5.6523969},"countryCode":"NL"},{"uicCode":"8400722","stationCode":"IJT","name":"IJlst","coordinate":{"lat":53.0146614,"lng":5.6160801},"countryCode":"NL"},{"uicCode":"8400706","stationCode":"WK","name":"Workum","coordinate":{"lat":52.9724864,"lng":5.4564285},"countryCode":"NL"},{"uicCode":"8400323","stationCode":"HNP","name":"Hindeloopen","coordinate":{"lat":52.9464903,"lng":5.423063},"countryCode":"NL"},{"uicCode":"8400366","stationCode":"KMW","name":"Koudum-Molkwerum","coordinate":{"lat":52.9028197,"lng":5.4106913},"countryCode":"NL"},{"uicCode":"8400575","stationCode":"STV","name":"Stavoren","coordinate":{"lat":52.8865535,"lng":5.3600212},"countryCode":"NL"}],"direction":"BOTH"},"consequence":{"section":{"stations":[{"uicCode":"8400706","stationCode":"WK","name":"Workum","coordinate":{"lat":52.9724864,"lng":5.4564285},"countryCode":"NL"},{"uicCode":"8400323","stationCode":"HNP","name":"Hindeloopen","coordinate":{"lat":52.9464903,"lng":5.423063},"countryCode":"NL"},{"uicCode":"8400366","stationCode":"KMW","name":"Koudum-Molkwerum","coordinate":{"lat":52.9028197,"lng":5.4106913},"countryCode":"NL"},{"uicCode":"8400575","stationCode":"STV","name":"Stavoren","coordinate":{"lat":52.8865535,"lng":5.3600212},"countryCode":"NL"}],"direction":"ONE_WAY"},"description":"geen treinen","level":"NO_OR_MUCH_LESS_TRAINS"},"sectionType":"NL"}],"timespans":[{"start":"2023-03-13T16:02:35+0100","end":"2023-04-23T23:30:00+0200","situation":{"label":"Tussen Workum en Stavoren rijden er geen treinen door een defect spoor."},"cause":{"label":"Defect spoor"},"additionalTravelTime":{"label":"De extra reistijd is meer dan 60 minuten.","shortLabel":"Extra reistijd meer dan 60 min.","minimumDurationInMinutes":60},"alternativeTransport":{"label":"Er rijden stopbussen.","shortLabel":"Er rijden stopbussen"},"advices":[]}],"alternativeTransportTimespans":[{"start":"2023-03-13T16:02:35+0100","end":"2023-04-23T23:30:00+0200","alternativeTransport":{"location":[{"station":{"uicCode":"8400706","stationCode":"WK","name":"Workum","coordinate":{"lat":52.9724864,"lng":5.4564285},"countryCode":"NL"},"description":"vanaf de bushalte"},{"station":{"uicCode":"8400323","stationCode":"HNP","name":"Hindeloopen","coordinate":{"lat":52.9464903,"lng":5.423063},"countryCode":"NL"},"description":"vanaf de doorgaande weg"},{"station":{"uicCode":"8400366","stationCode":"KMW","name":"Koudum-Molkwerum","coordinate":{"lat":52.9028197,"lng":5.4106913},"countryCode":"NL"},"description":"vanaf de doorgaande weg"},{"station":{"uicCode":"8400575","stationCode":"STV","name":"Stavoren","coordinate":{"lat":52.8865535,"lng":5.3600212},"countryCode":"NL"},"description":"vanaf de bushalte"}],"label":"Er rijden stopbussen tussen Workum, Hindeloopen, Koudum-Molkwerum en Stavoren.","shortLabel":"Er rijden stopbussen: Workum, Hindeloopen, Koudum-Molkwerum, Stavoren"}}]},{"id":"6022229","type":"DISRUPTION","registrationTime":"2023-03-15T20:26:58+0100","releaseTime":"2023-03-15T20:26:58+0100","local":false,"title":"Arnhem-Tiel","titleSections":[[{"type":"STATION","value":"Arnhem C."},{"type":"ICON","value":"DISRUPTION"},{"type":"STATION","value":"Tiel"}]],"topic":"disruption_6022229_nl","isActive":true,"start":"2023-03-14T01:31:42+0100","end":"2023-03-15T22:56:58+0100","phase":{"id":"2","label":"Impact bekend"},"impact":{"value":1},"expectedDuration":{"description":"Dit duurt de rest van de dag."},"publicationSections":[{"section":{"stations":[{"uicCode":"8400071","stationCode":"AH","name":"Arnhem Centraal","coordinate":{"lat":51.9850006103516,"lng":5.89916658401489},"countryCode":"NL"},{"uicCode":"8400227","stationCode":"AHZ","name":"Arnhem Zuid","coordinate":{"lat":51.9550018310547,"lng":5.85194444656372},"countryCode":"NL"},{"uicCode":"8400207","stationCode":"EST","name":"Elst","coordinate":{"lat":51.9169425964355,"lng":5.85500001907349},"countryCode":"NL"},{"uicCode":"8400734","stationCode":"ZA","name":"Zetten-Andelst","coordinate":{"lat":51.920056,"lng":5.7228408},"countryCode":"NL"},{"uicCode":"8400315","stationCode":"HMN","name":"Hemmen-Dodewaard","coordinate":{"lat":51.9222129,"lng":5.6737254},"countryCode":"NL"},{"uicCode":"8400494","stationCode":"OP","name":"Opheusden","coordinate":{"lat":51.9261615,"lng":5.6371145},"countryCode":"NL"},{"uicCode":"8400359","stationCode":"KTR","name":"Kesteren","coordinate":{"lat":51.9313869,"lng":5.5833465},"countryCode":"NL"},{"uicCode":"8400596","stationCode":"TL","name":"Tiel","coordinate":{"lat":51.8894462585449,"lng":5.42222213745117},"countryCode":"NL"}],"direction":"BOTH"},"consequence":{"section":{"stations":[{"uicCode":"8400071","stationCode":"AH","name":"Arnhem Centraal","coordinate":{"lat":51.9850006103516,"lng":5.89916658401489},"countryCode":"NL"},{"uicCode":"8400227","stationCode":"AHZ","name":"Arnhem Zuid","coordinate":{"lat":51.9550018310547,"lng":5.85194444656372},"countryCode":"NL"},{"uicCode":"8400207","stationCode":"EST","name":"Elst","coordinate":{"lat":51.9169425964355,"lng":5.85500001907349},"countryCode":"NL"},{"uicCode":"8400734","stationCode":"ZA","name":"Zetten-Andelst","coordinate":{"lat":51.920056,"lng":5.7228408},"countryCode":"NL"},{"uicCode":"8400315","stationCode":"HMN","name":"Hemmen-Dodewaard","coordinate":{"lat":51.9222129,"lng":5.6737254},"countryCode":"NL"},{"uicCode":"8400494","stationCode":"OP","name":"Opheusden","coordinate":{"lat":51.9261615,"lng":5.6371145},"countryCode":"NL"},{"uicCode":"8400359","stationCode":"KTR","name":"Kesteren","coordinate":{"lat":51.9313869,"lng":5.5833465},"countryCode":"NL"},{"uicCode":"8400596","stationCode":"TL","name":"Tiel","coordinate":{"lat":51.8894462585449,"lng":5.42222213745117},"countryCode":"NL"}],"direction":"ONE_WAY"},"description":"geen treinen","level":"NO_OR_MUCH_LESS_TRAINS"},"sectionType":"NL"}],"timespans":[{"start":"2023-03-14T01:31:42+0100","end":"2023-03-15T22:56:58+0100","situation":{"label":"Tussen Arnhem Centraal en Tiel rijden er geen treinen door een staking bij Arriva."},"cause":{"label":"Staking Arriva"},"advices":[]}],"alternativeTransportTimespans":[]},{"id":"6022228","type":"DISRUPTION","registrationTime":"2023-03-15T20:27:05+0100","releaseTime":"2023-03-15T20:27:05+0100","local":false,"title":"Arnhem-Doetinchem; Arnhem-Winterswijk","titleSections":[[{"type":"STATION","value":"Arnhem C."},{"type":"ICON","value":"DISRUPTION"},{"type":"STATION","value":"Doetinchem"}],[{"type":"STATION","value":"Arnhem C."},{"type":"STATION","value":"Doetinchem"},{"type":"ICON","value":"DISRUPTION"},{"type":"STATION","value":"Winterswijk"}]],"topic":"disruption_6022228_nl","isActive":true,"start":"2023-03-14T01:31:42+0100","end":"2023-03-15T22:57:05+0100","phase":{"id":"2","label":"Impact bekend"},"impact":{"value":1},"expectedDuration":{"description":"Dit duurt de rest van de dag."},"publicationSections":[{"section":{"stations":[{"uicCode":"8400071","stationCode":"AH","name":"Arnhem Centraal","coordinate":{"lat":51.9850006103516,"lng":5.89916658401489},"countryCode":"NL"},{"uicCode":"8400072","stationCode":"AHP","name":"Arnhem Velperpoort","coordinate":{"lat":51.985279083252,"lng":5.91944456100464},"countryCode":"NL"},{"uicCode":"8400688","stationCode":"WTV","name":"Westervoort","coordinate":{"lat":51.96286,"lng":5.9695},"countryCode":"NL"},{"uicCode":"8400193","stationCode":"DVN","name":"Duiven","coordinate":{"lat":51.9433326721191,"lng":6.01472234725952},"countryCode":"NL"},{"uicCode":"8400735","stationCode":"ZV","name":"Zevenaar","coordinate":{"lat":51.9230537414551,"lng":6.07194423675537},"countryCode":"NL"},{"uicCode":"8400174","stationCode":"DID","name":"Didam","coordinate":{"lat":51.933502,"lng":6.1324106},"countryCode":"NL"},{"uicCode":"8400686","stationCode":"WL","name":"Wehl","coordinate":{"lat":51.9578065,"lng":6.213844},"countryCode":"NL"},{"uicCode":"8400184","stationCode":"DTCH","name":"Doetinchem De Huet","coordinate":{"lat":51.9591413,"lng":6.2598521},"countryCode":"NL"},{"uicCode":"8400177","stationCode":"DTC","name":"Doetinchem","coordinate":{"lat":51.9585962,"lng":6.2962148},"countryCode":"NL"}],"direction":"BOTH"},"consequence":{"section":{"stations":[{"uicCode":"8400071","stationCode":"AH","name":"Arnhem Centraal","coordinate":{"lat":51.9850006103516,"lng":5.89916658401489},"countryCode":"NL"},{"uicCode":"8400072","stationCode":"AHP","name":"Arnhem Velperpoort","coordinate":{"lat":51.985279083252,"lng":5.91944456100464},"countryCode":"NL"},{"uicCode":"8400688","stationCode":"WTV","name":"Westervoort","coordinate":{"lat":51.96286,"lng":5.9695},"countryCode":"NL"},{"uicCode":"8400193","stationCode":"DVN","name":"Duiven","coordinate":{"lat":51.9433326721191,"lng":6.01472234725952},"countryCode":"NL"},{"uicCode":"8400735","stationCode":"ZV","name":"Zevenaar","coordinate":{"lat":51.9230537414551,"lng":6.07194423675537},"countryCode":"NL"},{"uicCode":"8400174","stationCode":"DID","name":"Didam","coordinate":{"lat":51.933502,"lng":6.1324106},"countryCode":"NL"},{"uicCode":"8400686","stationCode":"WL","name":"Wehl","coordinate":{"lat":51.9578065,"lng":6.213844},"countryCode":"NL"},{"uicCode":"8400184","stationCode":"DTCH","name":"Doetinchem De Huet","coordinate":{"lat":51.9591413,"lng":6.2598521},"countryCode":"NL"},{"uicCode":"8400177","stationCode":"DTC","name":"Doetinchem","coordinate":{"lat":51.9585962,"lng":6.2962148},"countryCode":"NL"}],"direction":"ONE_WAY"},"description":"veel minder treinen","level":"NO_OR_MUCH_LESS_TRAINS"},"sectionType":"NL"},{"section":{"stations":[{"uicCode":"8400071","stationCode":"AH","name":"Arnhem Centraal","coordinate":{"lat":51.9850006103516,"lng":5.89916658401489},"countryCode":"NL"},{"uicCode":"8400072","stationCode":"AHP","name":"Arnhem Velperpoort","coordinate":{"lat":51.985279083252,"lng":5.91944456100464},"countryCode":"NL"},{"uicCode":"8400688","stationCode":"WTV","name":"Westervoort","coordinate":{"lat":51.96286,"lng":5.9695},"countryCode":"NL"},{"uicCode":"8400193","stationCode":"DVN","name":"Duiven","coordinate":{"lat":51.9433326721191,"lng":6.01472234725952},"countryCode":"NL"},{"uicCode":"8400735","stationCode":"ZV","name":"Zevenaar","coordinate":{"lat":51.9230537414551,"lng":6.07194423675537},"countryCode":"NL"},{"uicCode":"8400174","stationCode":"DID","name":"Didam","coordinate":{"lat":51.933502,"lng":6.1324106},"countryCode":"NL"},{"uicCode":"8400686","stationCode":"WL","name":"Wehl","coordinate":{"lat":51.9578065,"lng":6.213844},"countryCode":"NL"},{"uicCode":"8400184","stationCode":"DTCH","name":"Doetinchem De Huet","coordinate":{"lat":51.9591413,"lng":6.2598521},"countryCode":"NL"},{"uicCode":"8400177","stationCode":"DTC","name":"Doetinchem","coordinate":{"lat":51.9585962,"lng":6.2962148},"countryCode":"NL"},{"uicCode":"8400241","stationCode":"GDR","name":"Gaanderen","coordinate":{"lat":51.93074,"lng":6.3486},"countryCode":"NL"},{"uicCode":"8400592","stationCode":"TBG","name":"Terborg","coordinate":{"lat":51.9224549,"lng":6.3642466},"countryCode":"NL"},{"uicCode":"8400635","stationCode":"VSV","name":"Varsseveld","coordinate":{"lat":51.937257,"lng":6.458839},"countryCode":"NL"},{"uicCode":"8400045","stationCode":"ATN","name":"Aalten","coordinate":{"lat":51.9213265245505,"lng":6.57862722873687},"countryCode":"NL"},{"uicCode":"8400698","stationCode":"WW","name":"Winterswijk","coordinate":{"lat":51.9677307,"lng":6.7155181},"countryCode":"NL"}],"direction":"BOTH"},"consequence":{"section":{"stations":[{"uicCode":"8400177","stationCode":"DTC","name":"Doetinchem","coordinate":{"lat":51.9585962,"lng":6.2962148},"countryCode":"NL"},{"uicCode":"8400241","stationCode":"GDR","name":"Gaanderen","coordinate":{"lat":51.93074,"lng":6.3486},"countryCode":"NL"},{"uicCode":"8400592","stationCode":"TBG","name":"Terborg","coordinate":{"lat":51.9224549,"lng":6.3642466},"countryCode":"NL"},{"uicCode":"8400635","stationCode":"VSV","name":"Varsseveld","coordinate":{"lat":51.937257,"lng":6.458839},"countryCode":"NL"},{"uicCode":"8400045","stationCode":"ATN","name":"Aalten","coordinate":{"lat":51.9213265245505,"lng":6.57862722873687},"countryCode":"NL"},{"uicCode":"8400698","stationCode":"WW","name":"Winterswijk","coordinate":{"lat":51.9677307,"lng":6.7155181},"countryCode":"NL"}],"direction":"ONE_WAY"},"description":"geen treinen","level":"NO_OR_MUCH_LESS_TRAINS"},"sectionType":"NL"}],"timespans":[{"start":"2023-03-14T01:31:42+0100","end":"2023-03-15T22:57:05+0100","situation":{"label":"Tussen Arnhem Centraal en Doetinchem rijden er veel minder treinen en tussen Doetinchem en Winterswijk rijden er geen treinen door een staking bij Arriva."},"cause":{"label":"Staking Arriva"},"advices":[]}],"alternativeTransportTimespans":[]},{"id":"6022227","type":"DISRUPTION","registrationTime":"2023-03-15T20:27:14+0100","releaseTime":"2023-03-15T20:27:14+0100","local":false,"title":"Apeldoorn-Zutphen","titleSections":[[{"type":"STATION","value":"Apeldoorn"},{"type":"ICON","value":"DISRUPTION"},{"type":"STATION","value":"Zutphen"}]],"topic":"disruption_6022227_nl","isActive":true,"start":"2023-03-14T01:31:42+0100","end":"2023-03-15T22:57:14+0100","phase":{"id":"2","label":"Impact bekend"},"impact":{"value":1},"expectedDuration":{"description":"Dit duurt de rest van de dag."},"publicationSections":[{"section":{"stations":[{"uicCode":"8400066","stationCode":"APD","name":"Apeldoorn","coordinate":{"lat":52.2091674804687,"lng":5.97027778625488},"countryCode":"NL"},{"uicCode":"8400233","stationCode":"APDM","name":"Apeldoorn De Maten","coordinate":{"lat":52.2052764892578,"lng":6.00055551528931},"countryCode":"NL"},{"uicCode":"8400361","stationCode":"KBK","name":"Klarenbeek","coordinate":{"lat":52.1780548095703,"lng":6.08361101150513},"countryCode":"NL"},{"uicCode":"8400668","stationCode":"VEM","name":"Voorst-Empe","coordinate":{"lat":52.1575012207031,"lng":6.14361095428467},"countryCode":"NL"},{"uicCode":"8400744","stationCode":"ZP","name":"Zutphen","coordinate":{"lat":52.1452789306641,"lng":6.19416666030884},"countryCode":"NL"}],"direction":"BOTH"},"consequence":{"section":{"stations":[{"uicCode":"8400066","stationCode":"APD","name":"Apeldoorn","coordinate":{"lat":52.2091674804687,"lng":5.97027778625488},"countryCode":"NL"},{"uicCode":"8400233","stationCode":"APDM","name":"Apeldoorn De Maten","coordinate":{"lat":52.2052764892578,"lng":6.00055551528931},"countryCode":"NL"},{"uicCode":"8400361","stationCode":"KBK","name":"Klarenbeek","coordinate":{"lat":52.1780548095703,"lng":6.08361101150513},"countryCode":"NL"},{"uicCode":"8400668","stationCode":"VEM","name":"Voorst-Empe","coordinate":{"lat":52.1575012207031,"lng":6.14361095428467},"countryCode":"NL"},{"uicCode":"8400744","stationCode":"ZP","name":"Zutphen","coordinate":{"lat":52.1452789306641,"lng":6.19416666030884},"countryCode":"NL"}],"direction":"ONE_WAY"},"description":"geen treinen","level":"NO_OR_MUCH_LESS_TRAINS"},"sectionType":"NL"}],"timespans":[{"start":"2023-03-14T01:31:42+0100","end":"2023-03-15T22:57:14+0100","situation":{"label":"Tussen Apeldoorn en Zutphen rijden er geen treinen door een staking bij Arriva."},"cause":{"label":"Staking Arriva"},"advices":[]}],"alternativeTransportTimespans":[]},{"id":"6022226","type":"DISRUPTION","registrationTime":"2023-03-15T20:27:21+0100","releaseTime":"2023-03-15T20:27:21+0100","local":false,"title":"Zutphen-Winterswijk","titleSections":[[{"type":"STATION","value":"Zutphen"},{"type":"ICON","value":"DISRUPTION"},{"type":"STATION","value":"Winterswijk"}]],"topic":"disruption_6022226_nl","isActive":true,"start":"2023-03-14T01:31:42+0100","end":"2023-03-15T22:57:21+0100","phase":{"id":"2","label":"Impact bekend"},"impact":{"value":1},"expectedDuration":{"description":"Dit duurt de rest van de dag."},"publicationSections":[{"section":{"stations":[{"uicCode":"8400744","stationCode":"ZP","name":"Zutphen","coordinate":{"lat":52.1452789306641,"lng":6.19416666030884},"countryCode":"NL"},{"uicCode":"8400661","stationCode":"VD","name":"Vorden","coordinate":{"lat":52.1071949,"lng":6.3170457},"countryCode":"NL"},{"uicCode":"8400537","stationCode":"RL","name":"Ruurlo","coordinate":{"lat":52.0810888,"lng":6.4492656},"countryCode":"NL"},{"uicCode":"8400395","stationCode":"LTV","name":"Lichtenvoorde-Groenlo","coordinate":{"lat":52.01188,"lng":6.59641},"countryCode":"NL"},{"uicCode":"8400700","stationCode":"WWW","name":"Winterswijk West","coordinate":{"lat":51.97453,"lng":6.70417},"countryCode":"NL"},{"uicCode":"8400698","stationCode":"WW","name":"Winterswijk","coordinate":{"lat":51.9677307,"lng":6.7155181},"countryCode":"NL"}],"direction":"BOTH"},"consequence":{"section":{"stations":[{"uicCode":"8400744","stationCode":"ZP","name":"Zutphen","coordinate":{"lat":52.1452789306641,"lng":6.19416666030884},"countryCode":"NL"},{"uicCode":"8400661","stationCode":"VD","name":"Vorden","coordinate":{"lat":52.1071949,"lng":6.3170457},"countryCode":"NL"},{"uicCode":"8400537","stationCode":"RL","name":"Ruurlo","coordinate":{"lat":52.0810888,"lng":6.4492656},"countryCode":"NL"},{"uicCode":"8400395","stationCode":"LTV","name":"Lichtenvoorde-Groenlo","coordinate":{"lat":52.01188,"lng":6.59641},"countryCode":"NL"},{"uicCode":"8400700","stationCode":"WWW","name":"Winterswijk West","coordinate":{"lat":51.97453,"lng":6.70417},"countryCode":"NL"},{"uicCode":"8400698","stationCode":"WW","name":"Winterswijk","coordinate":{"lat":51.9677307,"lng":6.7155181},"countryCode":"NL"}],"direction":"ONE_WAY"},"description":"geen treinen","level":"NO_OR_MUCH_LESS_TRAINS"},"sectionType":"NL"}],"timespans":[{"start":"2023-03-14T01:31:42+0100","end":"2023-03-15T22:57:21+0100","situation":{"label":"Tussen Zutphen en Winterswijk rijden er geen treinen door een staking bij Arriva."},"cause":{"label":"Staking Arriva"},"advices":[]}],"alternativeTransportTimespans":[]},{"id":"6022267","type":"DISRUPTION","registrationTime":"2023-03-15T20:26:45+0100","releaseTime":"2023-03-15T20:26:45+0100","local":false,"title":"Zwolle-Enschede","titleSections":[[{"type":"STATION","value":"Zwolle"},{"type":"ICON","value":"DISRUPTION"},{"type":"STATION","value":"Wierden"},{"type":"ICON","value":"DISRUPTION"},{"type":"STATION","value":"Enschede"}]],"topic":"disruption_6022267_nl","isActive":true,"start":"2023-03-15T04:53:40+0100","end":"2023-03-15T22:56:45+0100","phase":{"id":"2","label":"Impact bekend"},"impact":{"value":1},"expectedDuration":{"description":"Dit duurt de rest van de dag."},"publicationSections":[{"section":{"stations":[{"uicCode":"8400747","stationCode":"ZL","name":"Zwolle","coordinate":{"lat":52.5047225952148,"lng":6.09194421768188},"countryCode":"NL"},{"uicCode":"8400310","stationCode":"HNO","name":"Heino","coordinate":{"lat":52.4272232055664,"lng":6.22111129760742},"countryCode":"NL"},{"uicCode":"8400513","stationCode":"RAT","name":"Raalte","coordinate":{"lat":52.3916664123535,"lng":6.27750015258789},"countryCode":"NL"},{"uicCode":"8400472","stationCode":"NVD","name":"Nijverdal","coordinate":{"lat":52.366111,"lng":6.462},"countryCode":"NL"},{"uicCode":"8400691","stationCode":"WDN","name":"Wierden","coordinate":{"lat":52.3613891601562,"lng":6.59166669845581},"countryCode":"NL"},{"uicCode":"8400051","stationCode":"AML","name":"Almelo","coordinate":{"lat":52.3580551147461,"lng":6.65388870239258},"countryCode":"NL"},{"uicCode":"8400520","stationCode":"AMRI","name":"Almelo de Riet","coordinate":{"lat":52.3419456481934,"lng":6.66666650772095},"countryCode":"NL"},{"uicCode":"8400124","stationCode":"BN","name":"Borne","coordinate":{"lat":52.2988891601562,"lng":6.74805545806885},"countryCode":"NL"},{"uicCode":"8400316","stationCode":"HGL","name":"Hengelo","coordinate":{"lat":52.2616653442383,"lng":6.79388904571533},"countryCode":"NL"},{"uicCode":"8400221","stationCode":"ESK","name":"Enschede Kennispark","coordinate":{"lat":52.2374992370605,"lng":6.83888912200928},"countryCode":"NL"},{"uicCode":"8400212","stationCode":"ES","name":"Enschede","coordinate":{"lat":52.2224998474121,"lng":6.8899998664856},"countryCode":"NL"}],"direction":"BOTH"},"consequence":{"section":{"stations":[{"uicCode":"8400747","stationCode":"ZL","name":"Zwolle","coordinate":{"lat":52.5047225952148,"lng":6.09194421768188},"countryCode":"NL"},{"uicCode":"8400310","stationCode":"HNO","name":"Heino","coordinate":{"lat":52.4272232055664,"lng":6.22111129760742},"countryCode":"NL"},{"uicCode":"8400513","stationCode":"RAT","name":"Raalte","coordinate":{"lat":52.3916664123535,"lng":6.27750015258789},"countryCode":"NL"},{"uicCode":"8400472","stationCode":"NVD","name":"Nijverdal","coordinate":{"lat":52.366111,"lng":6.462},"countryCode":"NL"},{"uicCode":"8400691","stationCode":"WDN","name":"Wierden","coordinate":{"lat":52.3613891601562,"lng":6.59166669845581},"countryCode":"NL"}],"direction":"ONE_WAY"},"description":"geen treinen","level":"NO_OR_MUCH_LESS_TRAINS"},"sectionType":"NL"},{"section":{"stations":[{"uicCode":"8400747","stationCode":"ZL","name":"Zwolle","coordinate":{"lat":52.5047225952148,"lng":6.09194421768188},"countryCode":"NL"},{"uicCode":"8400310","stationCode":"HNO","name":"Heino","coordinate":{"lat":52.4272232055664,"lng":6.22111129760742},"countryCode":"NL"},{"uicCode":"8400513","stationCode":"RAT","name":"Raalte","coordinate":{"lat":52.3916664123535,"lng":6.27750015258789},"countryCode":"NL"},{"uicCode":"8400472","stationCode":"NVD","name":"Nijverdal","coordinate":{"lat":52.366111,"lng":6.462},"countryCode":"NL"},{"uicCode":"8400691","stationCode":"WDN","name":"Wierden","coordinate":{"lat":52.3613891601562,"lng":6.59166669845581},"countryCode":"NL"},{"uicCode":"8400051","stationCode":"AML","name":"Almelo","coordinate":{"lat":52.3580551147461,"lng":6.65388870239258},"countryCode":"NL"},{"uicCode":"8400520","stationCode":"AMRI","name":"Almelo de Riet","coordinate":{"lat":52.3419456481934,"lng":6.66666650772095},"countryCode":"NL"},{"uicCode":"8400124","stationCode":"BN","name":"Borne","coordinate":{"lat":52.2988891601562,"lng":6.74805545806885},"countryCode":"NL"},{"uicCode":"8400316","stationCode":"HGL","name":"Hengelo","coordinate":{"lat":52.2616653442383,"lng":6.79388904571533},"countryCode":"NL"},{"uicCode":"8400221","stationCode":"ESK","name":"Enschede Kennispark","coordinate":{"lat":52.2374992370605,"lng":6.83888912200928},"countryCode":"NL"},{"uicCode":"8400212","stationCode":"ES","name":"Enschede","coordinate":{"lat":52.2224998474121,"lng":6.8899998664856},"countryCode":"NL"}],"direction":"BOTH"},"consequence":{"section":{"stations":[{"uicCode":"8400691","stationCode":"WDN","name":"Wierden","coordinate":{"lat":52.3613891601562,"lng":6.59166669845581},"countryCode":"NL"},{"uicCode":"8400051","stationCode":"AML","name":"Almelo","coordinate":{"lat":52.3580551147461,"lng":6.65388870239258},"countryCode":"NL"},{"uicCode":"8400520","stationCode":"AMRI","name":"Almelo de Riet","coordinate":{"lat":52.3419456481934,"lng":6.66666650772095},"countryCode":"NL"},{"uicCode":"8400124","stationCode":"BN","name":"Borne","coordinate":{"lat":52.2988891601562,"lng":6.74805545806885},"countryCode":"NL"},{"uicCode":"8400316","stationCode":"HGL","name":"Hengelo","coordinate":{"lat":52.2616653442383,"lng":6.79388904571533},"countryCode":"NL"},{"uicCode":"8400221","stationCode":"ESK","name":"Enschede Kennispark","coordinate":{"lat":52.2374992370605,"lng":6.83888912200928},"countryCode":"NL"},{"uicCode":"8400212","stationCode":"ES","name":"Enschede","coordinate":{"lat":52.2224998474121,"lng":6.8899998664856},"countryCode":"NL"}],"direction":"ONE_WAY"},"description":"minder treinen","level":"LESS_TRAINS"},"sectionType":"NL"}],"timespans":[{"start":"2023-03-15T04:53:40+0100","end":"2023-03-15T22:56:45+0100","situation":{"label":"Tussen Zwolle en Wierden rijden er geen treinen en tussen Wierden en Enschede rijden er minder treinen door een staking bij Keolis."},"cause":{"label":"Staking Keolis"},"advices":[]}],"alternativeTransportTimespans":[]},{"id":"6022266","type":"DISRUPTION","registrationTime":"2023-03-15T20:26:51+0100","releaseTime":"2023-03-15T20:26:51+0100","local":false,"title":"Zwolle-Kampen","titleSections":[[{"type":"STATION","value":"Zwolle"},{"type":"ICON","value":"DISRUPTION"},{"type":"STATION","value":"Kampen"}]],"topic":"disruption_6022266_nl","isActive":true,"start":"2023-03-15T04:53:40+0100","end":"2023-03-15T22:56:51+0100","phase":{"id":"2","label":"Impact bekend"},"impact":{"value":1},"expectedDuration":{"description":"Dit duurt de rest van de dag."},"publicationSections":[{"section":{"stations":[{"uicCode":"8400747","stationCode":"ZL","name":"Zwolle","coordinate":{"lat":52.5047225952148,"lng":6.09194421768188},"countryCode":"NL"},{"uicCode":"8400746","stationCode":"ZLSH","name":"Zwolle Stadshagen","coordinate":{"lat":52.52764,"lng":6.05146},"countryCode":"NL"},{"uicCode":"8400353","stationCode":"KPN","name":"Kampen","coordinate":{"lat":52.5597229003906,"lng":5.92166662216186},"countryCode":"NL"}],"direction":"BOTH"},"consequence":{"section":{"stations":[{"uicCode":"8400747","stationCode":"ZL","name":"Zwolle","coordinate":{"lat":52.5047225952148,"lng":6.09194421768188},"countryCode":"NL"},{"uicCode":"8400746","stationCode":"ZLSH","name":"Zwolle Stadshagen","coordinate":{"lat":52.52764,"lng":6.05146},"countryCode":"NL"},{"uicCode":"8400353","stationCode":"KPN","name":"Kampen","coordinate":{"lat":52.5597229003906,"lng":5.92166662216186},"countryCode":"NL"}],"direction":"ONE_WAY"},"description":"geen treinen","level":"NO_OR_MUCH_LESS_TRAINS"},"sectionType":"NL"}],"timespans":[{"start":"2023-03-15T04:53:40+0100","end":"2023-03-15T22:56:51+0100","situation":{"label":"Tussen Zwolle en Kampen rijden er geen treinen door een staking bij Keolis."},"cause":{"label":"Staking Keolis"},"advices":[]}],"alternativeTransportTimespans":[]},{"id":"6022271","type":"DISRUPTION","registrationTime":"2023-03-15T20:26:34+0100","releaseTime":"2023-03-15T20:26:34+0100","local":false,"title":"Zutphen-Hengelo","titleSections":[[{"type":"STATION","value":"Zutphen"},{"type":"ICON","value":"DISRUPTION"},{"type":"STATION","value":"Hengelo"},{"type":"STATION","value":"Oldenzaal"}]],"topic":"disruption_6022271_nl","isActive":true,"start":"2023-03-15T05:49:28+0100","end":"2023-03-15T22:56:34+0100","phase":{"id":"2","label":"Impact bekend"},"impact":{"value":1},"expectedDuration":{"description":"Dit duurt de rest van de dag."},"publicationSections":[{"section":{"stations":[{"uicCode":"8400744","stationCode":"ZP","name":"Zutphen","coordinate":{"lat":52.1452789306641,"lng":6.19416666030884},"countryCode":"NL"},{"uicCode":"8400399","stationCode":"LC","name":"Lochem","coordinate":{"lat":52.1666679382324,"lng":6.42638874053955},"countryCode":"NL"},{"uicCode":"8400254","stationCode":"GO","name":"Goor","coordinate":{"lat":52.2302780151367,"lng":6.58444452285767},"countryCode":"NL"},{"uicCode":"8400169","stationCode":"DDN","name":"Delden","coordinate":{"lat":52.2599983215332,"lng":6.7161111831665},"countryCode":"NL"},{"uicCode":"8400433","stationCode":"HGLG","name":"Hengelo Gezondheidspark","coordinate":{"lat":52.261667,"lng":6.767778},"countryCode":"NL"},{"uicCode":"8400316","stationCode":"HGL","name":"Hengelo","coordinate":{"lat":52.2616653442383,"lng":6.79388904571533},"countryCode":"NL"},{"uicCode":"8400312","stationCode":"HGLO","name":"Hengelo Oost","coordinate":{"lat":52.2688903808594,"lng":6.81944465637207},"countryCode":"NL"},{"uicCode":"8400483","stationCode":"ODZ","name":"Oldenzaal","coordinate":{"lat":52.3063888549805,"lng":6.93472242355347},"countryCode":"NL"}],"direction":"BOTH"},"consequence":{"section":{"stations":[{"uicCode":"8400744","stationCode":"ZP","name":"Zutphen","coordinate":{"lat":52.1452789306641,"lng":6.19416666030884},"countryCode":"NL"},{"uicCode":"8400399","stationCode":"LC","name":"Lochem","coordinate":{"lat":52.1666679382324,"lng":6.42638874053955},"countryCode":"NL"},{"uicCode":"8400254","stationCode":"GO","name":"Goor","coordinate":{"lat":52.2302780151367,"lng":6.58444452285767},"countryCode":"NL"},{"uicCode":"8400169","stationCode":"DDN","name":"Delden","coordinate":{"lat":52.2599983215332,"lng":6.7161111831665},"countryCode":"NL"},{"uicCode":"8400433","stationCode":"HGLG","name":"Hengelo Gezondheidspark","coordinate":{"lat":52.261667,"lng":6.767778},"countryCode":"NL"},{"uicCode":"8400316","stationCode":"HGL","name":"Hengelo","coordinate":{"lat":52.2616653442383,"lng":6.79388904571533},"countryCode":"NL"}],"direction":"ONE_WAY"},"description":"geen treinen","level":"NO_OR_MUCH_LESS_TRAINS"},"sectionType":"NL"}],"timespans":[{"start":"2023-03-15T05:49:28+0100","end":"2023-03-15T22:56:34+0100","situation":{"label":"Tussen Zutphen en Hengelo rijden er geen treinen door een staking bij Keolis."},"cause":{"label":"Staking Keolis"},"advices":[]}],"alternativeTransportTimespans":[]},{"id":"6022281","type":"DISRUPTION","registrationTime":"2023-03-15T14:47:14+0100","releaseTime":"2023-03-15T14:47:14+0100","local":false,"title":"Amsterdam-Schiphol","titleSections":[[{"type":"STATION","value":"Amsterdam C."},{"type":"ICON","value":"DISRUPTION"},{"type":"STATION","value":"Schiphol Airport"}]],"topic":"disruption_6022281_nl","isActive":true,"start":"2023-03-15T12:37:48+0100","end":"2023-03-16T04:00:00+0100","phase":{"id":"2","label":"Impact bekend"},"impact":{"value":2},"expectedDuration":{"description":"De treinen rijden weer normaal rond donderdag 16 maart 04:00 uur.","endTime":"2023-03-16T04:00:00+0100"},"publicationSections":[{"section":{"stations":[{"uicCode":"8400058","stationCode":"ASD","name":"Amsterdam Centraal","coordinate":{"lat":52.3788871765137,"lng":4.90027761459351},"countryCode":"NL"},{"uicCode":"8400059","stationCode":"ASS","name":"Amsterdam Sloterdijk","coordinate":{"lat":52.3888893127441,"lng":4.83777761459351},"countryCode":"NL"},{"uicCode":"8400079","stationCode":"ASDL","name":"Amsterdam Lelylaan","coordinate":{"lat":52.3577766418457,"lng":4.83388900756836},"countryCode":"NL"},{"uicCode":"8400561","stationCode":"SHL","name":"Schiphol Airport","coordinate":{"lat":52.3094444274902,"lng":4.76194429397583},"countryCode":"NL"}],"direction":"BOTH"},"consequence":{"section":{"stations":[{"uicCode":"8400058","stationCode":"ASD","name":"Amsterdam Centraal","coordinate":{"lat":52.3788871765137,"lng":4.90027761459351},"countryCode":"NL"},{"uicCode":"8400059","stationCode":"ASS","name":"Amsterdam Sloterdijk","coordinate":{"lat":52.3888893127441,"lng":4.83777761459351},"countryCode":"NL"},{"uicCode":"8400079","stationCode":"ASDL","name":"Amsterdam Lelylaan","coordinate":{"lat":52.3577766418457,"lng":4.83388900756836},"countryCode":"NL"},{"uicCode":"8400561","stationCode":"SHL","name":"Schiphol Airport","coordinate":{"lat":52.3094444274902,"lng":4.76194429397583},"countryCode":"NL"}],"direction":"ONE_WAY"},"description":"later vandaag hinder in de treindienst","level":"NO_OR_MUCH_LESS_TRAINS"},"sectionType":"NL"}],"timespans":[{"start":"2023-03-15T12:37:48+0100","end":"2023-03-16T04:00:00+0100","situation":{"label":"Tussen Amsterdam Centraal en Schiphol Airport is er later vandaag hinder in de treindienst door herstelwerkzaamheden."},"cause":{"label":"Herstelwerkzaamheden"},"advices":["Van 01:45 tot 04:00 rijden er bussen in plaats van treinen."]}],"alternativeTransportTimespans":[]},{"id":"15d5d288-c2c8-4840-b55e-c2c5b3b4e433","title":"Komende tijd stakingen aangekondigd in het regionaal vervoer","topic":"disruption_15d5d288-c2c8-4840-b55e-c2c5b3b4e433_nl","description":"Tot en met 7 april zijn stakingen aangekondigd in het regionaal vervoer. Dit kan gevolgen hebben voor je reis. We raden je aan om de website van de vervoerder in de gaten te houden voor meer informatie. NS-treinen blijven volgens dienstregeling rijden.\r\n\r\nHet kan zijn dat de gevolgen voor de dienstregelingen pas op de dag zelf bekend worden. Plan je reis kort voor vertrek.","priority":"PRIO_3","lastUpdated":"2023-03-13T20:58:00+0100","bodyItems":[{"content":{"text":"<p><strong>Het gaat om de volgende data:</strong></p>\n\n<ul>\n <li>Woensdag 15 maart 2023</li>\n</ul>\n\n<ul>\n <li>Maandag 20 maart 2023</li>\n <li>Woensdag 22 maart 2023</li>\n <li>Vrijdag 24 maart 2023</li>\n</ul>\n\n<ul>\n <li>Woensdag 29 maart 2023</li>\n <li>Donderdag 30 maart 2023</li>\n</ul>\n\n<ul>\n <li>Maandag 3 april 2023</li>\n <li>Woensdag 5 april 2023</li>\n <li>Vrijdag&nbsp;7&nbsp;april&nbsp;2023</li>\n</ul>\n\n<p><a href=\"https://www.arriva.nl/a/staking.htm\" target=\"_blank\">Arriva</a><br />\n<a href=\"https://www.breng.nl/nl/nieuws/aangekondigde-stakingen-openbaar-vervoer\" target=\"_blank\">Breng</a><br />\n<a href=\"https://www.connexxion.nl/nl/nieuws/aangekondigde-stakingen-openbaar-vervoer\" target=\"_blank\">Connexxion</a><br />\n<a href=\"https://www.keolis.nl/staking\" target=\"_blank\">Keolis</a><br />\n<a href=\"https://www.qbuzz.nl/dmg/meer-qbuzz/nieuws/Y_NSthEAAB8A421K/aangekondigde-stakingen-openbaar-vervoer\" target=\"_blank\">Qbuzz</a></p>"},"type":"TEXT"}],"buttons":{"position":["BOTTOM"],"items":[]},"url":"https://www.ns.nl/reisinformatie/calamiteiten/komende-tijd-stakingen-aangekondigd-in-het-regionaal-vervoer.html","type":"CALAMITY","isActive":true},{"id":"f2a49669-1151-4992-b6f1-2bbdd245b3fd","title":"Van/naar/via Schiphol Airport, vrijdag 17 t/m maandag 20 maart","topic":"disruption_f2a49669-1151-4992-b6f1-2bbdd245b3fd_nl","description":"Door werkzaamheden is van vrijdag 17 t/m maandag 20 maart de dienstregeling aangepast van/naar/via Schiphol Airport. Plan je reis vooraf met de reisplanner.","priority":"PRIO_3","lastUpdated":"2023-03-14T07:43:00+0100","bodyItems":[],"buttons":{"position":["BOTTOM"],"items":[{"label":"Plan je reis","type":"PLANNER","accessibilityLabel":"Plan je reis","url":"https://www.ns.nl/reisplanner"},{"label":"Werk aan het spoor","type":"MAINTENANCE","accessibilityLabel":"Werk aan het spoor","url":"https://www.ns.nl/reisinformatie/werk-aan-het-spoor/"}]},"url":"https://www.ns.nl/reisinformatie/calamiteiten/van-naar-via-schiphol-airport-vrijdag-17-t-m-maandag-20-maart.html","type":"CALAMITY","isActive":true},{"id":"7003202","type":"MAINTENANCE","registrationTime":"2023-02-11T15:46:54+0100","releaseTime":"2023-02-11T15:46:54+0100","local":false,"title":"Amsterdam - KÃ¶ln - Basel SBB","titleSections":[[{"type":"STATION","value":"Amsterdam C."},{"type":"STATION","value":"Karlsruhe Hbf"},{"type":"ICON","value":"MAINTENANCE"},{"type":"STATION","value":"Basel SBB"}]],"isActive":true,"start":"2023-02-25T08:00:00+0100","end":"2023-03-17T09:05:00+0100","period":"Zaterdag 25-02-2023 08:00 uur t/m vrijdag 17-03-2023 09:05 uur.","impact":{"value":2},"publicationSections":[{"section":{"stations":[{"uicCode":"8400058","stationCode":"ASD","name":"Amsterdam Centraal","coordinate":{"lat":52.3788871765137,"lng":4.90027761459351},"countryCode":"NL"},{"uicCode":"8400060","stationCode":"ASDM","name":"Amsterdam Muiderpoort","coordinate":{"lat":52.3605537414551,"lng":4.93111133575439},"countryCode":"NL"},{"uicCode":"8400057","stationCode":"ASA","name":"Amsterdam Amstel","coordinate":{"lat":52.3466682434082,"lng":4.91777801513672},"countryCode":"NL"},{"uicCode":"8400194","stationCode":"DVD","name":"Duivendrecht","coordinate":{"lat":52.3233337402344,"lng":4.93638896942139},"countryCode":"NL"},{"uicCode":"8400074","stationCode":"ASB","name":"Amsterdam Bijlmer ArenA","coordinate":{"lat":52.3122215270996,"lng":4.94694423675537},"countryCode":"NL"},{"uicCode":"8400231","stationCode":"ASHD","name":"Amsterdam Holendrecht","coordinate":{"lat":52.29844,"lng":4.95972},"countryCode":"NL"},{"uicCode":"8400047","stationCode":"AC","name":"Abcoude","coordinate":{"lat":52.2785,"lng":4.977},"countryCode":"NL"},{"uicCode":"8400133","stationCode":"BKL","name":"Breukelen","coordinate":{"lat":52.17149,"lng":4.9906},"countryCode":"NL"},{"uicCode":"8400419","stationCode":"MAS","name":"Maarssen","coordinate":{"lat":52.1352767944336,"lng":5.03361129760742},"countryCode":"NL"},{"uicCode":"8400613","stationCode":"UTZL","name":"Utrecht Zuilen","coordinate":{"lat":52.103055,"lng":5.09},"countryCode":"NL"},{"uicCode":"8400621","stationCode":"UT","name":"Utrecht Centraal","coordinate":{"lat":52.0888900756836,"lng":5.11027765274048},"countryCode":"NL"},{"uicCode":"8400606","stationCode":"UTVR","name":"Utrecht Vaartsche Rijn","coordinate":{"lat":52.078889,"lng":5.121667},"countryCode":"NL"},{"uicCode":"8400141","stationCode":"BNK","name":"Bunnik","coordinate":{"lat":52.0630569458008,"lng":5.19444465637207},"countryCode":"NL"},{"uicCode":"8400182","stationCode":"DB","name":"Driebergen-Zeist","coordinate":{"lat":52.0652770996094,"lng":5.25861120223999},"countryCode":"NL"},{"uicCode":"8400417","stationCode":"MRN","name":"Maarn","coordinate":{"lat":52.0641670227051,"lng":5.36999988555908},"countryCode":"NL"},{"uicCode":"8400637","stationCode":"KLP","name":"Veenendaal-De Klomp","coordinate":{"lat":52.0458335876465,"lng":5.57388877868652},"countryCode":"NL"},{"uicCode":"8400200","stationCode":"ED","name":"Ede-Wageningen","coordinate":{"lat":52.0277786254883,"lng":5.67305564880371},"countryCode":"NL"},{"uicCode":"8400704","stationCode":"WF","name":"Wolfheze","coordinate":{"lat":52.0055541992188,"lng":5.7936110496521},"countryCode":"NL"},{"uicCode":"8400489","stationCode":"OTB","name":"Oosterbeek","coordinate":{"lat":51.9949989318848,"lng":5.84000015258789},"countryCode":"NL"},{"uicCode":"8400071","stationCode":"AH","name":"Arnhem Centraal","coordinate":{"lat":51.9850006103516,"lng":5.89916658401489},"countryCode":"NL"},{"uicCode":"8400072","stationCode":"AHP","name":"Arnhem Velperpoort","coordinate":{"lat":51.985279083252,"lng":5.91944456100464},"countryCode":"NL"},{"uicCode":"8400688","stationCode":"WTV","name":"Westervoort","coordinate":{"lat":51.96286,"lng":5.9695},"countryCode":"NL"},{"uicCode":"8400193","stationCode":"DVN","name":"Duiven","coordinate":{"lat":51.9433326721191,"lng":6.01472234725952},"countryCode":"NL"},{"uicCode":"8400735","stationCode":"ZV","name":"Zevenaar","coordinate":{"lat":51.9230537414551,"lng":6.07194423675537},"countryCode":"NL"},{"uicCode":"8033415","stationCode":"EL","name":"Emmerich-Elten","coordinate":{"lat":51.8743,"lng":6.15417},"countryCode":"D"},{"uicCode":"8010288","stationCode":"EM","name":"Emmerich","coordinate":{"lat":51.834283,"lng":6.255718},"countryCode":"D"},{"uicCode":"8010263","stationCode":"OBERH","name":"Oberhausen Hbf","coordinate":{"lat":51.47512,"lng":6.852038},"countryCode":"D"},{"uicCode":"8010316","stationCode":"DUISB","name":"Duisburg Hbf","coordinate":{"lat":51.4297785713316,"lng":6.77590370178222},"countryCode":"D"},{"uicCode":"8008094","stationCode":"DUSSEL","name":"DÃ¼sseldorf Hbf","coordinate":{"lat":51.220146,"lng":6.793137},"countryCode":"D"},{"uicCode":"8015561","stationCode":"KKD","name":"KÃ¶ln Messe/Deutz","coordinate":{"lat":50.940874,"lng":6.975001},"countryCode":"D"},{"uicCode":"8015458","stationCode":"KOLN","name":"KÃ¶ln Hbf","coordinate":{"lat":50.9432158,"lng":6.9589214},"countryCode":"D"},{"uicCode":"8015588","stationCode":"KSB","name":"Siegburg/Bonn","coordinate":{"lat":50.7939411,"lng":7.2030017},"countryCode":"D"},{"uicCode":"8019585","stationCode":"KMB","name":"Montabaur","coordinate":{"lat":50.444834,"lng":7.825333},"countryCode":"D"},{"uicCode":"8032572","stationCode":"FLB","name":"Limburg SÃ¼d","coordinate":{"lat":50.382498,"lng":8.096112},"countryCode":"D"},{"uicCode":"8061676","stationCode":"FNAF","name":"Frankfurt Flughafen Fernb","coordinate":{"lat":50.0531710299286,"lng":8.570237159729},"countryCode":"D"},{"uicCode":"8011068","stationCode":"FFFM","name":"Frankfurt (M) Hbf","coordinate":{"lat":50.1071222,"lng":8.6638338},"countryCode":"D"},{"uicCode":"8014008","stationCode":"MANNHE","name":"Mannheim Hbf","coordinate":{"lat":49.479354,"lng":8.468921},"countryCode":"D"},{"uicCode":"8014228","stationCode":"KARLSR","name":"Karlsruhe Hbf","coordinate":{"lat":48.9936223,"lng":8.400743},"countryCode":"D"},{"uicCode":"8014309","stationCode":"RO","name":"Offenburg","coordinate":{"lat":48.476475,"lng":7.946723},"countryCode":"D"},{"uicCode":"8014350","stationCode":"RF","name":"Freiburg (Breisgau) Hbf","coordinate":{"lat":47.99789,"lng":7.84134},"countryCode":"D"},{"uicCode":"8014431","stationCode":"BASELB","name":"Basel Bad Bf","coordinate":{"lat":47.56815,"lng":7.6073},"countryCode":"D"},{"uicCode":"8500010","stationCode":"BASELS","name":"Basel SBB","coordinate":{"lat":47.5474,"lng":7.58956},"countryCode":"CH"}],"direction":"ONE_WAY"},"consequence":{"section":{"stations":[{"uicCode":"8014228","stationCode":"KARLSR","name":"Karlsruhe Hbf","coordinate":{"lat":48.9936223,"lng":8.400743},"countryCode":"D"},{"uicCode":"8014309","stationCode":"RO","name":"Offenburg","coordinate":{"lat":48.476475,"lng":7.946723},"countryCode":"D"},{"uicCode":"8014350","stationCode":"RF","name":"Freiburg (Breisgau) Hbf","coordinate":{"lat":47.99789,"lng":7.84134},"countryCode":"D"},{"uicCode":"8014431","stationCode":"BASELB","name":"Basel Bad Bf","coordinate":{"lat":47.56815,"lng":7.6073},"countryCode":"D"},{"uicCode":"8500010","stationCode":"BASELS","name":"Basel SBB","coordinate":{"lat":47.5474,"lng":7.58956},"countryCode":"CH"}],"direction":"ONE_WAY"},"description":"aangepaste internationale dienstregeling","level":"LESS_TRAINS"},"sectionType":"NEIGHBORING_COUNTRY"}],"timespans":[{"start":"2023-03-16T08:00:00+0100","end":"2023-03-16T09:05:00+0100","period":"Donderdag 16-03-2023 08:00 uur t/m donderdag 16-03-2023 09:05 uur.","situation":{"label":"Door werkzaamheden: van Karlsruhe Hbf naar Basel SBB is de internationale dienstregeling aangepast."},"cause":{"label":"Werkzaamheden"},"additionalTravelTime":{"label":"U heeft geen langere reistijd.","shortLabel":"Geen extra reistijd"},"advices":["Dit kan gevolgen hebben voor uw reis. Plan uw reis in de (Internationale) app."]},{"start":"2023-03-17T08:00:00+0100","end":"2023-03-17T09:05:00+0100","period":"Vrijdag 17-03-2023 08:00 uur t/m vrijdag 17-03-2023 09:05 uur.","situation":{"label":"Door werkzaamheden: van Karlsruhe Hbf naar Basel SBB is de internationale dienstregeling aangepast."},"cause":{"label":"Werkzaamheden"},"additionalTravelTime":{"label":"U heeft geen langere reistijd.","shortLabel":"Geen extra reistijd"},"advices":["Dit kan gevolgen hebben voor uw reis. Plan uw reis in de (Internationale) app."]}],"alternativeTransportTimespans":[]},{"id":"7003283","type":"MAINTENANCE","registrationTime":"2023-02-13T12:02:50+0100","releaseTime":"2023-02-13T12:02:50+0100","local":false,"title":"Schiphol Airport","titleSections":[[{"type":"STATION","value":"Schiphol Airport"}]],"isActive":false,"start":"2023-03-17T04:00:00+0100","end":"2023-03-21T02:00:00+0100","period":"Vrijdag 17-03-2023 04:00 uur t/m dinsdag 21-03-2023 02:00 uur.","impact":{"value":4},"summaryAdditionalTravelTime":{"label":"U heeft geen langere reistijd.","shortLabel":"Geen extra reistijd"},"publicationSections":[{"section":{"stations":[{"uicCode":"8400561","stationCode":"SHL","name":"Schiphol Airport","coordinate":{"lat":52.3094444274902,"lng":4.76194429397583},"countryCode":"NL"},{"uicCode":"8400061","stationCode":"ASDZ","name":"Amsterdam Zuid","coordinate":{"lat":52.338889,"lng":4.872356},"countryCode":"NL"},{"uicCode":"8400056","stationCode":"RAI","name":"Amsterdam RAI","coordinate":{"lat":52.3372230529785,"lng":4.89027786254883},"countryCode":"NL"},{"uicCode":"8400194","stationCode":"DVD","name":"Duivendrecht","coordinate":{"lat":52.3233337402344,"lng":4.93638896942139},"countryCode":"NL"},{"uicCode":"8400163","stationCode":"DMNZ","name":"Diemen Zuid","coordinate":{"lat":52.3302764892578,"lng":4.95583343505859},"countryCode":"NL"},{"uicCode":"8400685","stationCode":"WP","name":"Weesp","coordinate":{"lat":52.3127784729004,"lng":5.04305553436279},"countryCode":"NL"},{"uicCode":"8400452","stationCode":"NDB","name":"Naarden-Bussum","coordinate":{"lat":52.2802772521973,"lng":5.15694427490234},"countryCode":"NL"},{"uicCode":"8400145","stationCode":"BSMZ","name":"Bussum Zuid","coordinate":{"lat":52.2658348083496,"lng":5.16305541992188},"countryCode":"NL"},{"uicCode":"8400324","stationCode":"HVSM","name":"Hilversum Media Park","coordinate":{"lat":52.2380561828613,"lng":5.17388868331909},"countryCode":"NL"},{"uicCode":"8400322","stationCode":"HVS","name":"Hilversum","coordinate":{"lat":52.2258338928223,"lng":5.18194437026978},"countryCode":"NL"},{"uicCode":"8400086","stationCode":"BRN","name":"Baarn","coordinate":{"lat":52.2083320617676,"lng":5.28083324432373},"countryCode":"NL"},{"uicCode":"8400055","stationCode":"AMF","name":"Amersfoort Centraal","coordinate":{"lat":52.1538887023926,"lng":5.37055540084839},"countryCode":"NL"}],"direction":"BOTH"},"consequence":{"section":{"stations":[{"uicCode":"8400561","stationCode":"SHL","name":"Schiphol Airport","coordinate":{"lat":52.3094444274902,"lng":4.76194429397583},"countryCode":"NL"}],"direction":"ONE_WAY"},"description":"dienstregeling aangepast","level":"LESS_TRAINS"},"sectionType":"NL"},{"section":{"stations":[{"uicCode":"8400058","stationCode":"ASD","name":"Amsterdam Centraal","coordinate":{"lat":52.3788871765137,"lng":4.90027761459351},"countryCode":"NL"},{"uicCode":"8400059","stationCode":"ASS","name":"Amsterdam Sloterdijk","coordinate":{"lat":52.3888893127441,"lng":4.83777761459351},"countryCode":"NL"},{"uicCode":"8400079","stationCode":"ASDL","name":"Amsterdam Lelylaan","coordinate":{"lat":52.3577766418457,"lng":4.83388900756836},"countryCode":"NL"},{"uicCode":"8400561","stationCode":"SHL","name":"Schiphol Airport","coordinate":{"lat":52.3094444274902,"lng":4.76194429397583},"countryCode":"NL"},{"uicCode":"8400332","stationCode":"HFD","name":"Hoofddorp","coordinate":{"lat":52.2933349609375,"lng":4.70055532455444},"countryCode":"NL"},{"uicCode":"8400460","stationCode":"NVP","name":"Nieuw Vennep","coordinate":{"lat":52.2588882446289,"lng":4.64555549621582},"countryCode":"NL"},{"uicCode":"8400603","stationCode":"SSH","name":"Sassenheim","coordinate":{"lat":52.215278,"lng":4.517222},"countryCode":"NL"},{"uicCode":"8400390","stationCode":"LEDN","name":"Leiden Centraal","coordinate":{"lat":52.1661109924316,"lng":4.48166656494141},"countryCode":"NL"}],"direction":"BOTH"},"consequence":{"section":{"stations":[{"uicCode":"8400561","stationCode":"SHL","name":"Schiphol Airport","coordinate":{"lat":52.3094444274902,"lng":4.76194429397583},"countryCode":"NL"}],"direction":"ONE_WAY"},"description":"dienstregeling aangepast","level":"LESS_TRAINS"},"sectionType":"NL"},{"section":{"stations":[{"uicCode":"8400390","stationCode":"LEDN","name":"Leiden Centraal","coordinate":{"lat":52.1661109924316,"lng":4.48166656494141},"countryCode":"NL"},{"uicCode":"8400603","stationCode":"SSH","name":"Sassenheim","coordinate":{"lat":52.215278,"lng":4.517222},"countryCode":"NL"},{"uicCode":"8400460","stationCode":"NVP","name":"Nieuw Vennep","coordinate":{"lat":52.2588882446289,"lng":4.64555549621582},"countryCode":"NL"},{"uicCode":"8400332","stationCode":"HFD","name":"Hoofddorp","coordinate":{"lat":52.2933349609375,"lng":4.70055532455444},"countryCode":"NL"},{"uicCode":"8400561","stationCode":"SHL","name":"Schiphol Airport","coordinate":{"lat":52.3094444274902,"lng":4.76194429397583},"countryCode":"NL"},{"uicCode":"8400079","stationCode":"ASDL","name":"Amsterdam Lelylaan","coordinate":{"lat":52.3577766418457,"lng":4.83388900756836},"countryCode":"NL"},{"uicCode":"8400059","stationCode":"ASS","name":"Amsterdam Sloterdijk","coordinate":{"lat":52.3888893127441,"lng":4.83777761459351},"countryCode":"NL"},{"uicCode":"8400731","stationCode":"ZD","name":"Zaandam","coordinate":{"lat":52.4388885498047,"lng":4.81361103057861},"countryCode":"NL"}],"direction":"BOTH"},"consequence":{"section":{"stations":[{"uicCode":"8400561","stationCode":"SHL","name":"Schiphol Airport","coordinate":{"lat":52.3094444274902,"lng":4.76194429397583},"countryCode":"NL"}],"direction":"ONE_WAY"},"description":"dienstregeling aangepast","level":"LESS_TRAINS"},"sectionType":"NL"}],"timespans":[{"start":"2023-03-17T04:00:00+0100","end":"2023-03-21T02:00:00+0100","period":"Vrijdag 17-03-2023 04:00 uur t/m dinsdag 21-03-2023 02:00 uur.","situation":{"label":"Door werkzaamheden: van, via en naar Schiphol Airport is de dienstregeling aangepast."},"cause":{"label":"Werkzaamheden"},"additionalTravelTime":{"label":"U heeft geen langere reistijd.","shortLabel":"Geen extra reistijd"},"advices":[]}],"alternativeTransportTimespans":[]},{"id":"7003320","type":"MAINTENANCE","registrationTime":"2023-02-20T09:15:59+0100","releaseTime":"2023-02-20T09:15:59+0100","local":false,"title":"Amsterdam - Rotterdam - Brussel (HSL)","titleSections":[[{"type":"STATION","value":"Amsterdam C."},{"type":"ICON","value":"MAINTENANCE"},{"type":"STATION","value":"Rotterdam C."},{"type":"STATION","value":"Brussel-Z. Midi"}]],"isActive":false,"start":"2023-03-17T04:00:00+0100","end":"2023-03-21T02:00:00+0100","period":"Vrijdag 17-03-2023 04:00 uur t/m dinsdag 21-03-2023 02:00 uur.","impact":{"value":2},"summaryAdditionalTravelTime":{"label":"U heeft geen langere reistijd.","shortLabel":"Geen extra reistijd"},"publicationSections":[{"section":{"stations":[{"uicCode":"8400058","stationCode":"ASD","name":"Amsterdam Centraal","coordinate":{"lat":52.3788871765137,"lng":4.90027761459351},"countryCode":"NL"},{"uicCode":"8400059","stationCode":"ASS","name":"Amsterdam Sloterdijk","coordinate":{"lat":52.3888893127441,"lng":4.83777761459351},"countryCode":"NL"},{"uicCode":"8400079","stationCode":"ASDL","name":"Amsterdam Lelylaan","coordinate":{"lat":52.3577766418457,"lng":4.83388900756836},"countryCode":"NL"},{"uicCode":"8400561","stationCode":"SHL","name":"Schiphol Airport","coordinate":{"lat":52.3094444274902,"lng":4.76194429397583},"countryCode":"NL"},{"uicCode":"8400332","stationCode":"HFD","name":"Hoofddorp","coordinate":{"lat":52.2933349609375,"lng":4.70055532455444},"countryCode":"NL"},{"uicCode":"8400530","stationCode":"RTD","name":"Rotterdam Centraal","coordinate":{"lat":51.9249992370605,"lng":4.46888875961304},"countryCode":"NL"},{"uicCode":"8400529","stationCode":"RTB","name":"Rotterdam Blaak","coordinate":{"lat":51.9202766418457,"lng":4.48888874053955},"countryCode":"NL"},{"uicCode":"8400533","stationCode":"RTZ","name":"Rotterdam Zuid","coordinate":{"lat":51.9044456481934,"lng":4.51027774810791},"countryCode":"NL"},{"uicCode":"8400542","stationCode":"RLB","name":"Rotterdam Lombardijen","coordinate":{"lat":51.8800010681152,"lng":4.53138875961304},"countryCode":"NL"},{"uicCode":"8400132","stationCode":"BDPB","name":"Breda-Prinsenbeek","coordinate":{"lat":51.606388092041,"lng":4.72083330154419},"countryCode":"NL"},{"uicCode":"8400131","stationCode":"BD","name":"Breda","coordinate":{"lat":51.5955543518066,"lng":4.78000020980835},"countryCode":"NL"},{"uicCode":"8821105","stationCode":"NDKP","name":"Noorderkempen","coordinate":{"lat":51.358088,"lng":4.633977},"countryCode":"B"},{"uicCode":"8821063","stationCode":"ATWLB","name":"Antwerpen-Luchtbal","coordinate":{"lat":51.2449375,"lng":4.4251543},"countryCode":"B"},{"uicCode":"8821006","stationCode":"ATW","name":"Antwerpen-Centraal","coordinate":{"lat":51.21686,"lng":4.421242},"countryCode":"B"},{"uicCode":"8821121","stationCode":"BERCH","name":"Antwerpen-Berchem","coordinate":{"lat":51.198914,"lng":4.4332},"countryCode":"B"},{"uicCode":"8822004","stationCode":"MECH","name":"Mechelen","coordinate":{"lat":51.01758,"lng":4.48313},"countryCode":"B"},{"uicCode":"8812005","stationCode":"BRUSN","name":"Brussel-Noord","coordinate":{"lat":50.859658,"lng":4.360854},"countryCode":"B"},{"uicCode":"8813003","stationCode":"BRUSC","name":"Brussel-Centraal","coordinate":{"lat":50.845175,"lng":4.357131},"countryCode":"B"},{"uicCode":"8814001","stationCode":"BRUSZ","name":"Brussel-Zuid Midi","coordinate":{"lat":50.836782,"lng":4.336922},"countryCode":"B"}],"direction":"BOTH"},"consequence":{"section":{"stations":[{"uicCode":"8400058","stationCode":"ASD","name":"Amsterdam Centraal","coordinate":{"lat":52.3788871765137,"lng":4.90027761459351},"countryCode":"NL"},{"uicCode":"8400059","stationCode":"ASS","name":"Amsterdam Sloterdijk","coordinate":{"lat":52.3888893127441,"lng":4.83777761459351},"countryCode":"NL"},{"uicCode":"8400079","stationCode":"ASDL","name":"Amsterdam Lelylaan","coordinate":{"lat":52.3577766418457,"lng":4.83388900756836},"countryCode":"NL"},{"uicCode":"8400561","stationCode":"SHL","name":"Schiphol Airport","coordinate":{"lat":52.3094444274902,"lng":4.76194429397583},"countryCode":"NL"},{"uicCode":"8400332","stationCode":"HFD","name":"Hoofddorp","coordinate":{"lat":52.2933349609375,"lng":4.70055532455444},"countryCode":"NL"},{"uicCode":"8400530","stationCode":"RTD","name":"Rotterdam Centraal","coordinate":{"lat":51.9249992370605,"lng":4.46888875961304},"countryCode":"NL"}],"direction":"ONE_WAY"},"description":"aangepaste internationale dienstregeling","level":"LESS_TRAINS"},"sectionType":"HSL"}],"timespans":[{"start":"2023-03-17T04:00:00+0100","end":"2023-03-21T02:00:00+0100","period":"Vrijdag 17-03-2023 04:00 uur t/m dinsdag 21-03-2023 02:00 uur.","situation":{"label":"Door werkzaamheden: tussen Amsterdam Centraal en Rotterdam Centraal is de internationale dienstregeling aangepast."},"cause":{"label":"Werkzaamheden"},"additionalTravelTime":{"label":"U heeft geen langere reistijd.","shortLabel":"Geen extra reistijd"},"advices":[]}],"alternativeTransportTimespans":[]},{"id":"7003306","type":"MAINTENANCE","registrationTime":"2023-02-24T09:34:56+0100","releaseTime":"2023-02-24T09:34:56+0100","local":false,"title":"Haarlem - Alkmaar; Haarlem - Zandvoort","titleSections":[[{"type":"STATION","value":"Haarlem"},{"type":"ICON","value":"MAINTENANCE"},{"type":"STATION","value":"Zandvoort"}],[{"type":"STATION","value":"Haarlem"},{"type":"ICON","value":"MAINTENANCE"},{"type":"STATION","value":"Santpoort Noord"},{"type":"STATION","value":"Alkmaar"}]],"isActive":false,"start":"2023-03-18T01:05:00+0100","end":"2023-03-20T02:00:00+0100","period":"Zaterdag 18-03-2023 01:05 uur t/m maandag 20-03-2023 02:00 uur.","impact":{"value":4},"summaryAdditionalTravelTime":{"label":"De extra reistijd kan oplopen tot 30 minuten.","shortLabel":"Extra reistijd tot 30 min.","maximumDurationInMinutes":30},"publicationSections":[{"section":{"stations":[{"uicCode":"8400285","stationCode":"HLM","name":"Haarlem","coordinate":{"lat":52.3877792358398,"lng":4.63833332061768},"countryCode":"NL"},{"uicCode":"8400501","stationCode":"OVN","name":"Overveen","coordinate":{"lat":52.3911094665527,"lng":4.6061110496521},"countryCode":"NL"},{"uicCode":"8400733","stationCode":"ZVT","name":"Zandvoort aan Zee","coordinate":{"lat":52.3752784729004,"lng":4.53277778625488},"countryCode":"NL"}],"direction":"BOTH"},"consequence":{"section":{"stations":[{"uicCode":"8400285","stationCode":"HLM","name":"Haarlem","coordinate":{"lat":52.3877792358398,"lng":4.63833332061768},"countryCode":"NL"},{"uicCode":"8400501","stationCode":"OVN","name":"Overveen","coordinate":{"lat":52.3911094665527,"lng":4.6061110496521},"countryCode":"NL"},{"uicCode":"8400733","stationCode":"ZVT","name":"Zandvoort aan Zee","coordinate":{"lat":52.3752784729004,"lng":4.53277778625488},"countryCode":"NL"}],"direction":"ONE_WAY"},"description":"rijden bussen","level":"LESS_TRAINS"},"sectionType":"NL"},{"section":{"stations":[{"uicCode":"8400285","stationCode":"HLM","name":"Haarlem","coordinate":{"lat":52.3877792358398,"lng":4.63833332061768},"countryCode":"NL"},{"uicCode":"8400118","stationCode":"BLL","name":"Bloemendaal","coordinate":{"lat":52.404167175293,"lng":4.62750005722046},"countryCode":"NL"},{"uicCode":"8400544","stationCode":"SPTZ","name":"Santpoort Zuid","coordinate":{"lat":52.4197235107422,"lng":4.63138866424561},"countryCode":"NL"},{"uicCode":"8400543","stationCode":"SPTN","name":"Santpoort Noord","coordinate":{"lat":52.4338874816895,"lng":4.63250017166138},"countryCode":"NL"},{"uicCode":"8400183","stationCode":"DRH","name":"Driehuis","coordinate":{"lat":52.4425010681152,"lng":4.63805532455444},"countryCode":"NL"},{"uicCode":"8400113","stationCode":"BV","name":"Beverwijk","coordinate":{"lat":52.4783325195313,"lng":4.65666675567627},"countryCode":"NL"},{"uicCode":"8400317","stationCode":"HK","name":"Heemskerk","coordinate":{"lat":52.4952774047852,"lng":4.68694448471069},"countryCode":"NL"},{"uicCode":"8400615","stationCode":"UTG","name":"Uitgeest","coordinate":{"lat":52.5216674804687,"lng":4.70166683197022},"countryCode":"NL"},{"uicCode":"8400151","stationCode":"CAS","name":"Castricum","coordinate":{"lat":52.5458335876465,"lng":4.65861129760742},"countryCode":"NL"},{"uicCode":"8400309","stationCode":"HLO","name":"Heiloo","coordinate":{"lat":52.5994453430176,"lng":4.70055532455444},"countryCode":"NL"},{"uicCode":"8400050","stationCode":"AMR","name":"Alkmaar","coordinate":{"lat":52.6377792358398,"lng":4.73972225189209},"countryCode":"NL"}],"direction":"BOTH"},"consequence":{"section":{"stations":[{"uicCode":"8400285","stationCode":"HLM","name":"Haarlem","coordinate":{"lat":52.3877792358398,"lng":4.63833332061768},"countryCode":"NL"},{"uicCode":"8400118","stationCode":"BLL","name":"Bloemendaal","coordinate":{"lat":52.404167175293,"lng":4.62750005722046},"countryCode":"NL"},{"uicCode":"8400544","stationCode":"SPTZ","name":"Santpoort Zuid","coordinate":{"lat":52.4197235107422,"lng":4.63138866424561},"countryCode":"NL"},{"uicCode":"8400543","stationCode":"SPTN","name":"Santpoort Noord","coordinate":{"lat":52.4338874816895,"lng":4.63250017166138},"countryCode":"NL"}],"direction":"ONE_WAY"},"description":"rijden bussen","level":"LESS_TRAINS"},"sectionType":"NL"}],"timespans":[{"start":"2023-03-18T01:05:00+0100","end":"2023-03-20T02:00:00+0100","period":"Zaterdag 18-03-2023 01:05 uur t/m maandag 20-03-2023 02:00 uur.","situation":{"label":"Door werkzaamheden: tussen Haarlem en Zandvoort aan Zee rijden er bussen en tussen Haarlem en Santpoort Noord rijden er bussen."},"cause":{"label":"Werkzaamheden"},"additionalTravelTime":{"label":"De extra reistijd kan oplopen tot 30 minuten.","shortLabel":"Extra reistijd tot 30 min.","maximumDurationInMinutes":30},"alternativeTransport":{"label":"Er rijden bussen.","shortLabel":"er rijden bussen"},"advices":[]}],"alternativeTransportTimespans":[{"start":"2023-03-18T01:05:00+0100","end":"2023-03-20T02:00:00+0100","alternativeTransport":{"location":[{"station":{"uicCode":"8400543","stationCode":"SPTN","name":"Santpoort Noord","coordinate":{"lat":52.4338874816895,"lng":4.63250017166138},"countryCode":"NL"},"description":"vanaf de voorzijde van het station"},{"station":{"uicCode":"8400544","stationCode":"SPTZ","name":"Santpoort Zuid","coordinate":{"lat":52.4197235107422,"lng":4.63138866424561},"countryCode":"NL"},"description":"vanaf de voorzijde van het station"},{"station":{"uicCode":"8400118","stationCode":"BLL","name":"Bloemendaal","coordinate":{"lat":52.404167175293,"lng":4.62750005722046},"countryCode":"NL"},"description":"vanaf de voorzijde van het station"},{"station":{"uicCode":"8400285","stationCode":"HLM","name":"Haarlem","coordinate":{"lat":52.3877792358398,"lng":4.63833332061768},"countryCode":"NL"},"description":"vanaf het Kennemerplein"},{"station":{"uicCode":"8400501","stationCode":"OVN","name":"Overveen","coordinate":{"lat":52.3911094665527,"lng":4.6061110496521},"countryCode":"NL"},"description":"vanaf de voorzijde van het station"},{"station":{"uicCode":"8400733","stationCode":"ZVT","name":"Zandvoort aan Zee","coordinate":{"lat":52.3752784729004,"lng":4.53277778625488},"countryCode":"NL"},"description":"vanaf de voorzijde van het station"}],"label":"Er rijden bussen tussen Santpoort Noord, Santpoort Zuid, Bloemendaal, Haarlem, Overveen en Zandvoort aan Zee.","shortLabel":"Er rijden bussen Santpoort Noord - Santpoort Zuid - Bloemendaal - Haarlem - Overveen - Zandvoort"}}]},{"id":"7003314","type":"MAINTENANCE","registrationTime":"2023-02-17T10:10:20+0100","releaseTime":"2023-02-17T10:10:20+0100","local":false,"title":"Utrecht - Nijmegen","titleSections":[[{"type":"STATION","value":"Utrecht C."},{"type":"ICON","value":"MAINTENANCE"},{"type":"STATION","value":"Nijmegen"}]],"isActive":false,"start":"2023-03-18T01:15:00+0100","end":"2023-03-18T04:00:00+0100","period":"Zaterdag 18-03-2023 01:15 uur t/m zaterdag 18-03-2023 04:00 uur.","impact":{"value":2},"summaryAdditionalTravelTime":{"label":"De extra reistijd kan oplopen tot 60 minuten.","shortLabel":"Extra reistijd tot 60 min.","maximumDurationInMinutes":60},"publicationSections":[{"section":{"stations":[{"uicCode":"8400621","stationCode":"UT","name":"Utrecht Centraal","coordinate":{"lat":52.0888900756836,"lng":5.11027765274048},"countryCode":"NL"},{"uicCode":"8400606","stationCode":"UTVR","name":"Utrecht Vaartsche Rijn","coordinate":{"lat":52.078889,"lng":5.121667},"countryCode":"NL"},{"uicCode":"8400141","stationCode":"BNK","name":"Bunnik","coordinate":{"lat":52.0630569458008,"lng":5.19444465637207},"countryCode":"NL"},{"uicCode":"8400182","stationCode":"DB","name":"Driebergen-Zeist","coordinate":{"lat":52.0652770996094,"lng":5.25861120223999},"countryCode":"NL"},{"uicCode":"8400417","stationCode":"MRN","name":"Maarn","coordinate":{"lat":52.0641670227051,"lng":5.36999988555908},"countryCode":"NL"},{"uicCode":"8400637","stationCode":"KLP","name":"Veenendaal-De Klomp","coordinate":{"lat":52.0458335876465,"lng":5.57388877868652},"countryCode":"NL"},{"uicCode":"8400200","stationCode":"ED","name":"Ede-Wageningen","coordinate":{"lat":52.0277786254883,"lng":5.67305564880371},"countryCode":"NL"},{"uicCode":"8400704","stationCode":"WF","name":"Wolfheze","coordinate":{"lat":52.0055541992188,"lng":5.7936110496521},"countryCode":"NL"},{"uicCode":"8400489","stationCode":"OTB","name":"Oosterbeek","coordinate":{"lat":51.9949989318848,"lng":5.84000015258789},"countryCode":"NL"},{"uicCode":"8400071","stationCode":"AH","name":"Arnhem Centraal","coordinate":{"lat":51.9850006103516,"lng":5.89916658401489},"countryCode":"NL"},{"uicCode":"8400227","stationCode":"AHZ","name":"Arnhem Zuid","coordinate":{"lat":51.9550018310547,"lng":5.85194444656372},"countryCode":"NL"},{"uicCode":"8400207","stationCode":"EST","name":"Elst","coordinate":{"lat":51.9169425964355,"lng":5.85500001907349},"countryCode":"NL"},{"uicCode":"8400451","stationCode":"NML","name":"Nijmegen Lent","coordinate":{"lat":51.863154,"lng":5.859625},"countryCode":"NL"},{"uicCode":"8400470","stationCode":"NM","name":"Nijmegen","coordinate":{"lat":51.8436126708984,"lng":5.85222244262695},"countryCode":"NL"}],"direction":"BOTH"},"consequence":{"section":{"stations":[{"uicCode":"8400621","stationCode":"UT","name":"Utrecht Centraal","coordinate":{"lat":52.0888900756836,"lng":5.11027765274048},"countryCode":"NL"},{"uicCode":"8400606","stationCode":"UTVR","name":"Utrecht Vaartsche Rijn","coordinate":{"lat":52.078889,"lng":5.121667},"countryCode":"NL"},{"uicCode":"8400141","stationCode":"BNK","name":"Bunnik","coordinate":{"lat":52.0630569458008,"lng":5.19444465637207},"countryCode":"NL"},{"uicCode":"8400182","stationCode":"DB","name":"Driebergen-Zeist","coordinate":{"lat":52.0652770996094,"lng":5.25861120223999},"countryCode":"NL"},{"uicCode":"8400417","stationCode":"MRN","name":"Maarn","coordinate":{"lat":52.0641670227051,"lng":5.36999988555908},"countryCode":"NL"},{"uicCode":"8400637","stationCode":"KLP","name":"Veenendaal-De Klomp","coordinate":{"lat":52.0458335876465,"lng":5.57388877868652},"countryCode":"NL"},{"uicCode":"8400200","stationCode":"ED","name":"Ede-Wageningen","coordinate":{"lat":52.0277786254883,"lng":5.67305564880371},"countryCode":"NL"},{"uicCode":"8400704","stationCode":"WF","name":"Wolfheze","coordinate":{"lat":52.0055541992188,"lng":5.7936110496521},"countryCode":"NL"},{"uicCode":"8400489","stationCode":"OTB","name":"Oosterbeek","coordinate":{"lat":51.9949989318848,"lng":5.84000015258789},"countryCode":"NL"},{"uicCode":"8400071","stationCode":"AH","name":"Arnhem Centraal","coordinate":{"lat":51.9850006103516,"lng":5.89916658401489},"countryCode":"NL"},{"uicCode":"8400227","stationCode":"AHZ","name":"Arnhem Zuid","coordinate":{"lat":51.9550018310547,"lng":5.85194444656372},"countryCode":"NL"},{"uicCode":"8400207","stationCode":"EST","name":"Elst","coordinate":{"lat":51.9169425964355,"lng":5.85500001907349},"countryCode":"NL"},{"uicCode":"8400451","stationCode":"NML","name":"Nijmegen Lent","coordinate":{"lat":51.863154,"lng":5.859625},"countryCode":"NL"},{"uicCode":"8400470","stationCode":"NM","name":"Nijmegen","coordinate":{"lat":51.8436126708984,"lng":5.85222244262695},"countryCode":"NL"}],"direction":"ONE_WAY"},"description":"rijden bussen","level":"NO_OR_MUCH_LESS_TRAINS"},"sectionType":"NL"}],"timespans":[{"start":"2023-03-18T01:15:00+0100","end":"2023-03-18T04:00:00+0100","period":"Zaterdag 18-03-2023 01:15 uur t/m zaterdag 18-03-2023 04:00 uur.","situation":{"label":"Door werkzaamheden: tussen Utrecht Centraal en Nijmegen rijden er bussen."},"cause":{"label":"Werkzaamheden"},"additionalTravelTime":{"label":"De extra reistijd kan oplopen tot 60 minuten.","shortLabel":"Extra reistijd tot 60 min.","maximumDurationInMinutes":60},"alternativeTransport":{"label":"Er rijden bussen.","shortLabel":"er rijden bussen"},"advices":[]}],"alternativeTransportTimespans":[{"start":"2023-03-18T01:15:00+0100","end":"2023-03-18T02:50:00+0100","alternativeTransport":{"location":[{"station":{"uicCode":"8400071","stationCode":"AH","name":"Arnhem Centraal","coordinate":{"lat":51.9850006103516,"lng":5.89916658401489},"countryCode":"NL"},"description":"vanaf de bus-terminal"},{"station":{"uicCode":"8400200","stationCode":"ED","name":"Ede-Wageningen","coordinate":{"lat":52.0277786254883,"lng":5.67305564880371},"countryCode":"NL"},"description":"vanaf het Noordplein"},{"station":{"uicCode":"8400637","stationCode":"KLP","name":"Veenendaal-De Klomp","coordinate":{"lat":52.0458335876465,"lng":5.57388877868652},"countryCode":"NL"},"description":"vanaf het busstation"},{"station":{"uicCode":"8400182","stationCode":"DB","name":"Driebergen-Zeist","coordinate":{"lat":52.0652770996094,"lng":5.25861120223999},"countryCode":"NL"},"description":"vanaf het busstation"},{"station":{"uicCode":"8400621","stationCode":"UT","name":"Utrecht Centraal","coordinate":{"lat":52.0888900756836,"lng":5.11027765274048},"countryCode":"NL"},"description":"vanaf de Jaarbeurszijde"}],"label":"Er rijden bussen van Arnhem Centraal, Ede-Wageningen, Veenendaal-De Klomp, Driebergen-Zeist naar Utrecht Centraal.","shortLabel":"Er rijden bussen Arnhem C. -> Ede-Wageningen -> De Klomp -> Driebergen-Zeist -> Utrecht C."}},{"start":"2023-03-18T01:20:00+0100","end":"2023-03-18T03:00:00+0100","alternativeTransport":{"location":[{"station":{"uicCode":"8400071","stationCode":"AH","name":"Arnhem Centraal","coordinate":{"lat":51.9850006103516,"lng":5.89916658401489},"countryCode":"NL"},"description":"vanaf de bus-terminal"},{"station":{"uicCode":"8400207","stationCode":"EST","name":"Elst","coordinate":{"lat":51.9169425964355,"lng":5.85500001907349},"countryCode":"NL"},"description":"vanaf de voorzijde van het station"},{"station":{"uicCode":"8400470","stationCode":"NM","name":"Nijmegen","coordinate":{"lat":51.8436126708984,"lng":5.85222244262695},"countryCode":"NL"},"description":"vanaf het busstation"}],"label":"Er rijden bussen van Arnhem Centraal, Elst naar Nijmegen.","shortLabel":"Er rijden bussen Arnhem C. -> Elst -> Nijmegen"}},{"start":"2023-03-18T01:35:00+0100","end":"2023-03-18T04:00:00+0100","alternativeTransport":{"location":[{"station":{"uicCode":"8400621","stationCode":"UT","name":"Utrecht Centraal","coordinate":{"lat":52.0888900756836,"lng":5.11027765274048},"countryCode":"NL"},"description":"vanaf de Jaarbeurszijde"},{"station":{"uicCode":"8400182","stationCode":"DB","name":"Driebergen-Zeist","coordinate":{"lat":52.0652770996094,"lng":5.25861120223999},"countryCode":"NL"},"description":"vanaf het busstation"},{"station":{"uicCode":"8400637","stationCode":"KLP","name":"Veenendaal-De Klomp","coordinate":{"lat":52.0458335876465,"lng":5.57388877868652},"countryCode":"NL"},"description":"vanaf het busstation"},{"station":{"uicCode":"8400200","stationCode":"ED","name":"Ede-Wageningen","coordinate":{"lat":52.0277786254883,"lng":5.67305564880371},"countryCode":"NL"},"description":"vanaf het Noordplein"},{"station":{"uicCode":"8400071","stationCode":"AH","name":"Arnhem Centraal","coordinate":{"lat":51.9850006103516,"lng":5.89916658401489},"countryCode":"NL"},"description":"vanaf de bus-terminal"},{"station":{"uicCode":"8400207","stationCode":"EST","name":"Elst","coordinate":{"lat":51.9169425964355,"lng":5.85500001907349},"countryCode":"NL"},"description":"vanaf de voorzijde van het station"},{"station":{"uicCode":"8400470","stationCode":"NM","name":"Nijmegen","coordinate":{"lat":51.8436126708984,"lng":5.85222244262695},"countryCode":"NL"},"description":"vanaf het busstation"}],"label":"Er rijden bussen tussen Utrecht Centraal, Driebergen-Zeist, Veenendaal-De Klomp, Ede-Wageningen, Arnhem Centraal, Elst en Nijmegen.","shortLabel":"Er rijden bussen Utrecht C. - Driebergen-Zeist - De Klomp - Ede-Wageningen - Arnhem C. - Elst - Nijmegen"}}]},{"id":"7003295","type":"MAINTENANCE","registrationTime":"2023-02-16T13:03:38+0100","releaseTime":"2023-02-16T13:03:38+0100","local":false,"title":"Amsterdam - Schiphol - Rotterdam (HSL)","titleSections":[[{"type":"STATION","value":"Amsterdam C."},{"type":"ICON","value":"MAINTENANCE"},{"type":"STATION","value":"Rotterdam C."}]],"isActive":false,"start":"2023-03-18T04:00:00+0100","end":"2023-03-20T02:00:00+0100","period":"Zaterdag 18-03-2023 04:00 uur t/m maandag 20-03-2023 02:00 uur.","impact":{"value":2},"summaryAdditionalTravelTime":{"label":"De extra reistijd is ongeveer 15 minuten.","shortLabel":"Extra reistijd 15 min.","minimumDurationInMinutes":15,"maximumDurationInMinutes":15},"publicationSections":[{"section":{"stations":[{"uicCode":"8400058","stationCode":"ASD","name":"Amsterdam Centraal","coordinate":{"lat":52.3788871765137,"lng":4.90027761459351},"countryCode":"NL"},{"uicCode":"8400059","stationCode":"ASS","name":"Amsterdam Sloterdijk","coordinate":{"lat":52.3888893127441,"lng":4.83777761459351},"countryCode":"NL"},{"uicCode":"8400079","stationCode":"ASDL","name":"Amsterdam Lelylaan","coordinate":{"lat":52.3577766418457,"lng":4.83388900756836},"countryCode":"NL"},{"uicCode":"8400561","stationCode":"SHL","name":"Schiphol Airport","coordinate":{"lat":52.3094444274902,"lng":4.76194429397583},"countryCode":"NL"},{"uicCode":"8400332","stationCode":"HFD","name":"Hoofddorp","coordinate":{"lat":52.2933349609375,"lng":4.70055532455444},"countryCode":"NL"},{"uicCode":"8400530","stationCode":"RTD","name":"Rotterdam Centraal","coordinate":{"lat":51.9249992370605,"lng":4.46888875961304},"countryCode":"NL"}],"direction":"BOTH"},"consequence":{"section":{"stations":[{"uicCode":"8400058","stationCode":"ASD","name":"Amsterdam Centraal","coordinate":{"lat":52.3788871765137,"lng":4.90027761459351},"countryCode":"NL"},{"uicCode":"8400059","stationCode":"ASS","name":"Amsterdam Sloterdijk","coordinate":{"lat":52.3888893127441,"lng":4.83777761459351},"countryCode":"NL"},{"uicCode":"8400079","stationCode":"ASDL","name":"Amsterdam Lelylaan","coordinate":{"lat":52.3577766418457,"lng":4.83388900756836},"countryCode":"NL"},{"uicCode":"8400561","stationCode":"SHL","name":"Schiphol Airport","coordinate":{"lat":52.3094444274902,"lng":4.76194429397583},"countryCode":"NL"},{"uicCode":"8400332","stationCode":"HFD","name":"Hoofddorp","coordinate":{"lat":52.2933349609375,"lng":4.70055532455444},"countryCode":"NL"},{"uicCode":"8400530","stationCode":"RTD","name":"Rotterdam Centraal","coordinate":{"lat":51.9249992370605,"lng":4.46888875961304},"countryCode":"NL"}],"direction":"ONE_WAY"},"description":"geen treinen op de HSL","level":"LESS_TRAINS"},"sectionType":"HSL"}],"timespans":[{"start":"2023-03-18T04:00:00+0100","end":"2023-03-20T02:00:00+0100","period":"Zaterdag 18-03-2023 04:00 uur t/m maandag 20-03-2023 02:00 uur.","situation":{"label":"Door werkzaamheden aan de Hogesnelheidslijn: tussen Amsterdam Centraal en Rotterdam Centraal rijden er op de hogesnelheidslijn geen treinen."},"cause":{"label":"Werkzaamheden HSL"},"additionalTravelTime":{"label":"De extra reistijd is ongeveer 15 minuten.","shortLabel":"Extra reistijd 15 min.","minimumDurationInMinutes":15,"maximumDurationInMinutes":15},"advices":["Tussen Schiphol Airport en Rotterdam C. reist u via Leiden C."]}],"alternativeTransportTimespans":[]},{"id":"7003319","type":"MAINTENANCE","registrationTime":"2023-03-10T10:08:58+0100","releaseTime":"2023-03-10T10:08:58+0100","local":false,"title":"Amsterdam - Brussel - Paris (HSL)","titleSections":[[{"type":"STATION","value":"Amsterdam C."},{"type":"ICON","value":"MAINTENANCE"},{"type":"STATION","value":"Rotterdam C."},{"type":"STATION","value":"Paris-Nord"}]],"isActive":false,"start":"2023-03-18T04:00:00+0100","end":"2023-03-20T02:00:00+0100","period":"Zaterdag 18-03-2023 04:00 uur t/m maandag 20-03-2023 02:00 uur.","impact":{"value":2},"summaryAdditionalTravelTime":{"label":"De extra reistijd kan oplopen tot 30 minuten.","shortLabel":"Extra reistijd tot 30 min.","maximumDurationInMinutes":30},"publicationSections":[{"section":{"stations":[{"uicCode":"8400058","stationCode":"ASD","name":"Amsterdam Centraal","coordinate":{"lat":52.3788871765137,"lng":4.90027761459351},"countryCode":"NL"},{"uicCode":"8400059","stationCode":"ASS","name":"Amsterdam Sloterdijk","coordinate":{"lat":52.3888893127441,"lng":4.83777761459351},"countryCode":"NL"},{"uicCode":"8400079","stationCode":"ASDL","name":"Amsterdam Lelylaan","coordinate":{"lat":52.3577766418457,"lng":4.83388900756836},"countryCode":"NL"},{"uicCode":"8400561","stationCode":"SHL","name":"Schiphol Airport","coordinate":{"lat":52.3094444274902,"lng":4.76194429397583},"countryCode":"NL"},{"uicCode":"8400332","stationCode":"HFD","name":"Hoofddorp","coordinate":{"lat":52.2933349609375,"lng":4.70055532455444},"countryCode":"NL"},{"uicCode":"8400530","stationCode":"RTD","name":"Rotterdam Centraal","coordinate":{"lat":51.9249992370605,"lng":4.46888875961304},"countryCode":"NL"},{"uicCode":"8400529","stationCode":"RTB","name":"Rotterdam Blaak","coordinate":{"lat":51.9202766418457,"lng":4.48888874053955},"countryCode":"NL"},{"uicCode":"8400533","stationCode":"RTZ","name":"Rotterdam Zuid","coordinate":{"lat":51.9044456481934,"lng":4.51027774810791},"countryCode":"NL"},{"uicCode":"8400542","stationCode":"RLB","name":"Rotterdam Lombardijen","coordinate":{"lat":51.8800010681152,"lng":4.53138875961304},"countryCode":"NL"},{"uicCode":"8821105","stationCode":"NDKP","name":"Noorderkempen","coordinate":{"lat":51.358088,"lng":4.633977},"countryCode":"B"},{"uicCode":"8821063","stationCode":"ATWLB","name":"Antwerpen-Luchtbal","coordinate":{"lat":51.2449375,"lng":4.4251543},"countryCode":"B"},{"uicCode":"8821006","stationCode":"ATW","name":"Antwerpen-Centraal","coordinate":{"lat":51.21686,"lng":4.421242},"countryCode":"B"},{"uicCode":"8821121","stationCode":"BERCH","name":"Antwerpen-Berchem","coordinate":{"lat":51.198914,"lng":4.4332},"countryCode":"B"},{"uicCode":"8822004","stationCode":"MECH","name":"Mechelen","coordinate":{"lat":51.01758,"lng":4.48313},"countryCode":"B"},{"uicCode":"8812005","stationCode":"BRUSN","name":"Brussel-Noord","coordinate":{"lat":50.859658,"lng":4.360854},"countryCode":"B"},{"uicCode":"8813003","stationCode":"BRUSC","name":"Brussel-Centraal","coordinate":{"lat":50.845175,"lng":4.357131},"countryCode":"B"},{"uicCode":"8814001","stationCode":"BRUSZ","name":"Brussel-Zuid Midi","coordinate":{"lat":50.836782,"lng":4.336922},"countryCode":"B"},{"uicCode":"8727100","stationCode":"PARIS","name":"Paris-Nord","coordinate":{"lat":48.87977,"lng":2.35575},"countryCode":"F"}],"direction":"BOTH"},"consequence":{"section":{"stations":[{"uicCode":"8400058","stationCode":"ASD","name":"Amsterdam Centraal","coordinate":{"lat":52.3788871765137,"lng":4.90027761459351},"countryCode":"NL"},{"uicCode":"8400059","stationCode":"ASS","name":"Amsterdam Sloterdijk","coordinate":{"lat":52.3888893127441,"lng":4.83777761459351},"countryCode":"NL"},{"uicCode":"8400079","stationCode":"ASDL","name":"Amsterdam Lelylaan","coordinate":{"lat":52.3577766418457,"lng":4.83388900756836},"countryCode":"NL"},{"uicCode":"8400561","stationCode":"SHL","name":"Schiphol Airport","coordinate":{"lat":52.3094444274902,"lng":4.76194429397583},"countryCode":"NL"},{"uicCode":"8400332","stationCode":"HFD","name":"Hoofddorp","coordinate":{"lat":52.2933349609375,"lng":4.70055532455444},"countryCode":"NL"},{"uicCode":"8400530","stationCode":"RTD","name":"Rotterdam Centraal","coordinate":{"lat":51.9249992370605,"lng":4.46888875961304},"countryCode":"NL"}],"direction":"ONE_WAY"},"description":"aangepaste internationale dienstregeling","level":"LESS_TRAINS"},"sectionType":"HSL"}],"timespans":[{"start":"2023-03-18T04:00:00+0100","end":"2023-03-20T02:00:00+0100","period":"Zaterdag 18-03-2023 04:00 uur t/m maandag 20-03-2023 02:00 uur.","situation":{"label":"Door werkzaamheden: tussen Amsterdam Centraal en Rotterdam Centraal is de internationale dienstregeling aangepast."},"cause":{"label":"Werkzaamheden"},"additionalTravelTime":{"label":"De extra reistijd kan oplopen tot 30 minuten.","shortLabel":"Extra reistijd tot 30 min.","maximumDurationInMinutes":30},"advices":[]}],"alternativeTransportTimespans":[]},{"id":"7003379","type":"MAINTENANCE","registrationTime":"2023-03-10T11:13:29+0100","releaseTime":"2023-03-10T11:13:29+0100","local":false,"title":"Amsterdam - Brussel - London (HSL)","titleSections":[[{"type":"STATION","value":"Amsterdam C."},{"type":"ICON","value":"MAINTENANCE"},{"type":"STATION","value":"London St. P Int"}]],"isActive":false,"start":"2023-03-18T06:00:00+0100","end":"2023-03-19T23:00:00+0100","period":"Zaterdag 18-03-2023 06:00 uur t/m zondag 19-03-2023 23:00 uur.","impact":{"value":2},"publicationSections":[{"section":{"stations":[{"uicCode":"8400058","stationCode":"ASD","name":"Amsterdam Centraal","coordinate":{"lat":52.3788871765137,"lng":4.90027761459351},"countryCode":"NL"},{"uicCode":"8400059","stationCode":"ASS","name":"Amsterdam Sloterdijk","coordinate":{"lat":52.3888893127441,"lng":4.83777761459351},"countryCode":"NL"},{"uicCode":"8400079","stationCode":"ASDL","name":"Amsterdam Lelylaan","coordinate":{"lat":52.3577766418457,"lng":4.83388900756836},"countryCode":"NL"},{"uicCode":"8400561","stationCode":"SHL","name":"Schiphol Airport","coordinate":{"lat":52.3094444274902,"lng":4.76194429397583},"countryCode":"NL"},{"uicCode":"8400332","stationCode":"HFD","name":"Hoofddorp","coordinate":{"lat":52.2933349609375,"lng":4.70055532455444},"countryCode":"NL"},{"uicCode":"8400530","stationCode":"RTD","name":"Rotterdam Centraal","coordinate":{"lat":51.9249992370605,"lng":4.46888875961304},"countryCode":"NL"},{"uicCode":"8400529","stationCode":"RTB","name":"Rotterdam Blaak","coordinate":{"lat":51.9202766418457,"lng":4.48888874053955},"countryCode":"NL"},{"uicCode":"8400533","stationCode":"RTZ","name":"Rotterdam Zuid","coordinate":{"lat":51.9044456481934,"lng":4.51027774810791},"countryCode":"NL"},{"uicCode":"8400542","stationCode":"RLB","name":"Rotterdam Lombardijen","coordinate":{"lat":51.8800010681152,"lng":4.53138875961304},"countryCode":"NL"},{"uicCode":"8400132","stationCode":"BDPB","name":"Breda-Prinsenbeek","coordinate":{"lat":51.606388092041,"lng":4.72083330154419},"countryCode":"NL"},{"uicCode":"8400131","stationCode":"BD","name":"Breda","coordinate":{"lat":51.5955543518066,"lng":4.78000020980835},"countryCode":"NL"},{"uicCode":"8821105","stationCode":"NDKP","name":"Noorderkempen","coordinate":{"lat":51.358088,"lng":4.633977},"countryCode":"B"},{"uicCode":"8821063","stationCode":"ATWLB","name":"Antwerpen-Luchtbal","coordinate":{"lat":51.2449375,"lng":4.4251543},"countryCode":"B"},{"uicCode":"8821006","stationCode":"ATW","name":"Antwerpen-Centraal","coordinate":{"lat":51.21686,"lng":4.421242},"countryCode":"B"},{"uicCode":"8821121","stationCode":"BERCH","name":"Antwerpen-Berchem","coordinate":{"lat":51.198914,"lng":4.4332},"countryCode":"B"},{"uicCode":"8822004","stationCode":"MECH","name":"Mechelen","coordinate":{"lat":51.01758,"lng":4.48313},"countryCode":"B"},{"uicCode":"8812005","stationCode":"BRUSN","name":"Brussel-Noord","coordinate":{"lat":50.859658,"lng":4.360854},"countryCode":"B"},{"uicCode":"8813003","stationCode":"BRUSC","name":"Brussel-Centraal","coordinate":{"lat":50.845175,"lng":4.357131},"countryCode":"B"},{"uicCode":"8814001","stationCode":"BRUSZ","name":"Brussel-Zuid Midi","coordinate":{"lat":50.836782,"lng":4.336922},"countryCode":"B"},{"uicCode":"8722326","stationCode":"LILLEE","name":"Lille Europe","coordinate":{"lat":50.639444,"lng":3.074722},"countryCode":"F"},{"uicCode":"7015400","stationCode":"STP","name":"London St. Pancras Int.","coordinate":{"lat":51.531437,"lng":-0.126136},"countryCode":"GB"}],"direction":"BOTH"},"consequence":{"section":{"stations":[{"uicCode":"8400058","stationCode":"ASD","name":"Amsterdam Centraal","coordinate":{"lat":52.3788871765137,"lng":4.90027761459351},"countryCode":"NL"},{"uicCode":"8400059","stationCode":"ASS","name":"Amsterdam Sloterdijk","coordinate":{"lat":52.3888893127441,"lng":4.83777761459351},"countryCode":"NL"},{"uicCode":"8400079","stationCode":"ASDL","name":"Amsterdam Lelylaan","coordinate":{"lat":52.3577766418457,"lng":4.83388900756836},"countryCode":"NL"},{"uicCode":"8400561","stationCode":"SHL","name":"Schiphol Airport","coordinate":{"lat":52.3094444274902,"lng":4.76194429397583},"countryCode":"NL"},{"uicCode":"8400332","stationCode":"HFD","name":"Hoofddorp","coordinate":{"lat":52.2933349609375,"lng":4.70055532455444},"countryCode":"NL"},{"uicCode":"8400530","stationCode":"RTD","name":"Rotterdam Centraal","coordinate":{"lat":51.9249992370605,"lng":4.46888875961304},"countryCode":"NL"},{"uicCode":"8400529","stationCode":"RTB","name":"Rotterdam Blaak","coordinate":{"lat":51.9202766418457,"lng":4.48888874053955},"countryCode":"NL"},{"uicCode":"8400533","stationCode":"RTZ","name":"Rotterdam Zuid","coordinate":{"lat":51.9044456481934,"lng":4.51027774810791},"countryCode":"NL"},{"uicCode":"8400542","stationCode":"RLB","name":"Rotterdam Lombardijen","coordinate":{"lat":51.8800010681152,"lng":4.53138875961304},"countryCode":"NL"},{"uicCode":"8400132","stationCode":"BDPB","name":"Breda-Prinsenbeek","coordinate":{"lat":51.606388092041,"lng":4.72083330154419},"countryCode":"NL"},{"uicCode":"8400131","stationCode":"BD","name":"Breda","coordinate":{"lat":51.5955543518066,"lng":4.78000020980835},"countryCode":"NL"},{"uicCode":"8821105","stationCode":"NDKP","name":"Noorderkempen","coordinate":{"lat":51.358088,"lng":4.633977},"countryCode":"B"},{"uicCode":"8821063","stationCode":"ATWLB","name":"Antwerpen-Luchtbal","coordinate":{"lat":51.2449375,"lng":4.4251543},"countryCode":"B"},{"uicCode":"8821006","stationCode":"ATW","name":"Antwerpen-Centraal","coordinate":{"lat":51.21686,"lng":4.421242},"countryCode":"B"},{"uicCode":"8821121","stationCode":"BERCH","name":"Antwerpen-Berchem","coordinate":{"lat":51.198914,"lng":4.4332},"countryCode":"B"},{"uicCode":"8822004","stationCode":"MECH","name":"Mechelen","coordinate":{"lat":51.01758,"lng":4.48313},"countryCode":"B"},{"uicCode":"8812005","stationCode":"BRUSN","name":"Brussel-Noord","coordinate":{"lat":50.859658,"lng":4.360854},"countryCode":"B"},{"uicCode":"8813003","stationCode":"BRUSC","name":"Brussel-Centraal","coordinate":{"lat":50.845175,"lng":4.357131},"countryCode":"B"},{"uicCode":"8814001","stationCode":"BRUSZ","name":"Brussel-Zuid Midi","coordinate":{"lat":50.836782,"lng":4.336922},"countryCode":"B"},{"uicCode":"8722326","stationCode":"LILLEE","name":"Lille Europe","coordinate":{"lat":50.639444,"lng":3.074722},"countryCode":"F"},{"uicCode":"7015400","stationCode":"STP","name":"London St. Pancras Int.","coordinate":{"lat":51.531437,"lng":-0.126136},"countryCode":"GB"}],"direction":"ONE_WAY"},"description":"dienstregeling aangepast","level":"LESS_TRAINS"},"sectionType":"HSL"}],"timespans":[{"start":"2023-03-18T06:00:00+0100","end":"2023-03-19T23:00:00+0100","period":"Zaterdag 18-03-2023 06:00 uur t/m zondag 19-03-2023 23:00 uur.","situation":{"label":"Door werkzaamheden: tussen Amsterdam Centraal en London St. Pancras Int. is de dienstregeling aangepast."},"cause":{"label":"Werkzaamheden"},"advices":[]}],"alternativeTransportTimespans":[]},{"id":"7003321","type":"MAINTENANCE","registrationTime":"2023-02-17T10:05:26+0100","releaseTime":"2023-02-17T10:05:26+0100","local":false,"title":"Utrecht - Nijmegen","titleSections":[[{"type":"STATION","value":"Utrecht C."},{"type":"ICON","value":"MAINTENANCE"},{"type":"STATION","value":"Nijmegen"}]],"isActive":false,"start":"2023-03-19T01:10:00+0100","end":"2023-03-19T04:00:00+0100","period":"Zondag 19-03-2023 01:10 uur t/m zondag 19-03-2023 04:00 uur.","impact":{"value":2},"summaryAdditionalTravelTime":{"label":"De extra reistijd kan oplopen tot 60 minuten.","shortLabel":"Extra reistijd tot 60 min.","maximumDurationInMinutes":60},"publicationSections":[{"section":{"stations":[{"uicCode":"8400621","stationCode":"UT","name":"Utrecht Centraal","coordinate":{"lat":52.0888900756836,"lng":5.11027765274048},