[{"type":"MAINTENANCE","id":"7004492","title":"Groningen - Leer.","isActive":true,"local":false,"titleSections":[[{"type":"STATION","value":"Groningen"},{"type":"STATION","value":"Bad Nieuweschans"},{"type":"ICON","value":"MAINTENANCE"},{"type":"STATION","value":"Weener"},{"type":"STATION","value":"Leer (Ostfr.)"}]],"registrationTime":"2025-04-03T10:55:48+0200","start":"2024-02-01T04:00:00+0100","releaseTime":"2025-04-03T10:55:48+0200","end":"2025-12-13T23:59:00+0100","period":"Donderdag 1 februari 2024 4:00 uur t/m zaterdag 13 december 23:59 uur.","impact":{"value":3},"publicationSections":[{"section":{"stations":[{"coordinate":{"lat":53.2105560302734,"lng":6.56472206115723},"countryCode":"NL","name":"Groningen","stationCode":"GN","uicCode":"8400263"},{"coordinate":{"lat":53.20480027,"lng":6.5854178},"countryCode":"NL","name":"Groningen Europapark","stationCode":"GERP","uicCode":"8400238"},{"coordinate":{"lat":53.1617362,"lng":6.7220882},"countryCode":"NL","name":"Kropswolde","stationCode":"KW","uicCode":"8400369"},{"coordinate":{"lat":53.1607232,"lng":6.7402989},"countryCode":"NL","name":"Martenshoek","stationCode":"MTH","uicCode":"8400430"},{"coordinate":{"lat":53.1598181316756,"lng":6.77075386047363},"countryCode":"NL","name":"Hoogezand-Sappemeer","stationCode":"HGZ","uicCode":"8400331"},{"coordinate":{"lat":53.1596122800056,"lng":6.8679141998291},"countryCode":"NL","name":"Zuidbroek","stationCode":"ZB","uicCode":"8400742"},{"coordinate":{"lat":53.1655362,"lng":6.9777775},"countryCode":"NL","name":"Scheemda","stationCode":"SDA","uicCode":"8400551"},{"coordinate":{"lat":53.1392377,"lng":7.035101},"countryCode":"NL","name":"Winschoten","stationCode":"WS","uicCode":"8400696"},{"coordinate":{"lat":53.1844,"lng":7.19937},"countryCode":"NL","name":"Bad Nieuweschans","stationCode":"NSCH","uicCode":"8400457"},{"coordinate":{"lat":53.16311,"lng":7.3442},"countryCode":"D","name":"Weener","stationCode":"WR","uicCode":"8021239"},{"coordinate":{"lat":53.23165,"lng":7.465283},"countryCode":"D","name":"Leer (Ostfriesl)","stationCode":"LEER","uicCode":"8021091"}],"direction":"BOTH","operators":["Arriva"]},"consequence":{"section":{"stations":[{"coordinate":{"lat":53.1844,"lng":7.19937},"countryCode":"NL","name":"Bad Nieuweschans","stationCode":"NSCH","uicCode":"8400457"},{"coordinate":{"lat":53.16311,"lng":7.3442},"countryCode":"D","name":"Weener","stationCode":"WR","uicCode":"8021239"}],"direction":"BOTH","operators":["Arriva"]},"description":"er rijden bussen","level":"LESS_TRAINS"},"sectionType":"NEIGHBORING_COUNTRY"}],"summaryAdditionalTravelTime":{"label":"De extra reistijd kan oplopen tot 30 minuten.","shortLabel":"Extra reistijd tot 30 min.","maximumDurationInMinutes":30},"timespans":[{"start":"2024-02-01T04:00:00+0100","end":"2025-12-13T23:59:00+0100","period":"Donderdag 1 februari 2024 4:00 uur t/m zaterdag 13 december 23:59 uur.","situation":{"label":"Door een aangepaste dienstregeling: tussen Bad Nieuweschans en Weener rijden er bussen."},"cause":{"label":"aangepaste dienstregeling"},"additionalTravelTime":{"label":"De extra reistijd kan oplopen tot 30 minuten.","shortLabel":"Extra reistijd tot 30 min.","maximumDurationInMinutes":30},"alternativeTransport":{"label":"er rijden stopbussen","shortLabel":"er rijden stopbussen"},"advices":[]}],"alternativeTransportTimespans":[{"start":"2024-02-01T04:00:00+0100","end":"2025-12-13T23:59:00+0100","alternativeTransport":{"location":[{"station":{"coordinate":{"lat":53.1844,"lng":7.19937},"countryCode":"NL","name":"Bad Nieuweschans","stationCode":"NSCH","uicCode":"8400457"},"description":"vanaf de voorzijde van het station"},{"station":{"coordinate":{"lat":53.16311,"lng":7.3442},"countryCode":"D","name":"Weener","stationCode":"WR","uicCode":"8021239"},"description":"vanaf de voorzijde van het station"},{"station":{"coordinate":{"lat":53.23165,"lng":7.465283},"countryCode":"D","name":"Leer (Ostfriesl)","stationCode":"LEER","uicCode":"8021091"},"description":"vanaf het busstation"}],"label":"Er rijden stopbussen tussen Bad Nieuweschans, Weener en Leer (Ostfriesl).","shortLabel":"Er rijden stopbussen Bad Nieuweschans - Weener - Leer (Ostfr.)."}}]},{"type":"MAINTENANCE","id":"7006147","title":"Zwolle - Groningen; Groningen - Bad Nieuweschans; Groningen - Veendam.","isActive":true,"local":false,"titleSections":[[{"type":"STATION","value":"Groningen"},{"type":"ICON","value":"MAINTENANCE"},{"type":"STATION","value":"Europapark"},{"type":"STATION","value":"Bad Nieuweschans"}],[{"type":"STATION","value":"Zwolle"},{"type":"STATION","value":"Europapark"},{"type":"ICON","value":"MAINTENANCE"},{"type":"STATION","value":"Groningen"}],[{"type":"STATION","value":"Groningen"},{"type":"ICON","value":"MAINTENANCE"},{"type":"STATION","value":"Europapark"},{"type":"STATION","value":"Veendam"}]],"registrationTime":"2025-06-28T10:36:03+0200","start":"2025-05-10T00:40:00+0200","releaseTime":"2025-06-28T10:36:03+0200","end":"2025-07-13T02:00:00+0200","period":"Zaterdag 10 mei 0:40 uur t/m zondag 13 juli 2:00 uur.","impact":{"value":3},"publicationSections":[{"section":{"stations":[{"coordinate":{"lat":53.2105560302734,"lng":6.56472206115723},"countryCode":"NL","name":"Groningen","stationCode":"GN","uicCode":"8400263"},{"coordinate":{"lat":53.20480027,"lng":6.5854178},"countryCode":"NL","name":"Groningen Europapark","stationCode":"GERP","uicCode":"8400238"},{"coordinate":{"lat":53.1617362,"lng":6.7220882},"countryCode":"NL","name":"Kropswolde","stationCode":"KW","uicCode":"8400369"},{"coordinate":{"lat":53.1607232,"lng":6.7402989},"countryCode":"NL","name":"Martenshoek","stationCode":"MTH","uicCode":"8400430"},{"coordinate":{"lat":53.1598181316756,"lng":6.77075386047363},"countryCode":"NL","name":"Hoogezand-Sappemeer","stationCode":"HGZ","uicCode":"8400331"},{"coordinate":{"lat":53.1596122800056,"lng":6.8679141998291},"countryCode":"NL","name":"Zuidbroek","stationCode":"ZB","uicCode":"8400742"},{"coordinate":{"lat":53.1655362,"lng":6.9777775},"countryCode":"NL","name":"Scheemda","stationCode":"SDA","uicCode":"8400551"},{"coordinate":{"lat":53.1392377,"lng":7.035101},"countryCode":"NL","name":"Winschoten","stationCode":"WS","uicCode":"8400696"},{"coordinate":{"lat":53.1844,"lng":7.19937},"countryCode":"NL","name":"Bad Nieuweschans","stationCode":"NSCH","uicCode":"8400457"}],"direction":"BOTH","operators":["Arriva"]},"consequence":{"section":{"stations":[{"coordinate":{"lat":53.2105560302734,"lng":6.56472206115723},"countryCode":"NL","name":"Groningen","stationCode":"GN","uicCode":"8400263"},{"coordinate":{"lat":53.20480027,"lng":6.5854178},"countryCode":"NL","name":"Groningen Europapark","stationCode":"GERP","uicCode":"8400238"}],"direction":"BOTH","operators":["Arriva"]},"description":"er rijden bussen","level":"LESS_TRAINS"},"sectionType":"NL"},{"section":{"stations":[{"coordinate":{"lat":52.5047225952148,"lng":6.09194421768188},"countryCode":"NL","name":"Zwolle","stationCode":"ZL","uicCode":"8400747"},{"coordinate":{"lat":52.6908340454102,"lng":6.19750022888184},"countryCode":"NL","name":"Meppel","stationCode":"MP","uicCode":"8400435"},{"coordinate":{"lat":52.7338905334473,"lng":6.47361087799072},"countryCode":"NL","name":"Hoogeveen","stationCode":"HGV","uicCode":"8400330"},{"coordinate":{"lat":52.8547210693359,"lng":6.52111101150513},"countryCode":"NL","name":"Beilen","stationCode":"BL","uicCode":"8400100"},{"coordinate":{"lat":52.9916648864746,"lng":6.57083320617676},"countryCode":"NL","name":"Assen","stationCode":"ASN","uicCode":"8400073"},{"coordinate":{"lat":53.1761093139648,"lng":6.61722230911255},"countryCode":"NL","name":"Haren","stationCode":"HRN","uicCode":"8400297"},{"coordinate":{"lat":53.20480027,"lng":6.5854178},"countryCode":"NL","name":"Groningen Europapark","stationCode":"GERP","uicCode":"8400238"},{"coordinate":{"lat":53.2105560302734,"lng":6.56472206115723},"countryCode":"NL","name":"Groningen","stationCode":"GN","uicCode":"8400263"}],"direction":"BOTH","operators":["NS"]},"consequence":{"section":{"stations":[{"coordinate":{"lat":53.20480027,"lng":6.5854178},"countryCode":"NL","name":"Groningen Europapark","stationCode":"GERP","uicCode":"8400238"},{"coordinate":{"lat":53.2105560302734,"lng":6.56472206115723},"countryCode":"NL","name":"Groningen","stationCode":"GN","uicCode":"8400263"}],"direction":"BOTH","operators":["NS"]},"description":"er rijden bussen","level":"LESS_TRAINS"},"sectionType":"NL"},{"section":{"stations":[{"coordinate":{"lat":53.2105560302734,"lng":6.56472206115723},"countryCode":"NL","name":"Groningen","stationCode":"GN","uicCode":"8400263"},{"coordinate":{"lat":53.20480027,"lng":6.5854178},"countryCode":"NL","name":"Groningen Europapark","stationCode":"GERP","uicCode":"8400238"},{"coordinate":{"lat":53.1617362,"lng":6.7220882},"countryCode":"NL","name":"Kropswolde","stationCode":"KW","uicCode":"8400369"},{"coordinate":{"lat":53.1607232,"lng":6.7402989},"countryCode":"NL","name":"Martenshoek","stationCode":"MTH","uicCode":"8400430"},{"coordinate":{"lat":53.1598181316756,"lng":6.77075386047363},"countryCode":"NL","name":"Hoogezand-Sappemeer","stationCode":"HGZ","uicCode":"8400331"},{"coordinate":{"lat":53.1596122800056,"lng":6.8679141998291},"countryCode":"NL","name":"Zuidbroek","stationCode":"ZB","uicCode":"8400742"},{"coordinate":{"lat":53.10324,"lng":6.88475},"countryCode":"NL","name":"Veendam","stationCode":"VDM","uicCode":"8400636"}],"direction":"BOTH","operators":["Arriva"]},"consequence":{"section":{"stations":[{"coordinate":{"lat":53.2105560302734,"lng":6.56472206115723},"countryCode":"NL","name":"Groningen","stationCode":"GN","uicCode":"8400263"},{"coordinate":{"lat":53.20480027,"lng":6.5854178},"countryCode":"NL","name":"Groningen Europapark","stationCode":"GERP","uicCode":"8400238"}],"direction":"BOTH","operators":["Arriva"]},"description":"er rijden bussen","level":"LESS_TRAINS"},"sectionType":"NL"}],"summaryAdditionalTravelTime":{"label":"De extra reistijd kan oplopen tot 30 minuten.","shortLabel":"Extra reistijd tot 30 min.","maximumDurationInMinutes":30},"timespans":[{"start":"2025-05-10T00:40:00+0200","end":"2025-07-13T02:00:00+0200","period":"Zaterdag 10 mei 0:40 uur t/m zondag 13 juli 2:00 uur.","situation":{"label":"Door werkzaamheden: tussen Groningen Europapark en Groningen rijden er bussen."},"cause":{"label":"werkzaamheden"},"additionalTravelTime":{"label":"De extra reistijd kan oplopen tot 30 minuten.","shortLabel":"Extra reistijd tot 30 min.","maximumDurationInMinutes":30},"alternativeTransport":{"label":"er rijden stop- en snelbussen","shortLabel":"er rijden stop- en snelbussen"},"advices":["Tijdens deze periode rijden er in verschillende fases geen treinen van en naar station Groningen. NS en Arriva zetten bussen in."]}],"alternativeTransportTimespans":[{"start":"2025-05-10T00:40:00+0200","end":"2025-07-13T02:00:00+0200","alternativeTransport":{"location":[{"station":{"coordinate":{"lat":53.20480027,"lng":6.5854178},"countryCode":"NL","name":"Groningen Europapark","stationCode":"GERP","uicCode":"8400238"},"description":"vanaf de bushalte"},{"station":{"coordinate":{"lat":53.2105560302734,"lng":6.56472206115723},"countryCode":"NL","name":"Groningen","stationCode":"GN","uicCode":"8400263"},"description":"vanaf het Emmaplein"}],"label":"Er rijden snelbussen tussen Groningen Europapark en Groningen.","shortLabel":"Er rijden snelbussen Europapark - Groningen."}},{"start":"2025-06-14T00:53:00+0200","end":"2025-06-14T02:30:00+0200","alternativeTransport":{"location":[{"station":{"coordinate":{"lat":52.9916648864746,"lng":6.57083320617676},"countryCode":"NL","name":"Assen","stationCode":"ASN","uicCode":"8400073"},"description":"vanaf het busstation"},{"station":{"coordinate":{"lat":53.2105560302734,"lng":6.56472206115723},"countryCode":"NL","name":"Groningen","stationCode":"GN","uicCode":"8400263"},"description":"vanaf het Emmaplein"}],"label":"Er rijden snelbussen van Assen naar Groningen.","shortLabel":"Er rijden snelbussen Assen -> Groningen."}},{"start":"2025-06-14T00:58:00+0200","end":"2025-06-14T03:13:00+0200","alternativeTransport":{"location":[{"station":{"coordinate":{"lat":52.9916648864746,"lng":6.57083320617676},"countryCode":"NL","name":"Assen","stationCode":"ASN","uicCode":"8400073"},"description":"vanaf het busstation"},{"station":{"coordinate":{"lat":53.1761093139648,"lng":6.61722230911255},"countryCode":"NL","name":"Haren","stationCode":"HRN","uicCode":"8400297"},"description":"vanaf de doorgaande weg"},{"station":{"coordinate":{"lat":53.20480027,"lng":6.5854178},"countryCode":"NL","name":"Groningen Europapark","stationCode":"GERP","uicCode":"8400238"},"description":"vanaf de bushalte"},{"station":{"coordinate":{"lat":53.2105560302734,"lng":6.56472206115723},"countryCode":"NL","name":"Groningen","stationCode":"GN","uicCode":"8400263"},"description":"vanaf het Emmaplein"}],"label":"Er rijden stopbussen tussen Assen, Haren, Groningen Europapark en Groningen.","shortLabel":"Er rijden stopbussen Assen - Haren - Europapark - Groningen."}},{"start":"2025-06-14T01:35:00+0200","end":"2025-06-14T02:18:00+0200","alternativeTransport":{"location":[{"station":{"coordinate":{"lat":52.9916648864746,"lng":6.57083320617676},"countryCode":"NL","name":"Assen","stationCode":"ASN","uicCode":"8400073"},"description":"vanaf het busstation"},{"station":{"coordinate":{"lat":53.1761093139648,"lng":6.61722230911255},"countryCode":"NL","name":"Haren","stationCode":"HRN","uicCode":"8400297"},"description":"vanaf de doorgaande weg"},{"station":{"coordinate":{"lat":53.20480027,"lng":6.5854178},"countryCode":"NL","name":"Groningen Europapark","stationCode":"GERP","uicCode":"8400238"},"description":"vanaf de bushalte"},{"station":{"coordinate":{"lat":53.2105560302734,"lng":6.56472206115723},"countryCode":"NL","name":"Groningen","stationCode":"GN","uicCode":"8400263"},"description":"vanaf het Emmaplein"}],"label":"Er rijden stopbussen van Assen, Haren, Groningen Europapark naar Groningen.","shortLabel":"Er rijden stopbussen Assen -> Haren -> Europapark -> Groningen."}}]},{"type":"MAINTENANCE","id":"7006387","title":"Enschede - Gronau - Münster.","isActive":true,"local":false,"titleSections":[[{"type":"STATION","value":"Enschede"},{"type":"STATION","value":"Ochtrup"},{"type":"ICON","value":"MAINTENANCE"},{"type":"STATION","value":"Steinfurt-Burgst"},{"type":"STATION","value":"Münster (Westf)"}]],"registrationTime":"2025-06-01T17:12:43+0200","start":"2025-06-13T23:00:00+0200","releaseTime":"2025-06-01T17:12:43+0200","end":"2025-10-09T23:00:00+0200","period":"Vrijdag 13 juni 23:00 uur t/m donderdag 9 oktober 23:00 uur.","impact":{"value":3},"publicationSections":[{"section":{"stations":[{"coordinate":{"lat":52.2224998474121,"lng":6.8899998664856},"countryCode":"NL","name":"Enschede","stationCode":"ES","uicCode":"8400212"},{"coordinate":{"lat":52.2213897705078,"lng":6.95111131668091},"countryCode":"NL","name":"Enschede De Eschmarke","stationCode":"ESE","uicCode":"8400217"},{"coordinate":{"lat":52.2186126708984,"lng":6.97444438934326},"countryCode":"NL","name":"Glanerbrug","stationCode":"GBR","uicCode":"8400262"},{"coordinate":{"lat":52.21521,"lng":7.022109},"countryCode":"D","name":"Gronau (Westf.)","stationCode":"G","uicCode":"8021128"},{"coordinate":{"lat":52.201703,"lng":7.182643},"countryCode":"D","name":"Ochtrup","stationCode":"EOP","uicCode":"8021152"},{"coordinate":{"lat":52.162444,"lng":7.254423},"countryCode":"D","name":"Metelen Land","stationCode":"EMTE","uicCode":"8021151"},{"coordinate":{"lat":52.147384,"lng":7.32934},"countryCode":"D","name":"Steinfurt-Burgsteinfurt","stationCode":"EBFT","uicCode":"8021143"},{"coordinate":{"lat":52.123439,"lng":7.376031},"countryCode":"D","name":"Steinfurt-Grottenkamp","stationCode":"EGRK","uicCode":"8071069"},{"coordinate":{"lat":52.118791,"lng":7.397581},"countryCode":"D","name":"Steinfurt-Borghorst","stationCode":"EBGO","uicCode":"8021150"},{"coordinate":{"lat":52.077618,"lng":7.461706},"countryCode":"D","name":"Nordwalde","stationCode":"ENOW","uicCode":"8021149"},{"coordinate":{"lat":52.05223,"lng":7.481202},"countryCode":"D","name":"Altenberge","stationCode":"EABG","uicCode":"8021148"},{"coordinate":{"lat":52.022327,"lng":7.562668},"countryCode":"D","name":"Münster-Häger","stationCode":"ENBE","uicCode":"8021147"},{"coordinate":{"lat":51.984987,"lng":7.63861},"countryCode":"D","name":"Münster (W) Zentrum Nord","stationCode":"ENHF","uicCode":"8023783"},{"coordinate":{"lat":51.956892,"lng":7.635895},"countryCode":"D","name":"Münster (Westf) Hbf","stationCode":"MUNST","uicCode":"8021011"}],"direction":"BOTH","operators":["DB"]},"consequence":{"section":{"stations":[{"coordinate":{"lat":52.201703,"lng":7.182643},"countryCode":"D","name":"Ochtrup","stationCode":"EOP","uicCode":"8021152"},{"coordinate":{"lat":52.162444,"lng":7.254423},"countryCode":"D","name":"Metelen Land","stationCode":"EMTE","uicCode":"8021151"},{"coordinate":{"lat":52.147384,"lng":7.32934},"countryCode":"D","name":"Steinfurt-Burgsteinfurt","stationCode":"EBFT","uicCode":"8021143"}],"direction":"BOTH","operators":["DB"]},"description":"er rijden bussen","level":"LESS_TRAINS"},"sectionType":"NEIGHBORING_COUNTRY"}],"summaryAdditionalTravelTime":{"label":"De extra reistijd is ongeveer 15 minuten.","shortLabel":"Extra reistijd 15 min.","minimumDurationInMinutes":15,"maximumDurationInMinutes":15},"timespans":[{"start":"2025-06-13T23:00:00+0200","end":"2025-10-09T23:00:00+0200","period":"Vrijdag 13 juni 23:00 uur t/m donderdag 9 oktober 23:00 uur.","situation":{"label":"Door werkzaamheden: tussen Ochtrup en Steinfurt-Burgsteinfurt rijden er bussen."},"cause":{"label":"werkzaamheden"},"additionalTravelTime":{"label":"De extra reistijd is ongeveer 15 minuten.","shortLabel":"Extra reistijd 15 min.","minimumDurationInMinutes":15,"maximumDurationInMinutes":15},"alternativeTransport":{"label":"maak gebruik van het vervangende vervoer","shortLabel":"gebruik het vervangende vervoer"},"advices":["Vanaf Gronau rijdt een bus via Ochtrup naar Steinfurt-Burgsteinfurt. Een taxibus rijdt van/naar Metelen Land. Raadpleeg ook zuginfo.nrw."]}],"alternativeTransportTimespans":[{"start":"2025-06-13T23:00:00+0200","end":"2025-10-09T23:00:00+0200","alternativeTransport":{"location":[{"station":{"coordinate":{"lat":52.21521,"lng":7.022109},"countryCode":"D","name":"Gronau (Westf.)","stationCode":"G","uicCode":"8021128"},"description":"volg de aanwijzingen op het station"},{"station":{"coordinate":{"lat":52.201703,"lng":7.182643},"countryCode":"D","name":"Ochtrup","stationCode":"EOP","uicCode":"8021152"},"description":"volg de aanwijzingen op het station"},{"station":{"coordinate":{"lat":52.147384,"lng":7.32934},"countryCode":"D","name":"Steinfurt-Burgsteinfurt","stationCode":"EBFT","uicCode":"8021143"},"description":"volg de aanwijzingen op het station"}],"label":"Er rijden stopbussen tussen Gronau (Westf.), Ochtrup en Steinfurt-Burgsteinfurt.","shortLabel":"Er rijden stopbussen Gronau (Westf.) - Ochtrup - Steinfurt-Burgst."}},{"start":"2025-06-13T23:00:00+0200","end":"2025-10-09T23:00:00+0200","alternativeTransport":{"location":[{"station":{"coordinate":{"lat":52.201703,"lng":7.182643},"countryCode":"D","name":"Ochtrup","stationCode":"EOP","uicCode":"8021152"},"description":"volg de aanwijzingen op het station"},{"station":{"coordinate":{"lat":52.162444,"lng":7.254423},"countryCode":"D","name":"Metelen Land","stationCode":"EMTE","uicCode":"8021151"},"description":"volg de aanwijzingen op het station"}],"label":"Er rijden taxibusjes tussen Ochtrup en Metelen Land.","shortLabel":"Er rijden taxibusjes Ochtrup - Metelen Land."}},{"start":"2025-06-13T23:00:00+0200","end":"2025-10-09T23:00:00+0200","alternativeTransport":{"location":[{"station":{"coordinate":{"lat":52.147384,"lng":7.32934},"countryCode":"D","name":"Steinfurt-Burgsteinfurt","stationCode":"EBFT","uicCode":"8021143"},"description":"volg de aanwijzingen op het station"},{"station":{"coordinate":{"lat":52.162444,"lng":7.254423},"countryCode":"D","name":"Metelen Land","stationCode":"EMTE","uicCode":"8021151"},"description":"volg de aanwijzingen op het station"}],"label":"Er rijden taxibusjes tussen Steinfurt-Burgsteinfurt en Metelen Land.","shortLabel":"Er rijden taxibusjes Steinfurt-Burgst - Metelen Land."}}]},{"type":"MAINTENANCE","id":"7006208","title":"Groningen - Delfzijl; Groningen - Eemshaven.","isActive":true,"local":false,"titleSections":[[{"type":"STATION","value":"Groningen"},{"type":"ICON","value":"MAINTENANCE"},{"type":"STATION","value":"Eemshaven"}],[{"type":"STATION","value":"Groningen"},{"type":"ICON","value":"MAINTENANCE"},{"type":"STATION","value":"Delfzijl"}]],"registrationTime":"2025-06-10T09:25:37+0200","start":"2025-06-14T04:00:00+0200","releaseTime":"2025-06-10T09:25:37+0200","end":"2025-07-13T02:00:00+0200","period":"Zaterdag 14 juni 4:00 uur t/m zondag 13 juli 2:00 uur.","impact":{"value":4},"publicationSections":[{"section":{"stations":[{"coordinate":{"lat":53.2105560302734,"lng":6.56472206115723},"countryCode":"NL","name":"Groningen","stationCode":"GN","uicCode":"8400263"},{"coordinate":{"lat":53.2301469,"lng":6.5563172},"countryCode":"NL","name":"Groningen Noord","stationCode":"GNN","uicCode":"8400264"},{"coordinate":{"lat":53.29113,"lng":6.5404},"countryCode":"NL","name":"Sauwerd","stationCode":"SWD","uicCode":"8400547"},{"coordinate":{"lat":53.3300994,"lng":6.5202905},"countryCode":"NL","name":"Winsum","stationCode":"WSM","uicCode":"8400697"},{"coordinate":{"lat":53.3608969,"lng":6.5185581},"countryCode":"NL","name":"Baflo","stationCode":"BF","uicCode":"8400089"},{"coordinate":{"lat":53.3908431,"lng":6.5671364},"countryCode":"NL","name":"Warffum","stationCode":"WFM","uicCode":"8400679"},{"coordinate":{"lat":53.4014742,"lng":6.6093776},"countryCode":"NL","name":"Usquert","stationCode":"UST","uicCode":"8400619"},{"coordinate":{"lat":53.4099568,"lng":6.6748869},"countryCode":"NL","name":"Uithuizen","stationCode":"UHZ","uicCode":"8400617"},{"coordinate":{"lat":53.4145845,"lng":6.7202975},"countryCode":"NL","name":"Uithuizermeeden","stationCode":"UHM","uicCode":"8400618"},{"coordinate":{"lat":53.421262,"lng":6.7587},"countryCode":"NL","name":"Roodeschool","stationCode":"RD","uicCode":"8400525"},{"coordinate":{"lat":53.458419,"lng":6.832},"countryCode":"NL","name":"Eemshaven","stationCode":"EEM","uicCode":"8400202"}],"direction":"BOTH","operators":["Arriva"]},"consequence":{"section":{"stations":[{"coordinate":{"lat":53.2105560302734,"lng":6.56472206115723},"countryCode":"NL","name":"Groningen","stationCode":"GN","uicCode":"8400263"},{"coordinate":{"lat":53.2301469,"lng":6.5563172},"countryCode":"NL","name":"Groningen Noord","stationCode":"GNN","uicCode":"8400264"},{"coordinate":{"lat":53.29113,"lng":6.5404},"countryCode":"NL","name":"Sauwerd","stationCode":"SWD","uicCode":"8400547"},{"coordinate":{"lat":53.3300994,"lng":6.5202905},"countryCode":"NL","name":"Winsum","stationCode":"WSM","uicCode":"8400697"},{"coordinate":{"lat":53.3608969,"lng":6.5185581},"countryCode":"NL","name":"Baflo","stationCode":"BF","uicCode":"8400089"},{"coordinate":{"lat":53.3908431,"lng":6.5671364},"countryCode":"NL","name":"Warffum","stationCode":"WFM","uicCode":"8400679"},{"coordinate":{"lat":53.4014742,"lng":6.6093776},"countryCode":"NL","name":"Usquert","stationCode":"UST","uicCode":"8400619"},{"coordinate":{"lat":53.4099568,"lng":6.6748869},"countryCode":"NL","name":"Uithuizen","stationCode":"UHZ","uicCode":"8400617"},{"coordinate":{"lat":53.4145845,"lng":6.7202975},"countryCode":"NL","name":"Uithuizermeeden","stationCode":"UHM","uicCode":"8400618"},{"coordinate":{"lat":53.421262,"lng":6.7587},"countryCode":"NL","name":"Roodeschool","stationCode":"RD","uicCode":"8400525"},{"coordinate":{"lat":53.458419,"lng":6.832},"countryCode":"NL","name":"Eemshaven","stationCode":"EEM","uicCode":"8400202"}],"direction":"BOTH","operators":["Arriva"]},"description":"er rijden bussen","level":"LESS_TRAINS"},"sectionType":"NL"},{"section":{"stations":[{"coordinate":{"lat":53.2105560302734,"lng":6.56472206115723},"countryCode":"NL","name":"Groningen","stationCode":"GN","uicCode":"8400263"},{"coordinate":{"lat":53.2301469,"lng":6.5563172},"countryCode":"NL","name":"Groningen Noord","stationCode":"GNN","uicCode":"8400264"},{"coordinate":{"lat":53.29113,"lng":6.5404},"countryCode":"NL","name":"Sauwerd","stationCode":"SWD","uicCode":"8400547"},{"coordinate":{"lat":53.3068857,"lng":6.593054},"countryCode":"NL","name":"Bedum","stationCode":"BDM","uicCode":"8400094"},{"coordinate":{"lat":53.3262092,"lng":6.6875551},"countryCode":"NL","name":"Stedum","stationCode":"STM","uicCode":"8400576"},{"coordinate":{"lat":53.3347145,"lng":6.7472625},"countryCode":"NL","name":"Loppersum","stationCode":"LP","uicCode":"8400403"},{"coordinate":{"lat":53.3258135,"lng":6.8619577},"countryCode":"NL","name":"Appingedam","stationCode":"APG","uicCode":"8400067"},{"coordinate":{"lat":53.3320834,"lng":6.9069092},"countryCode":"NL","name":"Delfzijl West","stationCode":"DZW","uicCode":"8400175"},{"coordinate":{"lat":53.3336625,"lng":6.9240797},"countryCode":"NL","name":"Delfzijl","stationCode":"DZ","uicCode":"8400171"}],"direction":"BOTH","operators":["Arriva"]},"consequence":{"section":{"stations":[{"coordinate":{"lat":53.2105560302734,"lng":6.56472206115723},"countryCode":"NL","name":"Groningen","stationCode":"GN","uicCode":"8400263"},{"coordinate":{"lat":53.2301469,"lng":6.5563172},"countryCode":"NL","name":"Groningen Noord","stationCode":"GNN","uicCode":"8400264"},{"coordinate":{"lat":53.29113,"lng":6.5404},"countryCode":"NL","name":"Sauwerd","stationCode":"SWD","uicCode":"8400547"},{"coordinate":{"lat":53.3068857,"lng":6.593054},"countryCode":"NL","name":"Bedum","stationCode":"BDM","uicCode":"8400094"},{"coordinate":{"lat":53.3262092,"lng":6.6875551},"countryCode":"NL","name":"Stedum","stationCode":"STM","uicCode":"8400576"},{"coordinate":{"lat":53.3347145,"lng":6.7472625},"countryCode":"NL","name":"Loppersum","stationCode":"LP","uicCode":"8400403"},{"coordinate":{"lat":53.3258135,"lng":6.8619577},"countryCode":"NL","name":"Appingedam","stationCode":"APG","uicCode":"8400067"},{"coordinate":{"lat":53.3320834,"lng":6.9069092},"countryCode":"NL","name":"Delfzijl West","stationCode":"DZW","uicCode":"8400175"},{"coordinate":{"lat":53.3336625,"lng":6.9240797},"countryCode":"NL","name":"Delfzijl","stationCode":"DZ","uicCode":"8400171"}],"direction":"BOTH","operators":["Arriva"]},"description":"er rijden bussen","level":"LESS_TRAINS"},"sectionType":"NL"}],"summaryAdditionalTravelTime":{"label":"De extra reistijd ligt tussen 30 en 45 minuten.","shortLabel":"Extra reistijd: 30 - 45 min.","minimumDurationInMinutes":30,"maximumDurationInMinutes":45},"timespans":[{"start":"2025-06-14T04:00:00+0200","end":"2025-07-13T02:00:00+0200","period":"Zaterdag 14 juni 4:00 uur t/m zondag 13 juli 2:00 uur.","situation":{"label":"Door werkzaamheden: tussen Groningen en Eemshaven rijden er bussen en tussen Groningen en Delfzijl rijden er bussen."},"cause":{"label":"werkzaamheden"},"additionalTravelTime":{"label":"De extra reistijd ligt tussen 30 en 45 minuten.","shortLabel":"Extra reistijd: 30 - 45 min.","minimumDurationInMinutes":30,"maximumDurationInMinutes":45},"alternativeTransport":{"label":"er rijden stop- en snelbussen","shortLabel":"er rijden stop- en snelbussen"},"advices":["Deze werkzaamheden vallen samen met de 64-daagse Groningen-Groningen Europapark."]}],"alternativeTransportTimespans":[{"start":"2025-06-14T04:00:00+0200","end":"2025-07-13T02:00:00+0200","alternativeTransport":{"location":[{"station":{"coordinate":{"lat":53.2105560302734,"lng":6.56472206115723},"countryCode":"NL","name":"Groningen","stationCode":"GN","uicCode":"8400263"},"description":"vanaf het busstation"},{"station":{"coordinate":{"lat":53.2301469,"lng":6.5563172},"countryCode":"NL","name":"Groningen Noord","stationCode":"GNN","uicCode":"8400264"},"description":"vanaf de bushalte"},{"station":{"coordinate":{"lat":53.29113,"lng":6.5404},"countryCode":"NL","name":"Sauwerd","stationCode":"SWD","uicCode":"8400547"},"description":"vanaf de voorzijde van het station"},{"station":{"coordinate":{"lat":53.3300994,"lng":6.5202905},"countryCode":"NL","name":"Winsum","stationCode":"WSM","uicCode":"8400697"},"description":"vanaf het busstation"},{"station":{"coordinate":{"lat":53.3608969,"lng":6.5185581},"countryCode":"NL","name":"Baflo","stationCode":"BF","uicCode":"8400089"},"description":"vanaf de voorzijde van het station"},{"station":{"coordinate":{"lat":53.3908431,"lng":6.5671364},"countryCode":"NL","name":"Warffum","stationCode":"WFM","uicCode":"8400679"},"description":"vanaf het Stationsplein"},{"station":{"coordinate":{"lat":53.4014742,"lng":6.6093776},"countryCode":"NL","name":"Usquert","stationCode":"UST","uicCode":"8400619"},"description":"vanaf het Stationsplein"},{"station":{"coordinate":{"lat":53.4099568,"lng":6.6748869},"countryCode":"NL","name":"Uithuizen","stationCode":"UHZ","uicCode":"8400617"},"description":"vanaf de voorzijde van het station"},{"station":{"coordinate":{"lat":53.4145845,"lng":6.7202975},"countryCode":"NL","name":"Uithuizermeeden","stationCode":"UHM","uicCode":"8400618"},"description":"vanaf de parkeerplaats"},{"station":{"coordinate":{"lat":53.421262,"lng":6.7587},"countryCode":"NL","name":"Roodeschool","stationCode":"RD","uicCode":"8400525"},"description":"vanaf het Stationsplein"}],"label":"Er rijden stopbussen tussen Groningen, Groningen Noord, Sauwerd, Winsum, Baflo, Warffum, Usquert, Uithuizen, Uithuizermeeden en Roodeschool.","shortLabel":"Er rijden stopbussen Groningen - Groningen Noord - Sauwerd - Winsum - Baflo - Warffum - Usquert - Uithuizen - Uithuizermeeden - Roodeschool."}},{"start":"2025-06-14T04:00:00+0200","end":"2025-07-13T02:00:00+0200","alternativeTransport":{"location":[{"station":{"coordinate":{"lat":53.2105560302734,"lng":6.56472206115723},"countryCode":"NL","name":"Groningen","stationCode":"GN","uicCode":"8400263"},"description":"vanaf het busstation"},{"station":{"coordinate":{"lat":53.2301469,"lng":6.5563172},"countryCode":"NL","name":"Groningen Noord","stationCode":"GNN","uicCode":"8400264"},"description":"vanaf de bushalte"},{"station":{"coordinate":{"lat":53.3068857,"lng":6.593054},"countryCode":"NL","name":"Bedum","stationCode":"BDM","uicCode":"8400094"},"description":"vanaf de voorzijde van het station"},{"station":{"coordinate":{"lat":53.3262092,"lng":6.6875551},"countryCode":"NL","name":"Stedum","stationCode":"STM","uicCode":"8400576"},"description":"vanaf de voorzijde van het station"},{"station":{"coordinate":{"lat":53.3347145,"lng":6.7472625},"countryCode":"NL","name":"Loppersum","stationCode":"LP","uicCode":"8400403"},"description":"vanaf het busstation"},{"station":{"coordinate":{"lat":53.3258135,"lng":6.8619577},"countryCode":"NL","name":"Appingedam","stationCode":"APG","uicCode":"8400067"},"description":"vanaf het busstation"},{"station":{"coordinate":{"lat":53.3320834,"lng":6.9069092},"countryCode":"NL","name":"Delfzijl West","stationCode":"DZW","uicCode":"8400175"},"description":"vanaf de bushalte"},{"station":{"coordinate":{"lat":53.3336625,"lng":6.9240797},"countryCode":"NL","name":"Delfzijl","stationCode":"DZ","uicCode":"8400171"},"description":"vanaf het busstation"}],"label":"Er rijden stopbussen tussen Groningen, Groningen Noord, Bedum, Stedum, Loppersum, Appingedam, Delfzijl West en Delfzijl.","shortLabel":"Er rijden stopbussen Groningen - Groningen Noord - Bedum - Stedum - Loppersum - Appingedam - Delfzijl West - Delfzijl."}},{"start":"2025-06-14T04:00:00+0200","end":"2025-07-13T02:00:00+0200","alternativeTransport":{"location":[{"station":{"coordinate":{"lat":53.2105560302734,"lng":6.56472206115723},"countryCode":"NL","name":"Groningen","stationCode":"GN","uicCode":"8400263"},"description":"vanaf het busstation"},{"station":{"coordinate":{"lat":53.421262,"lng":6.7587},"countryCode":"NL","name":"Roodeschool","stationCode":"RD","uicCode":"8400525"},"description":"vanaf het Stationsplein"},{"station":{"coordinate":{"lat":53.458419,"lng":6.832},"countryCode":"NL","name":"Eemshaven","stationCode":"EEM","uicCode":"8400202"},"description":"vanaf de voorzijde van het station"}],"label":"Er rijden snelbussen tussen Groningen, Roodeschool en Eemshaven.","shortLabel":"Er rijden snelbussen Groningen - Roodeschool - Eemshaven."}}]},{"type":"MAINTENANCE","id":"7006197","title":"Groningen - Leeuwarden.","isActive":true,"local":false,"titleSections":[[{"type":"STATION","value":"Groningen"},{"type":"ICON","value":"MAINTENANCE"},{"type":"STATION","value":"Zuidhorn"},{"type":"STATION","value":"Leeuwarden"}]],"registrationTime":"2025-06-20T10:32:22+0200","start":"2025-06-14T04:00:00+0200","releaseTime":"2025-06-20T10:32:22+0200","end":"2025-07-13T02:00:00+0200","period":"Zaterdag 14 juni 4:00 uur t/m zondag 13 juli 2:00 uur.","impact":{"value":3},"publicationSections":[{"section":{"stations":[{"coordinate":{"lat":53.2105560302734,"lng":6.56472206115723},"countryCode":"NL","name":"Groningen","stationCode":"GN","uicCode":"8400263"},{"coordinate":{"lat":53.2486292,"lng":6.4062361},"countryCode":"NL","name":"Zuidhorn","stationCode":"ZH","uicCode":"8400743"},{"coordinate":{"lat":53.2557403255735,"lng":6.30977869033813},"countryCode":"NL","name":"Grijpskerk","stationCode":"GK","uicCode":"8400267"},{"coordinate":{"lat":53.2564547,"lng":6.1446496},"countryCode":"NL","name":"Buitenpost","stationCode":"BP","uicCode":"8400139"},{"coordinate":{"lat":53.24817,"lng":6.03463},"countryCode":"NL","name":"De Westereen","stationCode":"DWE","uicCode":"8400745"},{"coordinate":{"lat":53.2351834,"lng":5.9886615},"countryCode":"NL","name":"Feanwâlden","stationCode":"FWD","uicCode":"8400638"},{"coordinate":{"lat":53.2187783,"lng":5.934543},"countryCode":"NL","name":"Hurdegaryp","stationCode":"HDG","uicCode":"8400292"},{"coordinate":{"lat":53.2021808,"lng":5.8422968},"countryCode":"NL","name":"Leeuwarden Camminghaburen","stationCode":"LWC","uicCode":"8400389"},{"coordinate":{"lat":53.1958351135254,"lng":5.79222202301025},"countryCode":"NL","name":"Leeuwarden","stationCode":"LW","uicCode":"8400387"}],"direction":"BOTH","operators":["Arriva"]},"consequence":{"section":{"stations":[{"coordinate":{"lat":53.2105560302734,"lng":6.56472206115723},"countryCode":"NL","name":"Groningen","stationCode":"GN","uicCode":"8400263"},{"coordinate":{"lat":53.2486292,"lng":6.4062361},"countryCode":"NL","name":"Zuidhorn","stationCode":"ZH","uicCode":"8400743"}],"direction":"BOTH","operators":["Arriva"]},"description":"er rijden bussen","level":"LESS_TRAINS"},"sectionType":"NL"}],"summaryAdditionalTravelTime":{"label":"De extra reistijd is ongeveer 15 minuten.","shortLabel":"Extra reistijd 15 min.","minimumDurationInMinutes":15,"maximumDurationInMinutes":15},"timespans":[{"start":"2025-06-14T04:00:00+0200","end":"2025-07-13T02:00:00+0200","period":"Zaterdag 14 juni 4:00 uur t/m zondag 13 juli 2:00 uur.","situation":{"label":"Door werkzaamheden: tussen Groningen en Zuidhorn rijden er bussen."},"cause":{"label":"werkzaamheden"},"additionalTravelTime":{"label":"De extra reistijd is ongeveer 15 minuten.","shortLabel":"Extra reistijd 15 min.","minimumDurationInMinutes":15,"maximumDurationInMinutes":15},"alternativeTransport":{"label":"er rijden stopbussen","shortLabel":"er rijden stopbussen"},"advices":["Deze werkzaamheden vallen samen met de 64-daagse Groningen-Groningen Europapark."]}],"alternativeTransportTimespans":[{"start":"2025-06-14T04:00:00+0200","end":"2025-07-13T02:00:00+0200","alternativeTransport":{"location":[{"station":{"coordinate":{"lat":53.2105560302734,"lng":6.56472206115723},"countryCode":"NL","name":"Groningen","stationCode":"GN","uicCode":"8400263"},"description":"vanaf het busstation halte AB"},{"station":{"coordinate":{"lat":53.2486292,"lng":6.4062361},"countryCode":"NL","name":"Zuidhorn","stationCode":"ZH","uicCode":"8400743"},"description":"vanaf het busstation"}],"label":"Er rijden stopbussen tussen Groningen en Zuidhorn.","shortLabel":"Er rijden stopbussen Groningen - Zuidhorn."}}]},{"type":"MAINTENANCE","id":"7006395","title":"Enschede - Gronau - Dortmund.","isActive":true,"local":false,"titleSections":[[{"type":"STATION","value":"Enschede"},{"type":"STATION","value":"Lünen Hbf"},{"type":"ICON","value":"MAINTENANCE"},{"type":"STATION","value":"Dortmund Hbf"}]],"registrationTime":"2025-06-05T09:13:26+0200","start":"2025-06-20T21:00:00+0200","releaseTime":"2025-06-05T09:13:26+0200","end":"2025-08-25T21:00:00+0200","period":"Vrijdag 20 juni 21:00 uur t/m maandag 25 augustus 21:00 uur.","impact":{"value":2},"publicationSections":[{"section":{"stations":[{"coordinate":{"lat":52.2224998474121,"lng":6.8899998664856},"countryCode":"NL","name":"Enschede","stationCode":"ES","uicCode":"8400212"},{"coordinate":{"lat":52.2213897705078,"lng":6.95111131668091},"countryCode":"NL","name":"Enschede De Eschmarke","stationCode":"ESE","uicCode":"8400217"},{"coordinate":{"lat":52.2186126708984,"lng":6.97444438934326},"countryCode":"NL","name":"Glanerbrug","stationCode":"GBR","uicCode":"8400262"},{"coordinate":{"lat":52.21521,"lng":7.022109},"countryCode":"D","name":"Gronau (Westf.)","stationCode":"G","uicCode":"8021128"},{"coordinate":{"lat":52.18346,"lng":7.03009},"countryCode":"D","name":"Epe (Westf)","stationCode":"EEPE","uicCode":"8021126"},{"coordinate":{"lat":52.079796120944,"lng":7.01635837554931},"countryCode":"D","name":"Ahaus","stationCode":"EAHS","uicCode":"8021123"},{"coordinate":{"lat":52.034924,"lng":7.088538},"countryCode":"D","name":"Legden","stationCode":"ELGD","uicCode":"8021122"},{"coordinate":{"lat":51.9994672604096,"lng":7.1215009689331},"countryCode":"D","name":"Rosendahl-Holtwick","stationCode":"EHW","uicCode":"8021121"},{"coordinate":{"lat":51.939,"lng":7.1642},"countryCode":"D","name":"Coesfeld (Westf)","stationCode":"ECMF","uicCode":"8021119"},{"coordinate":{"lat":51.8925,"lng":7.187},"countryCode":"D","name":"Lette (Kr Coesfeld)","stationCode":"ELET","uicCode":"8021117"},{"coordinate":{"lat":51.827927,"lng":7.295756},"countryCode":"D","name":"Dülmen","stationCode":"EDULH","uicCode":"8021005"},{"coordinate":{"lat":51.76184,"lng":7.43165},"countryCode":"D","name":"Lüdinghausen","stationCode":"ELDH","uicCode":"8021113"},{"coordinate":{"lat":51.707885,"lng":7.453396},"countryCode":"D","name":"Selm","stationCode":"ESEM","uicCode":"8021112"},{"coordinate":{"lat":51.692947,"lng":7.454829},"countryCode":"D","name":"Selm-Beifang","stationCode":"ESEB","uicCode":"8021120"},{"coordinate":{"lat":51.66988,"lng":7.45664},"countryCode":"D","name":"Bork (Westf)","stationCode":"EBOK","uicCode":"8021111"},{"coordinate":{"lat":51.61713,"lng":7.52949},"countryCode":"D","name":"Lünen Hbf","stationCode":"ELUE","uicCode":"8010098"},{"coordinate":{"lat":51.58833,"lng":7.53933},"countryCode":"D","name":"Preussen","stationCode":"EPRN","uicCode":"8010100"},{"coordinate":{"lat":51.56754,"lng":7.52855},"countryCode":"D","name":"Dortmund-Derne","stationCode":"EDD","uicCode":"8010101"},{"coordinate":{"lat":51.547076,"lng":7.510099},"countryCode":"D","name":"Dortmund-Kirchderne","stationCode":"EDKD","uicCode":"8010102"},{"coordinate":{"lat":51.517896,"lng":7.45929},"countryCode":"D","name":"Dortmund Hbf","stationCode":"EDO","uicCode":"8010053"}],"direction":"BOTH","operators":["DB"]},"consequence":{"section":{"stations":[{"coordinate":{"lat":51.61713,"lng":7.52949},"countryCode":"D","name":"Lünen Hbf","stationCode":"ELUE","uicCode":"8010098"},{"coordinate":{"lat":51.58833,"lng":7.53933},"countryCode":"D","name":"Preussen","stationCode":"EPRN","uicCode":"8010100"},{"coordinate":{"lat":51.56754,"lng":7.52855},"countryCode":"D","name":"Dortmund-Derne","stationCode":"EDD","uicCode":"8010101"},{"coordinate":{"lat":51.547076,"lng":7.510099},"countryCode":"D","name":"Dortmund-Kirchderne","stationCode":"EDKD","uicCode":"8010102"},{"coordinate":{"lat":51.517896,"lng":7.45929},"countryCode":"D","name":"Dortmund Hbf","stationCode":"EDO","uicCode":"8010053"}],"direction":"BOTH","operators":["DB"]},"description":"er rijden bussen","level":"LESS_TRAINS"},"sectionType":"NEIGHBORING_COUNTRY"}],"summaryAdditionalTravelTime":{"label":"De extra reistijd kan oplopen tot 45 minuten.","shortLabel":"Extra reistijd tot 45 min.","maximumDurationInMinutes":45},"timespans":[{"start":"2025-06-20T21:00:00+0200","end":"2025-08-25T21:00:00+0200","period":"Vrijdag 20 juni 21:00 uur t/m maandag 25 augustus 21:00 uur.","situation":{"label":"Door werkzaamheden: tussen Lünen Hbf en Dortmund Hbf rijden er bussen."},"cause":{"label":"werkzaamheden"},"additionalTravelTime":{"label":"De extra reistijd kan oplopen tot 45 minuten.","shortLabel":"Extra reistijd tot 45 min.","maximumDurationInMinutes":45},"advices":["In deze periode rijden op verschillende tijden bussen tussen Lüdinghausen/Lünen en Dortmund Hbf. Raadpleeg ook zuginfo.nrw."]}],"alternativeTransportTimespans":[]},{"type":"MAINTENANCE","id":"7006555","title":"Arnhem - Duisburg - Düsseldorf.","isActive":true,"local":false,"titleSections":[[{"type":"STATION","value":"Arnhem C."},{"type":"ICON","value":"MAINTENANCE"},{"type":"STATION","value":"Oberhausen Hbf"},{"type":"STATION","value":"Düsseldorf Hbf"}]],"registrationTime":"2025-06-25T13:28:35+0200","start":"2025-06-27T19:50:00+0200","releaseTime":"2025-06-25T13:28:35+0200","end":"2025-08-25T00:00:00+0200","period":"Vrijdag 27 juni 19:50 uur t/m maandag 25 augustus 0:00 uur.","impact":{"value":3},"publicationSections":[{"section":{"stations":[{"coordinate":{"lat":51.9850006103516,"lng":5.89916658401489},"countryCode":"NL","name":"Arnhem Centraal","stationCode":"AH","uicCode":"8400071"},{"coordinate":{"lat":51.985279083252,"lng":5.91944456100464},"countryCode":"NL","name":"Arnhem Velperpoort","stationCode":"AHP","uicCode":"8400072"},{"coordinate":{"lat":51.96286,"lng":5.9695},"countryCode":"NL","name":"Westervoort","stationCode":"WTV","uicCode":"8400688"},{"coordinate":{"lat":51.9433326721191,"lng":6.01472234725952},"countryCode":"NL","name":"Duiven","stationCode":"DVN","uicCode":"8400193"},{"coordinate":{"lat":51.9230537414551,"lng":6.07194423675537},"countryCode":"NL","name":"Zevenaar","stationCode":"ZV","uicCode":"8400735"},{"coordinate":{"lat":51.8743,"lng":6.15417},"countryCode":"D","name":"Emmerich-Elten","stationCode":"EL","uicCode":"8033415"},{"coordinate":{"lat":51.834283,"lng":6.255718},"countryCode":"D","name":"Emmerich","stationCode":"EM","uicCode":"8010288"},{"coordinate":{"lat":51.655833,"lng":6.627222},"countryCode":"D","name":"Wesel","stationCode":"WESEL","uicCode":"8010275"},{"coordinate":{"lat":51.47512,"lng":6.852038},"countryCode":"D","name":"Oberhausen Hbf","stationCode":"OBERH","uicCode":"8010263"},{"coordinate":{"lat":51.4297785713316,"lng":6.77590370178222},"countryCode":"D","name":"Duisburg Hbf","stationCode":"DUISB","uicCode":"8010316"},{"coordinate":{"lat":51.292009,"lng":6.786836},"countryCode":"D","name":"Düsseldorf Flughafen","stationCode":"KDFFH","uicCode":"8039904"},{"coordinate":{"lat":51.220146,"lng":6.793137},"countryCode":"D","name":"Düsseldorf Hbf","stationCode":"DUSSEL","uicCode":"8008094"}],"direction":"BOTH","operators":["VIAS"]},"consequence":{"section":{"stations":[{"coordinate":{"lat":51.9850006103516,"lng":5.89916658401489},"countryCode":"NL","name":"Arnhem Centraal","stationCode":"AH","uicCode":"8400071"},{"coordinate":{"lat":51.985279083252,"lng":5.91944456100464},"countryCode":"NL","name":"Arnhem Velperpoort","stationCode":"AHP","uicCode":"8400072"},{"coordinate":{"lat":51.96286,"lng":5.9695},"countryCode":"NL","name":"Westervoort","stationCode":"WTV","uicCode":"8400688"},{"coordinate":{"lat":51.9433326721191,"lng":6.01472234725952},"countryCode":"NL","name":"Duiven","stationCode":"DVN","uicCode":"8400193"},{"coordinate":{"lat":51.9230537414551,"lng":6.07194423675537},"countryCode":"NL","name":"Zevenaar","stationCode":"ZV","uicCode":"8400735"},{"coordinate":{"lat":51.8743,"lng":6.15417},"countryCode":"D","name":"Emmerich-Elten","stationCode":"EL","uicCode":"8033415"},{"coordinate":{"lat":51.834283,"lng":6.255718},"countryCode":"D","name":"Emmerich","stationCode":"EM","uicCode":"8010288"},{"coordinate":{"lat":51.655833,"lng":6.627222},"countryCode":"D","name":"Wesel","stationCode":"WESEL","uicCode":"8010275"},{"coordinate":{"lat":51.47512,"lng":6.852038},"countryCode":"D","name":"Oberhausen Hbf","stationCode":"OBERH","uicCode":"8010263"}],"direction":"BOTH","operators":["VIAS"]},"description":"er rijden bussen","level":"LESS_TRAINS"},"sectionType":"NEIGHBORING_COUNTRY"}],"summaryAdditionalTravelTime":{"label":"De extra reistijd is ongeveer 45 minuten.","shortLabel":"Extra reistijd 45 min.","minimumDurationInMinutes":45,"maximumDurationInMinutes":45},"timespans":[{"start":"2025-06-27T19:50:00+0200","end":"2025-08-25T00:00:00+0200","period":"Vrijdag 27 juni 19:50 uur t/m maandag 25 augustus 0:00 uur.","situation":{"label":"Door werkzaamheden: tussen Arnhem Centraal en Oberhausen Hbf rijden er bussen."},"cause":{"label":"werkzaamheden"},"additionalTravelTime":{"label":"De extra reistijd is ongeveer 45 minuten.","shortLabel":"Extra reistijd 45 min.","minimumDurationInMinutes":45,"maximumDurationInMinutes":45},"alternativeTransport":{"label":"er rijden bussen","shortLabel":"er rijden bussen"},"advices":["Vanaf Emmerich rijden ook stopbussen naar Wesel en Oberhausen Hbf. Ook ICE International rijdt niet via deze grensovergang, wel via Venlo."]}],"alternativeTransportTimespans":[{"start":"2025-06-27T19:50:00+0200","end":"2025-08-25T00:00:00+0200","alternativeTransport":{"location":[{"station":{"coordinate":{"lat":51.9850006103516,"lng":5.89916658401489},"countryCode":"NL","name":"Arnhem Centraal","stationCode":"AH","uicCode":"8400071"},"description":"vanaf bushalte L of H"},{"station":{"coordinate":{"lat":51.9230537414551,"lng":6.07194423675537},"countryCode":"NL","name":"Zevenaar","stationCode":"ZV","uicCode":"8400735"},"description":"vanaf het stationsplein bij de Kiss & Ride plaatsen, aan beide zijden van de weg"},{"station":{"coordinate":{"lat":51.8743,"lng":6.15417},"countryCode":"D","name":"Emmerich-Elten","stationCode":"EL","uicCode":"8033415"},"description":"volg de aanwijzingen op het station"},{"station":{"coordinate":{"lat":51.834283,"lng":6.255718},"countryCode":"D","name":"Emmerich","stationCode":"EM","uicCode":"8010288"},"description":"volg de aanwijzingen op het station"},{"station":{"coordinate":{"lat":51.655833,"lng":6.627222},"countryCode":"D","name":"Wesel","stationCode":"WESEL","uicCode":"8010275"},"description":"volg de aanwijzingen op het station"},{"station":{"coordinate":{"lat":51.47512,"lng":6.852038},"countryCode":"D","name":"Oberhausen Hbf","stationCode":"OBERH","uicCode":"8010263"},"description":"volg de aanwijzingen op het station"}],"label":"Er rijden bussen tussen Arnhem Centraal, Zevenaar, Emmerich-Elten, Emmerich, Wesel en Oberhausen Hbf.","shortLabel":"Er rijden bussen Arnhem C. - Zevenaar - Emmerich-Elten - Emmerich - Wesel - Oberhausen Hbf."}}]},{"type":"MAINTENANCE","id":"7006398","title":"Venlo - Mönchengladbach - Düsseldorf.","isActive":true,"local":false,"titleSections":[[{"type":"STATION","value":"Venlo"},{"type":"ICON","value":"MAINTENANCE"},{"type":"STATION","value":"Mönchengladbach"},{"type":"STATION","value":"Düsseldorf Hbf"}]],"registrationTime":"2025-06-25T13:36:54+0200","start":"2025-06-27T21:00:00+0200","releaseTime":"2025-06-25T13:36:54+0200","end":"2025-08-25T02:00:00+0200","period":"Vrijdag 27 juni 21:00 uur t/m maandag 25 augustus 2:00 uur.","impact":{"value":2},"publicationSections":[{"section":{"stations":[{"coordinate":{"lat":51.3636093139648,"lng":6.17277765274048},"countryCode":"NL","name":"Venlo","stationCode":"VL","uicCode":"8400644"},{"coordinate":{"lat":51.327184,"lng":6.203225},"countryCode":"D","name":"Kaldenkirchen","stationCode":"KN","uicCode":"8015130"},{"coordinate":{"lat":51.294615,"lng":6.241174},"countryCode":"D","name":"Breyell","stationCode":"KBRY","uicCode":"8015129"},{"coordinate":{"lat":51.274323,"lng":6.274591},"countryCode":"D","name":"Boisheim","stationCode":"KBOI","uicCode":"8015128"},{"coordinate":{"lat":51.257149,"lng":6.33793},"countryCode":"D","name":"Dülken","stationCode":"KDUL","uicCode":"8015125"},{"coordinate":{"lat":51.25516,"lng":6.40388},"countryCode":"D","name":"Viersen","stationCode":"VIERS","uicCode":"8015122"},{"coordinate":{"lat":51.196583,"lng":6.446111},"countryCode":"D","name":"Mönchengladbach Hbf","stationCode":"MCGB","uicCode":"8015165"},{"coordinate":{"lat":51.20444,"lng":6.68468},"countryCode":"D","name":"Neuss Hbf","stationCode":"NEUSS","uicCode":"8015149"},{"coordinate":{"lat":51.220146,"lng":6.793137},"countryCode":"D","name":"Düsseldorf Hbf","stationCode":"DUSSEL","uicCode":"8008094"}],"direction":"BOTH","operators":["Eurobahn"]},"consequence":{"section":{"stations":[{"coordinate":{"lat":51.3636093139648,"lng":6.17277765274048},"countryCode":"NL","name":"Venlo","stationCode":"VL","uicCode":"8400644"},{"coordinate":{"lat":51.327184,"lng":6.203225},"countryCode":"D","name":"Kaldenkirchen","stationCode":"KN","uicCode":"8015130"},{"coordinate":{"lat":51.294615,"lng":6.241174},"countryCode":"D","name":"Breyell","stationCode":"KBRY","uicCode":"8015129"},{"coordinate":{"lat":51.274323,"lng":6.274591},"countryCode":"D","name":"Boisheim","stationCode":"KBOI","uicCode":"8015128"},{"coordinate":{"lat":51.257149,"lng":6.33793},"countryCode":"D","name":"Dülken","stationCode":"KDUL","uicCode":"8015125"},{"coordinate":{"lat":51.25516,"lng":6.40388},"countryCode":"D","name":"Viersen","stationCode":"VIERS","uicCode":"8015122"},{"coordinate":{"lat":51.196583,"lng":6.446111},"countryCode":"D","name":"Mönchengladbach Hbf","stationCode":"MCGB","uicCode":"8015165"}],"direction":"BOTH","operators":["Eurobahn"]},"description":"aangepaste internationale dienstregeling","level":"LESS_TRAINS"},"sectionType":"NEIGHBORING_COUNTRY"}],"summaryAdditionalTravelTime":{"label":"De extra reistijd kan oplopen tot 30 minuten.","shortLabel":"Extra reistijd tot 30 min.","maximumDurationInMinutes":30},"timespans":[{"start":"2025-06-27T21:00:00+0200","end":"2025-08-25T02:00:00+0200","period":"Vrijdag 27 juni 21:00 uur t/m maandag 25 augustus 2:00 uur.","situation":{"label":"Door werkzaamheden: tussen Venlo en Mönchengladbach Hbf is de internationale dienstregeling aangepast."},"cause":{"label":"werkzaamheden"},"additionalTravelTime":{"label":"De extra reistijd kan oplopen tot 30 minuten.","shortLabel":"Extra reistijd tot 30 min.","maximumDurationInMinutes":30},"advices":["In deze periode zijn er doordeweeks werkzaamheden tussen Venlo en Mönchengladbach. Er rijden bussen voor Eurobahn. ICE International rijdt wel."]}],"alternativeTransportTimespans":[]},{"type":"MAINTENANCE","id":"7006544","title":"Amsterdam - Hannover - Berlin.","isActive":true,"local":false,"titleSections":[[{"type":"STATION","value":"Amsterdam C."},{"type":"STATION","value":"Hannover Hbf"},{"type":"ICON","value":"MAINTENANCE"},{"type":"STATION","value":"Berlin Hbf"}]],"registrationTime":"2025-07-02T12:21:18+0200","start":"2025-07-02T05:00:00+0200","releaseTime":"2025-07-02T12:21:18+0200","end":"2025-07-31T23:59:00+0200","period":"Woensdag 2 juli 5:00 uur t/m donderdag 31 juli 23:59 uur.","impact":{"value":2},"publicationSections":[{"section":{"stations":[{"coordinate":{"lat":52.3788871765137,"lng":4.90027761459351},"countryCode":"NL","name":"Amsterdam Centraal","stationCode":"ASD","uicCode":"8400058"},{"coordinate":{"lat":52.3605537414551,"lng":4.93111133575439},"countryCode":"NL","name":"Amsterdam Muiderpoort","stationCode":"ASDM","uicCode":"8400060"},{"coordinate":{"lat":52.35274,"lng":4.94855},"countryCode":"NL","name":"Amsterdam Science Park","stationCode":"ASSP","uicCode":"8400235"},{"coordinate":{"lat":52.34515,"lng":4.967566},"countryCode":"NL","name":"Diemen","stationCode":"DMN","uicCode":"8400165"},{"coordinate":{"lat":52.3127784729004,"lng":5.04305553436279},"countryCode":"NL","name":"Weesp","stationCode":"WP","uicCode":"8400685"},{"coordinate":{"lat":52.2802772521973,"lng":5.15694427490234},"countryCode":"NL","name":"Naarden-Bussum","stationCode":"NDB","uicCode":"8400452"},{"coordinate":{"lat":52.2658348083496,"lng":5.16305541992188},"countryCode":"NL","name":"Bussum Zuid","stationCode":"BSMZ","uicCode":"8400145"},{"coordinate":{"lat":52.2380561828613,"lng":5.17388868331909},"countryCode":"NL","name":"Hilversum Media Park","stationCode":"HVSM","uicCode":"8400324"},{"coordinate":{"lat":52.2258338928223,"lng":5.18194437026978},"countryCode":"NL","name":"Hilversum","stationCode":"HVS","uicCode":"8400322"},{"coordinate":{"lat":52.2083320617676,"lng":5.28083324432373},"countryCode":"NL","name":"Baarn","stationCode":"BRN","uicCode":"8400086"},{"coordinate":{"lat":52.1538887023926,"lng":5.37055540084839},"countryCode":"NL","name":"Amersfoort Centraal","stationCode":"AMF","uicCode":"8400055"},{"coordinate":{"lat":52.16652,"lng":5.45718},"countryCode":"NL","name":"Hoevelaken","stationCode":"HVL","uicCode":"8400490"},{"coordinate":{"lat":52.2091674804687,"lng":5.97027778625488},"countryCode":"NL","name":"Apeldoorn","stationCode":"APD","uicCode":"8400066"},{"coordinate":{"lat":52.2152786254883,"lng":6.00444459915161},"countryCode":"NL","name":"Apeldoorn Osseveld","stationCode":"APDO","uicCode":"8400229"},{"coordinate":{"lat":52.2377777099609,"lng":6.09861087799072},"countryCode":"NL","name":"Twello","stationCode":"TWL","uicCode":"8400599"},{"coordinate":{"lat":52.2574996948242,"lng":6.16055536270142},"countryCode":"NL","name":"Deventer","stationCode":"DV","uicCode":"8400173"},{"coordinate":{"lat":52.2502784729004,"lng":6.21444463729858},"countryCode":"NL","name":"Deventer Colmschate","stationCode":"DVC","uicCode":"8400185"},{"coordinate":{"lat":52.2838897705078,"lng":6.42027759552002},"countryCode":"NL","name":"Holten","stationCode":"HON","uicCode":"8400328"},{"coordinate":{"lat":52.3122215270996,"lng":6.52027797698975},"countryCode":"NL","name":"Rijssen","stationCode":"RSN","uicCode":"8400538"},{"coordinate":{"lat":52.3613891601562,"lng":6.59166669845581},"countryCode":"NL","name":"Wierden","stationCode":"WDN","uicCode":"8400691"},{"coordinate":{"lat":52.3580551147461,"lng":6.65388870239258},"countryCode":"NL","name":"Almelo","stationCode":"AML","uicCode":"8400051"},{"coordinate":{"lat":52.3419456481934,"lng":6.66666650772095},"countryCode":"NL","name":"Almelo de Riet","stationCode":"AMRI","uicCode":"8400520"},{"coordinate":{"lat":52.2988891601562,"lng":6.74805545806885},"countryCode":"NL","name":"Borne","stationCode":"BN","uicCode":"8400124"},{"coordinate":{"lat":52.2616653442383,"lng":6.79388904571533},"countryCode":"NL","name":"Hengelo","stationCode":"HGL","uicCode":"8400316"},{"coordinate":{"lat":52.2688903808594,"lng":6.81944465637207},"countryCode":"NL","name":"Hengelo Oost","stationCode":"HGLO","uicCode":"8400312"},{"coordinate":{"lat":52.3063888549805,"lng":6.93472242355347},"countryCode":"NL","name":"Oldenzaal","stationCode":"ODZ","uicCode":"8400483"},{"coordinate":{"lat":52.309685595156,"lng":7.15853691101074},"countryCode":"D","name":"Bad Bentheim","stationCode":"BH","uicCode":"8021156"},{"coordinate":{"lat":52.276299,"lng":7.434255},"countryCode":"D","name":"Rheine","stationCode":"RHEINE","uicCode":"8021067"},{"coordinate":{"lat":52.272851,"lng":8.061781},"countryCode":"D","name":"Osnabrück Hbf","stationCode":"OSNH","uicCode":"8021025"},{"coordinate":{"lat":52.3770401,"lng":9.7416759},"countryCode":"D","name":"Hannover Hbf","stationCode":"HANN","uicCode":"8013552"},{"coordinate":{"lat":52.52503,"lng":13.36946},"countryCode":"D","name":"Berlin Hbf","stationCode":"BERHBL","uicCode":"8065969"}],"direction":"BOTH","operators":["NS Int"]},"consequence":{"section":{"stations":[{"coordinate":{"lat":52.3770401,"lng":9.7416759},"countryCode":"D","name":"Hannover Hbf","stationCode":"HANN","uicCode":"8013552"},{"coordinate":{"lat":52.52503,"lng":13.36946},"countryCode":"D","name":"Berlin Hbf","stationCode":"BERHBL","uicCode":"8065969"}],"direction":"BOTH","operators":["NS Int"]},"description":"aangepaste internationale dienstregeling","level":"LESS_TRAINS"},"sectionType":"NEIGHBORING_COUNTRY"}],"summaryAdditionalTravelTime":{"label":"U heeft geen langere reistijd.","shortLabel":"Geen extra reistijd."},"timespans":[{"start":"2025-07-02T05:00:00+0200","end":"2025-07-31T23:59:00+0200","period":"Woensdag 2 juli 5:00 uur t/m donderdag 31 juli 23:59 uur.","situation":{"label":"Door werkzaamheden: tussen Hannover Hbf en Berlin Hbf is de internationale dienstregeling aangepast."},"cause":{"label":"werkzaamheden"},"additionalTravelTime":{"label":"U heeft geen langere reistijd.","shortLabel":"Geen extra reistijd."},"advices":["IC Berlijn rijdt niet verder dan Hannover  Hbf. Reis tussen Hannover Hbf en Berlin Ostbahnhof met overige IC's of ICE."]}],"alternativeTransportTimespans":[]},{"type":"MAINTENANCE","id":"7006592","title":"Rotterdam - Breda.","isActive":true,"local":false,"titleSections":[[{"type":"STATION","value":"Rotterdam C."},{"type":"ICON","value":"MAINTENANCE"},{"type":"STATION","value":"Breda"}]],"registrationTime":"2025-07-02T15:43:21+0200","start":"2025-07-03T07:00:00+0200","releaseTime":"2025-07-02T15:43:38+0200","end":"2025-07-10T08:30:00+0200","period":"Donderdag 3 juli 7:00 uur t/m donderdag 10 juli 8:30 uur.","impact":{"value":2},"publicationSections":[{"section":{"stations":[{"coordinate":{"lat":51.9249992370605,"lng":4.46888875961304},"countryCode":"NL","name":"Rotterdam Centraal","stationCode":"RTD","uicCode":"8400530"},{"coordinate":{"lat":51.9202766418457,"lng":4.48888874053955},"countryCode":"NL","name":"Rotterdam Blaak","stationCode":"RTB","uicCode":"8400529"},{"coordinate":{"lat":51.9044456481934,"lng":4.51027774810791},"countryCode":"NL","name":"Rotterdam Zuid","stationCode":"RTZ","uicCode":"8400533"},{"coordinate":{"lat":51.8800010681152,"lng":4.53138875961304},"countryCode":"NL","name":"Rotterdam Lombardijen","stationCode":"RLB","uicCode":"8400542"},{"coordinate":{"lat":51.606388092041,"lng":4.72083330154419},"countryCode":"NL","name":"Breda-Prinsenbeek","stationCode":"BDPB","uicCode":"8400132"},{"coordinate":{"lat":51.5955543518066,"lng":4.78000020980835},"countryCode":"NL","name":"Breda","stationCode":"BD","uicCode":"8400131"}],"direction":"ONE_WAY","operators":["NS Int"]},"consequence":{"section":{"stations":[{"coordinate":{"lat":51.9249992370605,"lng":4.46888875961304},"countryCode":"NL","name":"Rotterdam Centraal","stationCode":"RTD","uicCode":"8400530"},{"coordinate":{"lat":51.9202766418457,"lng":4.48888874053955},"countryCode":"NL","name":"Rotterdam Blaak","stationCode":"RTB","uicCode":"8400529"},{"coordinate":{"lat":51.9044456481934,"lng":4.51027774810791},"countryCode":"NL","name":"Rotterdam Zuid","stationCode":"RTZ","uicCode":"8400533"},{"coordinate":{"lat":51.8800010681152,"lng":4.53138875961304},"countryCode":"NL","name":"Rotterdam Lombardijen","stationCode":"RLB","uicCode":"8400542"},{"coordinate":{"lat":51.606388092041,"lng":4.72083330154419},"countryCode":"NL","name":"Breda-Prinsenbeek","stationCode":"BDPB","uicCode":"8400132"},{"coordinate":{"lat":51.5955543518066,"lng":4.78000020980835},"countryCode":"NL","name":"Breda","stationCode":"BD","uicCode":"8400131"}],"direction":"ONE_WAY","operators":["NS Int"]},"description":"extra drukte vanwege een omreisroute","level":"LESS_TRAINS"},"sectionType":"HSL"}],"summaryAdditionalTravelTime":{"label":"De extra reistijd kan oplopen tot 15 minuten.","shortLabel":"Extra reistijd tot 15 min.","minimumDurationInMinutes":15,"maximumDurationInMinutes":15},"timespans":[{"start":"2025-07-09T07:00:00+0200","end":"2025-07-09T08:30:00+0200","period":"Woensdag 9 juli 7:00 uur t/m woensdag 9 juli 8:30 uur.","situation":{"label":"Door grote drukte: van Breda naar Rotterdam Centraal zijn er volle treinen en mogelijk een langere reistijd."},"cause":{"label":"grote drukte"},"additionalTravelTime":{"label":"De extra reistijd is ongeveer 15 minuten.","shortLabel":"Extra reistijd 15 min.","minimumDurationInMinutes":15,"maximumDurationInMinutes":15},"advices":["Erg drukke treinen van Breda naar Rotterdam C. Gebruik ook de EuroCity en Intercity direct. Deze zijn tot Rotterdam C zonder toeslag."]},{"start":"2025-07-10T07:00:00+0200","end":"2025-07-10T08:30:00+0200","period":"Donderdag 10 juli 7:00 uur t/m donderdag 10 juli 8:30 uur.","situation":{"label":"Door grote drukte: van Breda naar Rotterdam Centraal zijn er volle treinen en mogelijk een langere reistijd."},"cause":{"label":"grote drukte"},"additionalTravelTime":{"label":"De extra reistijd is ongeveer 15 minuten.","shortLabel":"Extra reistijd 15 min.","minimumDurationInMinutes":15,"maximumDurationInMinutes":15},"advices":["Erg drukke treinen van Breda naar Rotterdam C. Gebruik ook de EuroCity en Intercity direct. Deze zijn tot Rotterdam C zonder toeslag."]}],"alternativeTransportTimespans":[]},{"type":"MAINTENANCE","id":"7006329","title":"Schiphol - Lelystad; Schiphol - Amersfoort.","isActive":true,"local":false,"titleSections":[[{"type":"STATION","value":"Schiphol Airport"},{"type":"STATION","value":"RAI"},{"type":"ICON","value":"MAINTENANCE"},{"type":"STATION","value":"Diemen Zuid"},{"type":"STATION","value":"Amersfoort C."}],[{"type":"STATION","value":"Schiphol Airport"},{"type":"STATION","value":"RAI"},{"type":"ICON","value":"MAINTENANCE"},{"type":"STATION","value":"Diemen Zuid"},{"type":"STATION","value":"Lelystad C."}]],"registrationTime":"2025-07-08T11:00:05+0200","start":"2025-07-07T01:00:00+0200","releaseTime":"2025-07-08T11:00:05+0200","end":"2025-07-12T01:00:00+0200","period":"Maandag 7 juli 1:00 uur t/m zaterdag 12 juli 1:00 uur.","impact":{"value":4},"publicationSections":[{"section":{"stations":[{"coordinate":{"lat":52.3094444274902,"lng":4.76194429397583},"countryCode":"NL","name":"Schiphol Airport","stationCode":"SHL","uicCode":"8400561"},{"coordinate":{"lat":52.338889,"lng":4.872356},"countryCode":"NL","name":"Amsterdam Zuid","stationCode":"ASDZ","uicCode":"8400061"},{"coordinate":{"lat":52.3372230529785,"lng":4.89027786254883},"countryCode":"NL","name":"Amsterdam RAI","stationCode":"RAI","uicCode":"8400056"},{"coordinate":{"lat":52.3233337402344,"lng":4.93638896942139},"countryCode":"NL","name":"Duivendrecht","stationCode":"DVD","uicCode":"8400194"},{"coordinate":{"lat":52.3302764892578,"lng":4.95583343505859},"countryCode":"NL","name":"Diemen Zuid","stationCode":"DMNZ","uicCode":"8400163"},{"coordinate":{"lat":52.3127784729004,"lng":5.04305553436279},"countryCode":"NL","name":"Weesp","stationCode":"WP","uicCode":"8400685"},{"coordinate":{"lat":52.2802772521973,"lng":5.15694427490234},"countryCode":"NL","name":"Naarden-Bussum","stationCode":"NDB","uicCode":"8400452"},{"coordinate":{"lat":52.2658348083496,"lng":5.16305541992188},"countryCode":"NL","name":"Bussum Zuid","stationCode":"BSMZ","uicCode":"8400145"},{"coordinate":{"lat":52.2380561828613,"lng":5.17388868331909},"countryCode":"NL","name":"Hilversum Media Park","stationCode":"HVSM","uicCode":"8400324"},{"coordinate":{"lat":52.2258338928223,"lng":5.18194437026978},"countryCode":"NL","name":"Hilversum","stationCode":"HVS","uicCode":"8400322"},{"coordinate":{"lat":52.2083320617676,"lng":5.28083324432373},"countryCode":"NL","name":"Baarn","stationCode":"BRN","uicCode":"8400086"},{"coordinate":{"lat":52.1538887023926,"lng":5.37055540084839},"countryCode":"NL","name":"Amersfoort Centraal","stationCode":"AMF","uicCode":"8400055"}],"direction":"BOTH","operators":["NS"]},"consequence":{"section":{"stations":[{"coordinate":{"lat":52.3372230529785,"lng":4.89027786254883},"countryCode":"NL","name":"Amsterdam RAI","stationCode":"RAI","uicCode":"8400056"},{"coordinate":{"lat":52.3233337402344,"lng":4.93638896942139},"countryCode":"NL","name":"Duivendrecht","stationCode":"DVD","uicCode":"8400194"},{"coordinate":{"lat":52.3302764892578,"lng":4.95583343505859},"countryCode":"NL","name":"Diemen Zuid","stationCode":"DMNZ","uicCode":"8400163"}],"direction":"BOTH","operators":["NS"]},"description":"metro ipv trein","level":"LESS_TRAINS"},"sectionType":"NL"},{"section":{"stations":[{"coordinate":{"lat":52.3094444274902,"lng":4.76194429397583},"countryCode":"NL","name":"Schiphol Airport","stationCode":"SHL","uicCode":"8400561"},{"coordinate":{"lat":52.338889,"lng":4.872356},"countryCode":"NL","name":"Amsterdam Zuid","stationCode":"ASDZ","uicCode":"8400061"},{"coordinate":{"lat":52.3372230529785,"lng":4.89027786254883},"countryCode":"NL","name":"Amsterdam RAI","stationCode":"RAI","uicCode":"8400056"},{"coordinate":{"lat":52.3233337402344,"lng":4.93638896942139},"countryCode":"NL","name":"Duivendrecht","stationCode":"DVD","uicCode":"8400194"},{"coordinate":{"lat":52.3302764892578,"lng":4.95583343505859},"countryCode":"NL","name":"Diemen Zuid","stationCode":"DMNZ","uicCode":"8400163"},{"coordinate":{"lat":52.3127784729004,"lng":5.04305553436279},"countryCode":"NL","name":"Weesp","stationCode":"WP","uicCode":"8400685"},{"coordinate":{"lat":52.342778,"lng":5.151944},"countryCode":"NL","name":"Almere Poort","stationCode":"AMPO","uicCode":"8400450"},{"coordinate":{"lat":52.3675003051758,"lng":5.19027757644653},"countryCode":"NL","name":"Almere Muziekwijk","stationCode":"ALMM","uicCode":"8400082"},{"coordinate":{"lat":52.37503,"lng":5.21764},"countryCode":"NL","name":"Almere Centrum","stationCode":"ALM","uicCode":"8400080"},{"coordinate":{"lat":52.3766670227051,"lng":5.24472236633301},"countryCode":"NL","name":"Almere Parkwijk","stationCode":"ALMP","uicCode":"8400104"},{"coordinate":{"lat":52.3941650390625,"lng":5.2780556678772},"countryCode":"NL","name":"Almere Buiten","stationCode":"ALMB","uicCode":"8400081"},{"coordinate":{"lat":52.4033317565918,"lng":5.30055570602417},"countryCode":"NL","name":"Almere Oostvaarders","stationCode":"ALMO","uicCode":"8400226"},{"coordinate":{"lat":52.5077781677246,"lng":5.47277784347534},"countryCode":"NL","name":"Lelystad Centrum","stationCode":"LLS","uicCode":"8400394"}],"direction":"BOTH","operators":["NS"]},"consequence":{"section":{"stations":[{"coordinate":{"lat":52.3372230529785,"lng":4.89027786254883},"countryCode":"NL","name":"Amsterdam RAI","stationCode":"RAI","uicCode":"8400056"},{"coordinate":{"lat":52.3233337402344,"lng":4.93638896942139},"countryCode":"NL","name":"Duivendrecht","stationCode":"DVD","uicCode":"8400194"},{"coordinate":{"lat":52.3302764892578,"lng":4.95583343505859},"countryCode":"NL","name":"Diemen Zuid","stationCode":"DMNZ","uicCode":"8400163"}],"direction":"BOTH","operators":["NS"]},"description":"metro ipv trein","level":"LESS_TRAINS"},"sectionType":"NL"}],"summaryAdditionalTravelTime":{"label":"De extra reistijd is ongeveer 15 minuten.","shortLabel":"Extra reistijd 15 min.","minimumDurationInMinutes":15,"maximumDurationInMinutes":15},"timespans":[{"start":"2025-07-07T01:00:00+0200","end":"2025-07-12T01:00:00+0200","period":"Maandag 7 juli 1:00 uur t/m zaterdag 12 juli 1:00 uur.","situation":{"label":"Door werkzaamheden: tussen Amsterdam RAI en Diemen Zuid gebruik de metro in plaats van trein."},"cause":{"label":"werkzaamheden"},"additionalTravelTime":{"label":"De extra reistijd is ongeveer 15 minuten.","shortLabel":"Extra reistijd 15 min.","minimumDurationInMinutes":15,"maximumDurationInMinutes":15},"advices":["Uw NS-vervoerbewijs is geldig in de metro M50 tussen RAI en vd Madeweg en M53 tussen vd Madeweg en Diemen Zuid en M52 tussen Centraal en Zuid.","Tussen Schiphol Airport en Amersfoort C./Hilversum reis via Utrecht C.","Tussen Schiphol Airport en Almere C./Lelystad C. reis via Amsterdam C."]}],"alternativeTransportTimespans":[]},{"type":"MAINTENANCE","id":"7006414","title":"Amsterdam - Schiphol - Hoofddorp.","isActive":true,"local":false,"titleSections":[[{"type":"STATION","value":"Amsterdam C."},{"type":"ICON","value":"MAINTENANCE"},{"type":"STATION","value":"Schiphol Airport"},{"type":"STATION","value":"Hoofddorp"}]],"registrationTime":"2025-06-10T20:35:37+0200","start":"2025-07-07T05:00:00+0200","releaseTime":"2025-06-10T20:35:37+0200","end":"2025-07-14T03:00:00+0200","period":"Maandag 7 juli 5:00 uur t/m maandag 14 juli 3:00 uur.","impact":{"value":2},"publicationSections":[{"section":{"stations":[{"coordinate":{"lat":52.3788871765137,"lng":4.90027761459351},"countryCode":"NL","name":"Amsterdam Centraal","stationCode":"ASD","uicCode":"8400058"},{"coordinate":{"lat":52.3888893127441,"lng":4.83777761459351},"countryCode":"NL","name":"Amsterdam Sloterdijk","stationCode":"ASS","uicCode":"8400059"},{"coordinate":{"lat":52.3577766418457,"lng":4.83388900756836},"countryCode":"NL","name":"Amsterdam Lelylaan","stationCode":"ASDL","uicCode":"8400079"},{"coordinate":{"lat":52.3094444274902,"lng":4.76194429397583},"countryCode":"NL","name":"Schiphol Airport","stationCode":"SHL","uicCode":"8400561"},{"coordinate":{"lat":52.2933349609375,"lng":4.70055532455444},"countryCode":"NL","name":"Hoofddorp","stationCode":"HFD","uicCode":"8400332"}],"direction":"BOTH","operators":["NS"]},"consequence":{"section":{"stations":[{"coordinate":{"lat":52.3788871765137,"lng":4.90027761459351},"countryCode":"NL","name":"Amsterdam Centraal","stationCode":"ASD","uicCode":"8400058"},{"coordinate":{"lat":52.3888893127441,"lng":4.83777761459351},"countryCode":"NL","name":"Amsterdam Sloterdijk","stationCode":"ASS","uicCode":"8400059"},{"coordinate":{"lat":52.3577766418457,"lng":4.83388900756836},"countryCode":"NL","name":"Amsterdam Lelylaan","stationCode":"ASDL","uicCode":"8400079"},{"coordinate":{"lat":52.3094444274902,"lng":4.76194429397583},"countryCode":"NL","name":"Schiphol Airport","stationCode":"SHL","uicCode":"8400561"}],"direction":"BOTH","operators":["NS"]},"description":"minder Sprinters","level":"LESS_TRAINS"},"sectionType":"NL"}],"summaryAdditionalTravelTime":{"label":"De extra reistijd is meer dan 15 minuten.","shortLabel":"Extra reistijd meer dan 15 min.","minimumDurationInMinutes":15},"timespans":[{"start":"2025-07-07T05:00:00+0200","end":"2025-07-14T03:00:00+0200","period":"Maandag 7 juli 5:00 uur t/m maandag 14 juli 3:00 uur.","situation":{"label":"Door werkzaamheden elders: tussen Amsterdam Centraal en Schiphol Airport rijden er minder Sprinters."},"cause":{"label":"werkzaamheden elders"},"additionalTravelTime":{"label":"De extra reistijd is meer dan 15 minuten.","shortLabel":"Extra reistijd meer dan 15 min.","minimumDurationInMinutes":15},"advices":[]}],"alternativeTransportTimespans":[]},{"type":"MAINTENANCE","id":"7006267","title":"Lelystad Centrum - Rotterdam - Brussel.","isActive":true,"local":false,"titleSections":[[{"type":"STATION","value":"Lelystad C."},{"type":"ICON","value":"MAINTENANCE"},{"type":"STATION","value":"Rotterdam C."},{"type":"STATION","value":"Brussel-Zuid"}]],"registrationTime":"2025-06-27T09:40:55+0200","start":"2025-07-07T06:00:00+0200","releaseTime":"2025-06-27T09:40:55+0200","end":"2025-07-13T23:50:00+0200","period":"Maandag 7 juli 6:00 uur t/m zondag 13 juli 23:50 uur.","impact":{"value":2},"publicationSections":[{"section":{"stations":[{"coordinate":{"lat":52.5077781677246,"lng":5.47277784347534},"countryCode":"NL","name":"Lelystad Centrum","stationCode":"LLS","uicCode":"8400394"},{"coordinate":{"lat":52.4033317565918,"lng":5.30055570602417},"countryCode":"NL","name":"Almere Oostvaarders","stationCode":"ALMO","uicCode":"8400226"},{"coordinate":{"lat":52.3941650390625,"lng":5.2780556678772},"countryCode":"NL","name":"Almere Buiten","stationCode":"ALMB","uicCode":"8400081"},{"coordinate":{"lat":52.3766670227051,"lng":5.24472236633301},"countryCode":"NL","name":"Almere Parkwijk","stationCode":"ALMP","uicCode":"8400104"},{"coordinate":{"lat":52.37503,"lng":5.21764},"countryCode":"NL","name":"Almere Centrum","stationCode":"ALM","uicCode":"8400080"},{"coordinate":{"lat":52.3675003051758,"lng":5.19027757644653},"countryCode":"NL","name":"Almere Muziekwijk","stationCode":"ALMM","uicCode":"8400082"},{"coordinate":{"lat":52.342778,"lng":5.151944},"countryCode":"NL","name":"Almere Poort","stationCode":"AMPO","uicCode":"8400450"},{"coordinate":{"lat":52.3127784729004,"lng":5.04305553436279},"countryCode":"NL","name":"Weesp","stationCode":"WP","uicCode":"8400685"},{"coordinate":{"lat":52.3302764892578,"lng":4.95583343505859},"countryCode":"NL","name":"Diemen Zuid","stationCode":"DMNZ","uicCode":"8400163"},{"coordinate":{"lat":52.3233337402344,"lng":4.93638896942139},"countryCode":"NL","name":"Duivendrecht","stationCode":"DVD","uicCode":"8400194"},{"coordinate":{"lat":52.3372230529785,"lng":4.89027786254883},"countryCode":"NL","name":"Amsterdam RAI","stationCode":"RAI","uicCode":"8400056"},{"coordinate":{"lat":52.338889,"lng":4.872356},"countryCode":"NL","name":"Amsterdam Zuid","stationCode":"ASDZ","uicCode":"8400061"},{"coordinate":{"lat":52.3094444274902,"lng":4.76194429397583},"countryCode":"NL","name":"Schiphol Airport","stationCode":"SHL","uicCode":"8400561"},{"coordinate":{"lat":52.2933349609375,"lng":4.70055532455444},"countryCode":"NL","name":"Hoofddorp","stationCode":"HFD","uicCode":"8400332"},{"coordinate":{"lat":51.9249992370605,"lng":4.46888875961304},"countryCode":"NL","name":"Rotterdam Centraal","stationCode":"RTD","uicCode":"8400530"},{"coordinate":{"lat":51.9202766418457,"lng":4.48888874053955},"countryCode":"NL","name":"Rotterdam Blaak","stationCode":"RTB","uicCode":"8400529"},{"coordinate":{"lat":51.9044456481934,"lng":4.51027774810791},"countryCode":"NL","name":"Rotterdam Zuid","stationCode":"RTZ","uicCode":"8400533"},{"coordinate":{"lat":51.8800010681152,"lng":4.53138875961304},"countryCode":"NL","name":"Rotterdam Lombardijen","stationCode":"RLB","uicCode":"8400542"},{"coordinate":{"lat":51.358088,"lng":4.633977},"countryCode":"B","name":"Noorderkempen","stationCode":"NDKP","uicCode":"8821105"},{"coordinate":{"lat":51.2449375,"lng":4.4251543},"countryCode":"B","name":"Antwerpen-Luchtbal","stationCode":"ATWLB","uicCode":"8821063"},{"coordinate":{"lat":51.21686,"lng":4.421242},"countryCode":"B","name":"Antwerpen-Centraal","stationCode":"ATW","uicCode":"8821006"},{"coordinate":{"lat":51.198914,"lng":4.4332},"countryCode":"B","name":"Antwerpen-Berchem","stationCode":"BERCH","uicCode":"8821121"},{"coordinate":{"lat":51.01758,"lng":4.48313},"countryCode":"B","name":"Mechelen","stationCode":"MECH","uicCode":"8822004"},{"coordinate":{"lat":50.859658,"lng":4.360854},"countryCode":"B","name":"Brussel-Noord","stationCode":"BRUSN","uicCode":"8812005"},{"coordinate":{"lat":50.845175,"lng":4.357131},"countryCode":"B","name":"Brussel-Centraal","stationCode":"BRUSC","uicCode":"8813003"},{"coordinate":{"lat":50.836782,"lng":4.336922},"countryCode":"B","name":"Brussel-Zuid","stationCode":"BRUSZ","uicCode":"8814001"}],"direction":"BOTH","operators":["NS Int"]},"consequence":{"section":{"stations":[{"coordinate":{"lat":52.5077781677246,"lng":5.47277784347534},"countryCode":"NL","name":"Lelystad Centrum","stationCode":"LLS","uicCode":"8400394"},{"coordinate":{"lat":52.4033317565918,"lng":5.30055570602417},"countryCode":"NL","name":"Almere Oostvaarders","stationCode":"ALMO","uicCode":"8400226"},{"coordinate":{"lat":52.3941650390625,"lng":5.2780556678772},"countryCode":"NL","name":"Almere Buiten","stationCode":"ALMB","uicCode":"8400081"},{"coordinate":{"lat":52.3766670227051,"lng":5.24472236633301},"countryCode":"NL","name":"Almere Parkwijk","stationCode":"ALMP","uicCode":"8400104"},{"coordinate":{"lat":52.37503,"lng":5.21764},"countryCode":"NL","name":"Almere Centrum","stationCode":"ALM","uicCode":"8400080"},{"coordinate":{"lat":52.3675003051758,"lng":5.19027757644653},"countryCode":"NL","name":"Almere Muziekwijk","stationCode":"ALMM","uicCode":"8400082"},{"coordinate":{"lat":52.342778,"lng":5.151944},"countryCode":"NL","name":"Almere Poort","stationCode":"AMPO","uicCode":"8400450"},{"coordinate":{"lat":52.3127784729004,"lng":5.04305553436279},"countryCode":"NL","name":"Weesp","stationCode":"WP","uicCode":"8400685"},{"coordinate":{"lat":52.3302764892578,"lng":4.95583343505859},"countryCode":"NL","name":"Diemen Zuid","stationCode":"DMNZ","uicCode":"8400163"},{"coordinate":{"lat":52.3233337402344,"lng":4.93638896942139},"countryCode":"NL","name":"Duivendrecht","stationCode":"DVD","uicCode":"8400194"},{"coordinate":{"lat":52.3372230529785,"lng":4.89027786254883},"countryCode":"NL","name":"Amsterdam RAI","stationCode":"RAI","uicCode":"8400056"},{"coordinate":{"lat":52.338889,"lng":4.872356},"countryCode":"NL","name":"Amsterdam Zuid","stationCode":"ASDZ","uicCode":"8400061"},{"coordinate":{"lat":52.3094444274902,"lng":4.76194429397583},"countryCode":"NL","name":"Schiphol Airport","stationCode":"SHL","uicCode":"8400561"},{"coordinate":{"lat":52.2933349609375,"lng":4.70055532455444},"countryCode":"NL","name":"Hoofddorp","stationCode":"HFD","uicCode":"8400332"},{"coordinate":{"lat":51.9249992370605,"lng":4.46888875961304},"countryCode":"NL","name":"Rotterdam Centraal","stationCode":"RTD","uicCode":"8400530"}],"direction":"BOTH","operators":["NS Int"]},"description":"aangepaste internationale dienstregeling","level":"LESS_TRAINS"},"sectionType":"HSL"}],"summaryAdditionalTravelTime":{"label":"U heeft geen langere reistijd.","shortLabel":"Geen extra reistijd."},"timespans":[{"start":"2025-07-07T06:00:00+0200","end":"2025-07-13T23:50:00+0200","period":"Maandag 7 juli 6:00 uur t/m zondag 13 juli 23:50 uur.","situation":{"label":"Door werkzaamheden: tussen Lelystad Centrum en Rotterdam Centraal is de internationale dienstregeling aangepast."},"cause":{"label":"werkzaamheden"},"additionalTravelTime":{"label":"U heeft geen langere reistijd.","shortLabel":"Geen extra reistijd."},"advices":["Eurocity direct rijdt niet tussen Lelystad C en Rotterdam C. Eurocity's 9512, 9516, 9579 en 9583 rijden wel van/naar Amsterdam C"]}],"alternativeTransportTimespans":[]},{"type":"MAINTENANCE","id":"7006526","title":"Maastricht - Liège / Luik.","isActive":true,"local":false,"titleSections":[[{"type":"STATION","value":"Maastricht"},{"type":"ICON","value":"MAINTENANCE"},{"type":"STATION","value":"Liège-Guillemins"}]],"registrationTime":"2025-06-23T09:41:52+0200","start":"2025-07-07T22:30:00+0200","releaseTime":"2025-06-23T09:41:52+0200","end":"2025-07-11T00:50:00+0200","period":"Maandag 7 juli 22:30 uur t/m vrijdag 11 juli 0:50 uur.","impact":{"value":3},"publicationSections":[{"section":{"stations":[{"coordinate":{"lat":50.8502769470215,"lng":5.70555543899536},"countryCode":"NL","name":"Maastricht","stationCode":"MT","uicCode":"8400424"},{"coordinate":{"lat":50.8386116027832,"lng":5.71722221374512},"countryCode":"NL","name":"Maastricht Randwyck","stationCode":"MTR","uicCode":"8400426"},{"coordinate":{"lat":50.7719459533691,"lng":5.71000003814697},"countryCode":"NL","name":"Eijsden","stationCode":"EDN","uicCode":"8400219"},{"coordinate":{"lat":50.73781,"lng":5.69232},"countryCode":"B","name":"Visé","stationCode":"FVS","uicCode":"8846201"},{"coordinate":{"lat":50.643829,"lng":5.6112542},"countryCode":"B","name":"Bressoux","stationCode":"BRESSX","uicCode":"8843901"},{"coordinate":{"lat":50.62436,"lng":5.56648},"countryCode":"B","name":"Liège-Guillemins","stationCode":"LUIK","uicCode":"8841004"}],"direction":"BOTH","operators":["Arriva"]},"consequence":{"section":{"stations":[{"coordinate":{"lat":50.8502769470215,"lng":5.70555543899536},"countryCode":"NL","name":"Maastricht","stationCode":"MT","uicCode":"8400424"},{"coordinate":{"lat":50.8386116027832,"lng":5.71722221374512},"countryCode":"NL","name":"Maastricht Randwyck","stationCode":"MTR","uicCode":"8400426"},{"coordinate":{"lat":50.7719459533691,"lng":5.71000003814697},"countryCode":"NL","name":"Eijsden","stationCode":"EDN","uicCode":"8400219"},{"coordinate":{"lat":50.73781,"lng":5.69232},"countryCode":"B","name":"Visé","stationCode":"FVS","uicCode":"8846201"},{"coordinate":{"lat":50.643829,"lng":5.6112542},"countryCode":"B","name":"Bressoux","stationCode":"BRESSX","uicCode":"8843901"},{"coordinate":{"lat":50.62436,"lng":5.56648},"countryCode":"B","name":"Liège-Guillemins","stationCode":"LUIK","uicCode":"8841004"}],"direction":"BOTH","operators":["Arriva"]},"description":"er rijden bussen","level":"LESS_TRAINS"},"sectionType":"NEIGHBORING_COUNTRY"}],"summaryAdditionalTravelTime":{"label":"De extra reistijd kan oplopen tot 30 minuten.","shortLabel":"Extra reistijd tot 30 min.","minimumDurationInMinutes":30,"maximumDurationInMinutes":30},"timespans":[{"start":"2025-07-08T22:30:00+0200","end":"2025-07-09T00:50:00+0200","period":"Dinsdag 8 juli 22:30 uur t/m woensdag 9 juli 0:50 uur.","situation":{"label":"Door werkzaamheden: tussen Maastricht en Liège-Guillemins rijden er bussen."},"cause":{"label":"werkzaamheden"},"additionalTravelTime":{"label":"De extra reistijd is ongeveer 30 minuten.","shortLabel":"Extra reistijd 30 min.","minimumDurationInMinutes":30,"maximumDurationInMinutes":30},"alternativeTransport":{"label":"er rijden bussen","shortLabel":"er rijden bussen"},"advices":[]},{"start":"2025-07-09T22:30:00+0200","end":"2025-07-10T00:50:00+0200","period":"Woensdag 9 juli 22:30 uur t/m donderdag 10 juli 0:50 uur.","situation":{"label":"Door werkzaamheden: tussen Maastricht en Liège-Guillemins rijden er bussen."},"cause":{"label":"werkzaamheden"},"additionalTravelTime":{"label":"De extra reistijd is ongeveer 30 minuten.","shortLabel":"Extra reistijd 30 min.","minimumDurationInMinutes":30,"maximumDurationInMinutes":30},"alternativeTransport":{"label":"er rijden bussen","shortLabel":"er rijden bussen"},"advices":[]},{"start":"2025-07-10T22:30:00+0200","end":"2025-07-11T00:50:00+0200","period":"Donderdag 10 juli 22:30 uur t/m vrijdag 11 juli 0:50 uur.","situation":{"label":"Door werkzaamheden: tussen Maastricht en Liège-Guillemins rijden er bussen."},"cause":{"label":"werkzaamheden"},"additionalTravelTime":{"label":"De extra reistijd is ongeveer 30 minuten.","shortLabel":"Extra reistijd 30 min.","minimumDurationInMinutes":30,"maximumDurationInMinutes":30},"alternativeTransport":{"label":"er rijden bussen","shortLabel":"er rijden bussen"},"advices":[]}],"alternativeTransportTimespans":[{"start":"2025-07-07T22:30:00+0200","end":"2025-07-08T00:50:00+0200","alternativeTransport":{"location":[{"station":{"coordinate":{"lat":50.8502769470215,"lng":5.70555543899536},"countryCode":"NL","name":"Maastricht","stationCode":"MT","uicCode":"8400424"},"description":"vanaf het Stationsplein"},{"station":{"coordinate":{"lat":50.8386116027832,"lng":5.71722221374512},"countryCode":"NL","name":"Maastricht Randwyck","stationCode":"MTR","uicCode":"8400426"},"description":"onder het viaduct"},{"station":{"coordinate":{"lat":50.7719459533691,"lng":5.71000003814697},"countryCode":"NL","name":"Eijsden","stationCode":"EDN","uicCode":"8400219"},"description":"vanaf de voorzijde van het station"},{"station":{"coordinate":{"lat":50.73781,"lng":5.69232},"countryCode":"B","name":"Visé","stationCode":"FVS","uicCode":"8846201"},"description":"volg de aanwijzingen op het station"},{"station":{"coordinate":{"lat":50.643829,"lng":5.6112542},"countryCode":"B","name":"Bressoux","stationCode":"BRESSX","uicCode":"8843901"},"description":"volg de aanwijzingen op het station"},{"station":{"coordinate":{"lat":50.62436,"lng":5.56648},"countryCode":"B","name":"Liège-Guillemins","stationCode":"LUIK","uicCode":"8841004"},"description":"volg de aanwijzingen op het station"}],"label":"Er rijden bussen tussen Maastricht, Maastricht Randwyck, Eijsden, Visé, Bressoux en Liège-Guillemins.","shortLabel":"Er rijden bussen Maastricht - Randwyck - Eijsden - Visé - Bressoux - Liège-Guillemins."}},{"start":"2025-07-08T22:30:00+0200","end":"2025-07-09T00:50:00+0200","alternativeTransport":{"location":[{"station":{"coordinate":{"lat":50.8502769470215,"lng":5.70555543899536},"countryCode":"NL","name":"Maastricht","stationCode":"MT","uicCode":"8400424"},"description":"vanaf het Stationsplein"},{"station":{"coordinate":{"lat":50.8386116027832,"lng":5.71722221374512},"countryCode":"NL","name":"Maastricht Randwyck","stationCode":"MTR","uicCode":"8400426"},"description":"onder het viaduct"},{"station":{"coordinate":{"lat":50.7719459533691,"lng":5.71000003814697},"countryCode":"NL","name":"Eijsden","stationCode":"EDN","uicCode":"8400219"},"description":"vanaf de voorzijde van het station"},{"station":{"coordinate":{"lat":50.73781,"lng":5.69232},"countryCode":"B","name":"Visé","stationCode":"FVS","uicCode":"8846201"},"description":"volg de aanwijzingen op het station"},{"station":{"coordinate":{"lat":50.643829,"lng":5.6112542},"countryCode":"B","name":"Bressoux","stationCode":"BRESSX","uicCode":"8843901"},"description":"volg de aanwijzingen op het station"},{"station":{"coordinate":{"lat":50.62436,"lng":5.56648},"countryCode":"B","name":"Liège-Guillemins","stationCode":"LUIK","uicCode":"8841004"},"description":"volg de aanwijzingen op het station"}],"label":"Er rijden bussen tussen Maastricht, Maastricht Randwyck, Eijsden, Visé, Bressoux en Liège-Guillemins.","shortLabel":"Er rijden bussen Maastricht - Randwyck - Eijsden - Visé - Bressoux - Liège-Guillemins."}},{"start":"2025-07-09T22:30:00+0200","end":"2025-07-10T00:50:00+0200","alternativeTransport":{"location":[{"station":{"coordinate":{"lat":50.8502769470215,"lng":5.70555543899536},"countryCode":"NL","name":"Maastricht","stationCode":"MT","uicCode":"8400424"},"description":"vanaf het Stationsplein"},{"station":{"coordinate":{"lat":50.8386116027832,"lng":5.71722221374512},"countryCode":"NL","name":"Maastricht Randwyck","stationCode":"MTR","uicCode":"8400426"},"description":"onder het viaduct"},{"station":{"coordinate":{"lat":50.7719459533691,"lng":5.71000003814697},"countryCode":"NL","name":"Eijsden","stationCode":"EDN","uicCode":"8400219"},"description":"vanaf de voorzijde van het station"},{"station":{"coordinate":{"lat":50.73781,"lng":5.69232},"countryCode":"B","name":"Visé","stationCode":"FVS","uicCode":"8846201"},"description":"volg de aanwijzingen op het station"},{"station":{"coordinate":{"lat":50.643829,"lng":5.6112542},"countryCode":"B","name":"Bressoux","stationCode":"BRESSX","uicCode":"8843901"},"description":"volg de aanwijzingen op het station"},{"station":{"coordinate":{"lat":50.62436,"lng":5.56648},"countryCode":"B","name":"Liège-Guillemins","stationCode":"LUIK","uicCode":"8841004"},"description":"volg de aanwijzingen op het station"}],"label":"Er rijden bussen tussen Maastricht, Maastricht Randwyck, Eijsden, Visé, Bressoux en Liège-Guillemins.","shortLabel":"Er rijden bussen Maastricht - Randwyck - Eijsden - Visé - Bressoux - Liège-Guillemins."}},{"start":"2025-07-10T22:30:00+0200","end":"2025-07-11T00:50:00+0200","alternativeTransport":{"location":[{"station":{"coordinate":{"lat":50.8502769470215,"lng":5.70555543899536},"countryCode":"NL","name":"Maastricht","stationCode":"MT","uicCode":"8400424"},"description":"vanaf het Stationsplein"},{"station":{"coordinate":{"lat":50.8386116027832,"lng":5.71722221374512},"countryCode":"NL","name":"Maastricht Randwyck","stationCode":"MTR","uicCode":"8400426"},"description":"onder het viaduct"},{"station":{"coordinate":{"lat":50.7719459533691,"lng":5.71000003814697},"countryCode":"NL","name":"Eijsden","stationCode":"EDN","uicCode":"8400219"},"description":"vanaf de voorzijde van het station"},{"station":{"coordinate":{"lat":50.73781,"lng":5.69232},"countryCode":"B","name":"Visé","stationCode":"FVS","uicCode":"8846201"},"description":"volg de aanwijzingen op het station"},{"station":{"coordinate":{"lat":50.643829,"lng":5.6112542},"countryCode":"B","name":"Bressoux","stationCode":"BRESSX","uicCode":"8843901"},"description":"volg de aanwijzingen op het station"},{"station":{"coordinate":{"lat":50.62436,"lng":5.56648},"countryCode":"B","name":"Liège-Guillemins","stationCode":"LUIK","uicCode":"8841004"},"description":"volg de aanwijzingen op het station"}],"label":"Er rijden bussen tussen Maastricht, Maastricht Randwyck, Eijsden, Visé, Bressoux en Liège-Guillemins.","shortLabel":"Er rijden bussen Maastricht - Randwyck - Eijsden - Visé - Bressoux - Liège-Guillemins."}}]},{"type":"MAINTENANCE","id":"7006378","title":"Amsterdam - München - Innsbruck.","isActive":true,"local":false,"titleSections":[[{"type":"STATION","value":"Amsterdam C."},{"type":"ICON","value":"MAINTENANCE"},{"type":"STATION","value":"Emmerich"},{"type":"STATION","value":"Innsbruck Hbf"}]],"registrationTime":"2025-06-01T17:19:38+0200","start":"2025-07-08T19:25:00+0200","releaseTime":"2025-06-01T17:19:38+0200","end":"2025-07-09T20:35:00+0200","period":"Dinsdag 8 juli 19:25 uur t/m woensdag 9 juli 20:35 uur.","impact":{"value":1},"publicationSections":[{"section":{"stations":[{"coordinate":{"lat":52.3788871765137,"lng":4.90027761459351},"countryCode":"NL","name":"Amsterdam Centraal","stationCode":"ASD","uicCode":"8400058"},{"coordinate":{"lat":52.3605537414551,"lng":4.93111133575439},"countryCode":"NL","name":"Amsterdam Muiderpoort","stationCode":"ASDM","uicCode":"8400060"},{"coordinate":{"lat":52.3466682434082,"lng":4.91777801513672},"countryCode":"NL","name":"Amsterdam Amstel","stationCode":"ASA","uicCode":"8400057"},{"coordinate":{"lat":52.3233337402344,"lng":4.93638896942139},"countryCode":"NL","name":"Duivendrecht","stationCode":"DVD","uicCode":"8400194"},{"coordinate":{"lat":52.3122215270996,"lng":4.94694423675537},"countryCode":"NL","name":"Amsterdam Bijlmer ArenA","stationCode":"ASB","uicCode":"8400074"},{"coordinate":{"lat":52.29844,"lng":4.95972},"countryCode":"NL","name":"Amsterdam Holendrecht","stationCode":"ASHD","uicCode":"8400231"},{"coordinate":{"lat":52.2785,"lng":4.977},"countryCode":"NL","name":"Abcoude","stationCode":"AC","uicCode":"8400047"},{"coordinate":{"lat":52.17149,"lng":4.9906},"countryCode":"NL","name":"Breukelen","stationCode":"BKL","uicCode":"8400133"},{"coordinate":{"lat":52.1352767944336,"lng":5.03361129760742},"countryCode":"NL","name":"Maarssen","stationCode":"MAS","uicCode":"8400419"},{"coordinate":{"lat":52.103055,"lng":5.09},"countryCode":"NL","name":"Utrecht Zuilen","stationCode":"UTZL","uicCode":"8400613"},{"coordinate":{"lat":52.0888900756836,"lng":5.11027765274048},"countryCode":"NL","name":"Utrecht Centraal","stationCode":"UT","uicCode":"8400621"},{"coordinate":{"lat":52.078889,"lng":5.121667},"countryCode":"NL","name":"Utrecht Vaartsche Rijn","stationCode":"UTVR","uicCode":"8400606"},{"coordinate":{"lat":52.0630569458008,"lng":5.19444465637207},"countryCode":"NL","name":"Bunnik","stationCode":"BNK","uicCode":"8400141"},{"coordinate":{"lat":52.0652770996094,"lng":5.25861120223999},"countryCode":"NL","name":"Driebergen-Zeist","stationCode":"DB","uicCode":"8400182"},{"coordinate":{"lat":52.0641670227051,"lng":5.36999988555908},"countryCode":"NL","name":"Maarn","stationCode":"MRN","uicCode":"8400417"},{"coordinate":{"lat":52.0458335876465,"lng":5.57388877868652},"countryCode":"NL","name":"Veenendaal-De Klomp","stationCode":"KLP","uicCode":"8400637"},{"coordinate":{"lat":52.0277786254883,"lng":5.67305564880371},"countryCode":"NL","name":"Ede-Wageningen","stationCode":"ED","uicCode":"8400200"},{"coordinate":{"lat":52.0055541992188,"lng":5.7936110496521},"countryCode":"NL","name":"Wolfheze","stationCode":"WF","uicCode":"8400704"},{"coordinate":{"lat":51.9949989318848,"lng":5.84000015258789},"countryCode":"NL","name":"Oosterbeek","stationCode":"OTB","uicCode":"8400489"},{"coordinate":{"lat":51.9850006103516,"lng":5.89916658401489},"countryCode":"NL","name":"Arnhem Centraal","stationCode":"AH","uicCode":"8400071"},{"coordinate":{"lat":51.985279083252,"lng":5.91944456100464},"countryCode":"NL","name":"Arnhem Velperpoort","stationCode":"AHP","uicCode":"8400072"},{"coordinate":{"lat":51.96286,"lng":5.9695},"countryCode":"NL","name":"Westervoort","stationCode":"WTV","uicCode":"8400688"},{"coordinate":{"lat":51.9433326721191,"lng":6.01472234725952},"countryCode":"NL","name":"Duiven","stationCode":"DVN","uicCode":"8400193"},{"coordinate":{"lat":51.9230537414551,"lng":6.07194423675537},"countryCode":"NL","name":"Zevenaar","stationCode":"ZV","uicCode":"8400735"},{"coordinate":{"lat":51.8743,"lng":6.15417},"countryCode":"D","name":"Emmerich-Elten","stationCode":"EL","uicCode":"8033415"},{"coordinate":{"lat":51.834283,"lng":6.255718},"countryCode":"D","name":"Emmerich","stationCode":"EM","uicCode":"8010288"},{"coordinate":{"lat":51.47512,"lng":6.852038},"countryCode":"D","name":"Oberhausen Hbf","stationCode":"OBERH","uicCode":"8010263"},{"coordinate":{"lat":51.4297785713316,"lng":6.77590370178222},"countryCode":"D","name":"Duisburg Hbf","stationCode":"DUISB","uicCode":"8010316"},{"coordinate":{"lat":51.220146,"lng":6.793137},"countryCode":"D","name":"Düsseldorf Hbf","stationCode":"DUSSEL","uicCode":"8008094"},{"coordinate":{"lat":50.940874,"lng":6.975001},"countryCode":"D","name":"Köln Messe/Deutz","stationCode":"KKD","uicCode":"8015561"},{"coordinate":{"lat":50.9432158,"lng":6.9589214},"countryCode":"D","name":"Köln Hbf","stationCode":"KOLN","uicCode":"8015458"},{"coordinate":{"lat":50.943611,"lng":6.934444},"countryCode":"D","name":"Köln West","stationCode":"KKW","uicCode":"8015468"},{"coordinate":{"lat":50.7320141646745,"lng":7.09712505340576},"countryCode":"D","name":"Bonn Hbf","stationCode":"BONN","uicCode":"8015485"},{"coordinate":{"lat":50.001117,"lng":8.25872},"countryCode":"D","name":"Mainz Hbf","stationCode":"FMZ","uicCode":"8019051"},{"coordinate":{"lat":50.0531710299286,"lng":8.570237159729},"countryCode":"D","name":"Frankfurt Flughafen Fernb","stationCode":"FNAF","uicCode":"8061676"},{"coordinate":{"lat":50.099444,"lng":8.686389},"countryCode":"D","name":"Frankfurt (Main) Süd","stationCode":"FFS","uicCode":"8011065"},{"coordinate":{"lat":49.80179,"lng":9.9358},"countryCode":"D","name":"Würzburg Hbf","stationCode":"WURZB","uicCode":"8022534"},{"coordinate":{"lat":49.4449634,"lng":11.0826087},"countryCode":"D","name":"Nürnberg Hbf","stationCode":"NURNB","uicCode":"8022193"},{"coordinate":{"lat":48.3654307143927,"lng":10.88547706604},"countryCode":"D","name":"Augsburg Hbf","stationCode":"MA","uicCode":"8002140"},{"coordinate":{"lat":48.1402033359505,"lng":11.558346748352},"countryCode":"D","name":"München Hbf","stationCode":"MUNCHH","uicCode":"8020347"},{"coordinate":{"lat":47.85,"lng":12.119167},"countryCode":"D","name":"Rosenheim","stationCode":"ROSENH","uicCode":"8020174"},{"coordinate":{"lat":47.5831,"lng":12.16568},"countryCode":"A","name":"Kufstein","stationCode":"KUFST","uicCode":"8102184"},{"coordinate":{"lat":47.49178,"lng":12.06059},"countryCode":"A","name":"Wörgl Hbf","stationCode":"WORGL","uicCode":"8101170"},{"coordinate":{"lat":47.38844,"lng":11.77841},"countryCode":"A","name":"Jenbach","stationCode":"JENBAC","uicCode":"8101176"},{"coordinate":{"lat":47.26328,"lng":11.401},"countryCode":"A","name":"Innsbruck Hbf","stationCode":"INNSB","uicCode":"8101187"}],"direction":"BOTH","operators":["NS Int"]},"consequence":{"section":{"stations":[{"coordinate":{"lat":52.3788871765137,"lng":4.90027761459351},"countryCode":"NL","name":"Amsterdam Centraal","stationCode":"ASD","uicCode":"8400058"},{"coordinate":{"lat":52.3605537414551,"lng":4.93111133575439},"countryCode":"NL","name":"Amsterdam Muiderpoort","stationCode":"ASDM","uicCode":"8400060"},{"coordinate":{"lat":52.3466682434082,"lng":4.91777801513672},"countryCode":"NL","name":"Amsterdam Amstel","stationCode":"ASA","uicCode":"8400057"},{"coordinate":{"lat":52.3233337402344,"lng":4.93638896942139},"countryCode":"NL","name":"Duivendrecht","stationCode":"DVD","uicCode":"8400194"},{"coordinate":{"lat":52.3122215270996,"lng":4.94694423675537},"countryCode":"NL","name":"Amsterdam Bijlmer ArenA","stationCode":"ASB","uicCode":"8400074"},{"coordinate":{"lat":52.29844,"lng":4.95972},"countryCode":"NL","name":"Amsterdam Holendrecht","stationCode":"ASHD","uicCode":"8400231"},{"coordinate":{"lat":52.2785,"lng":4.977},"countryCode":"NL","name":"Abcoude","stationCode":"AC","uicCode":"8400047"},{"coordinate":{"lat":52.17149,"lng":4.9906},"countryCode":"NL","name":"Breukelen","stationCode":"BKL","uicCode":"8400133"},{"coordinate":{"lat":52.1352767944336,"lng":5.03361129760742},"countryCode":"NL","name":"Maarssen","stationCode":"MAS","uicCode":"8400419"},{"coordinate":{"lat":52.103055,"lng":5.09},"countryCode":"NL","name":"Utrecht Zuilen","stationCode":"UTZL","uicCode":"8400613"},{"coordinate":{"lat":52.0888900756836,"lng":5.11027765274048},"countryCode":"NL","name":"Utrecht Centraal","stationCode":"UT","uicCode":"8400621"},{"coordinate":{"lat":52.078889,"lng":5.121667},"countryCode":"NL","name":"Utrecht Vaartsche Rijn","stationCode":"UTVR","uicCode":"8400606"},{"coordinate":{"lat":52.0630569458008,"lng":5.19444465637207},"countryCode":"NL","name":"Bunnik","stationCode":"BNK","uicCode":"8400141"},{"coordinate":{"lat":52.0652770996094,"lng":5.25861120223999},"countryCode":"NL","name":"Driebergen-Zeist","stationCode":"DB","uicCode":"8400182"},{"coordinate":{"lat":52.0641670227051,"lng":5.36999988555908},"countryCode":"NL","name":"Maarn","stationCode":"MRN","uicCode":"8400417"},{"coordinate":{"lat":52.0458335876465,"lng":5.57388877868652},"countryCode":"NL","name":"Veenendaal-De Klomp","stationCode":"KLP","uicCode":"8400637"},{"coordinate":{"lat":52.0277786254883,"lng":5.67305564880371},"countryCode":"NL","name":"Ede-Wageningen","stationCode":"ED","uicCode":"8400200"},{"coordinate":{"lat":52.0055541992188,"lng":5.7936110496521},"countryCode":"NL","name":"Wolfheze","stationCode":"WF","uicCode":"8400704"},{"coordinate":{"lat":51.9949989318848,"lng":5.84000015258789},"countryCode":"NL","name":"Oosterbeek","stationCode":"OTB","uicCode":"8400489"},{"coordinate":{"lat":51.9850006103516,"lng":5.89916658401489},"countryCode":"NL","name":"Arnhem Centraal","stationCode":"AH","uicCode":"8400071"},{"coordinate":{"lat":51.985279083252,"lng":5.91944456100464},"countryCode":"NL","name":"Arnhem Velperpoort","stationCode":"AHP","uicCode":"8400072"},{"coordinate":{"lat":51.96286,"lng":5.9695},"countryCode":"NL","name":"Westervoort","stationCode":"WTV","uicCode":"8400688"},{"coordinate":{"lat":51.9433326721191,"lng":6.01472234725952},"countryCode":"NL","name":"Duiven","stationCode":"DVN","uicCode":"8400193"},{"coordinate":{"lat":51.9230537414551,"lng":6.07194423675537},"countryCode":"NL","name":"Zevenaar","stationCode":"ZV","uicCode":"8400735"},{"coordinate":{"lat":51.8743,"lng":6.15417},"countryCode":"D","name":"Emmerich-Elten","stationCode":"EL","uicCode":"8033415"},{"coordinate":{"lat":51.834283,"lng":6.255718},"countryCode":"D","name":"Emmerich","stationCode":"EM","uicCode":"8010288"}],"direction":"BOTH","operators":["NS Int"]},"description":"aangepaste internationale dienstregeling","level":"LESS_TRAINS"},"sectionType":"NEIGHBORING_COUNTRY"}],"summaryAdditionalTravelTime":{"label":"De extra reistijd is ongeveer 0 minuten.","shortLabel":"Extra reistijd 0 min.","minimumDurationInMinutes":0,"maximumDurationInMinutes":0},"timespans":[{"start":"2025-07-08T19:25:00+0200","end":"2025-07-09T20:35:00+0200","period":"Dinsdag 8 juli 19:25 uur t/m woensdag 9 juli 20:35 uur.","situation":{"label":"Door werkzaamheden: tussen Amsterdam Centraal en Emmerich is de internationale dienstregeling aangepast."},"cause":{"label":"werkzaamheden"},"additionalTravelTime":{"label":"De extra reistijd is ongeveer 0 minuten.","shortLabel":"Extra reistijd 0 min.","minimumDurationInMinutes":0,"maximumDurationInMinutes":0},"advices":["NightJet 421 vertrekt in Amsterdam C, Amersfoort C, en Deventer eerder dan gebruikelijk. Raadpleeg de (Int.) reisplanner."]}],"alternativeTransportTimespans":[]},{"type":"MAINTENANCE","id":"7006545","title":"Rotterdam - Dordrecht; Dordrecht - Breda; Dordrecht - Roosendaal.","isActive":false,"local":false,"titleSections":[[{"type":"STATION","value":"Rotterdam C."},{"type":"ICON","value":"MAINTENANCE"},{"type":"STATION","value":"Dordrecht"}],[{"type":"STATION","value":"Dordrecht"},{"type":"ICON","value":"MAINTENANCE"},{"type":"STATION","value":"Roosendaal"}],[{"type":"STATION","value":"Dordrecht"},{"type":"STATION","value":"Lage Zwaluwe"},{"type":"ICON","value":"MAINTENANCE"},{"type":"STATION","value":"Breda"}]],"registrationTime":"2025-06-23T14:37:54+0200","start":"2025-07-09T00:15:00+0200","releaseTime":"2025-06-23T14:37:54+0200","end":"2025-07-09T06:23:00+0200","period":"Woensdag 9 juli 0:15 uur t/m woensdag 9 juli 6:23 uur.","impact":{"value":3},"publicationSections":[{"section":{"stations":[{"coordinate":{"lat":51.9249992370605,"lng":4.46888875961304},