[{"id":"7003629","type":"MAINTENANCE","registrationTime":"2023-05-27T08:48:37+0200","releaseTime":"2023-05-27T08:48:37+0200","local":false,"title":"Venlo - Mönchengladbach - Düsseldorf.","titleSections":[[{"type":"STATION","value":"Venlo"},{"type":"ICON","value":"MAINTENANCE"},{"type":"STATION","value":"Mönchengladbach"},{"type":"STATION","value":"Düsseldorf Hbf"}]],"isActive":true,"start":"2023-05-27T08:55:00+0200","end":"2023-06-09T22:30:00+0200","period":"Zaterdag 27-05-2023 08:55 uur t/m vrijdag 09-06-2023 22:30 uur.","impact":{"value":3},"publicationSections":[{"section":{"stations":[{"uicCode":"8400644","stationCode":"VL","name":"Venlo","coordinate":{"lat":51.3636093139648,"lng":6.17277765274048},"countryCode":"NL"},{"uicCode":"8015130","stationCode":"KN","name":"Kaldenkirchen","coordinate":{"lat":51.327184,"lng":6.203225},"countryCode":"D"},{"uicCode":"8015129","stationCode":"KBRY","name":"Breyell","coordinate":{"lat":51.294615,"lng":6.241174},"countryCode":"D"},{"uicCode":"8015128","stationCode":"KBOI","name":"Boisheim","coordinate":{"lat":51.274323,"lng":6.274591},"countryCode":"D"},{"uicCode":"8015125","stationCode":"KDUL","name":"Dülken","coordinate":{"lat":51.257149,"lng":6.33793},"countryCode":"D"},{"uicCode":"8015122","stationCode":"VIERS","name":"Viersen","coordinate":{"lat":51.25516,"lng":6.40388},"countryCode":"D"},{"uicCode":"8015165","stationCode":"MCGB","name":"Mönchengladbach Hbf","coordinate":{"lat":51.196583,"lng":6.446111},"countryCode":"D"},{"uicCode":"8015149","stationCode":"NEUSS","name":"Neuss Hbf","coordinate":{"lat":51.20444,"lng":6.68468},"countryCode":"D"},{"uicCode":"8008094","stationCode":"DUSSEL","name":"Düsseldorf Hbf","coordinate":{"lat":51.220146,"lng":6.793137},"countryCode":"D"}],"direction":"BOTH"},"consequence":{"section":{"stations":[{"uicCode":"8400644","stationCode":"VL","name":"Venlo","coordinate":{"lat":51.3636093139648,"lng":6.17277765274048},"countryCode":"NL"},{"uicCode":"8015130","stationCode":"KN","name":"Kaldenkirchen","coordinate":{"lat":51.327184,"lng":6.203225},"countryCode":"D"},{"uicCode":"8015129","stationCode":"KBRY","name":"Breyell","coordinate":{"lat":51.294615,"lng":6.241174},"countryCode":"D"},{"uicCode":"8015128","stationCode":"KBOI","name":"Boisheim","coordinate":{"lat":51.274323,"lng":6.274591},"countryCode":"D"},{"uicCode":"8015125","stationCode":"KDUL","name":"Dülken","coordinate":{"lat":51.257149,"lng":6.33793},"countryCode":"D"},{"uicCode":"8015122","stationCode":"VIERS","name":"Viersen","coordinate":{"lat":51.25516,"lng":6.40388},"countryCode":"D"},{"uicCode":"8015165","stationCode":"MCGB","name":"Mönchengladbach Hbf","coordinate":{"lat":51.196583,"lng":6.446111},"countryCode":"D"}],"direction":"ONE_WAY"},"description":"rijden bussen","level":"LESS_TRAINS"},"sectionType":"NEIGHBORING_COUNTRY"}],"timespans":[{"start":"2023-05-27T08:55:00+0200","end":"2023-06-09T22:30:00+0200","period":"Zaterdag 27-05-2023 08:55 uur t/m vrijdag 09-06-2023 22:30 uur.","situation":{"label":"Door werkzaamheden: tussen Venlo en Mönchengladbach Hbf rijden er bussen."},"cause":{"label":"werkzaamheden"},"alternativeTransport":{"label":"er rijden bussen","shortLabel":"er rijden bussen"},"advices":[]}],"alternativeTransportTimespans":[{"start":"2023-05-27T08:55:00+0200","end":"2023-06-09T22:30:00+0200","alternativeTransport":{"location":[{"station":{"uicCode":"8400644","stationCode":"VL","name":"Venlo","coordinate":{"lat":51.3636093139648,"lng":6.17277765274048},"countryCode":"NL"},"description":"vanaf de voorzijde van het station"}],"label":"Er rijden bussen tussen Venlo, Kaldenkirchen, Breyell, Boisheim, Dülken, Viersen en Mönchengladbach Hbf.","shortLabel":"Er rijden bussen Venlo - Kaldenkirchen - Breyell - Boisheim - Dülken - Viersen - Mönchengladbach"}}]},{"id":"7003511","type":"MAINTENANCE","registrationTime":"2023-05-08T08:54:23+0200","releaseTime":"2023-05-08T08:54:23+0200","local":false,"title":"Meppel - Leeuwarden.","titleSections":[[{"type":"STATION","value":"Meppel"},{"type":"ICON","value":"MAINTENANCE"},{"type":"STATION","value":"Heerenveen"},{"type":"STATION","value":"Leeuwarden"}]],"isActive":true,"start":"2023-06-03T01:00:00+0200","end":"2023-06-05T02:00:00+0200","period":"Zaterdag 03-06-2023 01:00 uur t/m maandag 05-06-2023 02:00 uur.","impact":{"value":4},"summaryAdditionalTravelTime":{"label":"De extra reistijd kan oplopen tot 30 minuten.","shortLabel":"Extra reistijd tot 30 min.","maximumDurationInMinutes":30},"publicationSections":[{"section":{"stations":[{"uicCode":"8400435","stationCode":"MP","name":"Meppel","coordinate":{"lat":52.6908340454102,"lng":6.19750022888184},"countryCode":"NL"},{"uicCode":"8400578","stationCode":"SWK","name":"Steenwijk","coordinate":{"lat":52.7915109924316,"lng":6.11455576324463},"countryCode":"NL"},{"uicCode":"8400705","stationCode":"WV","name":"Wolvega","coordinate":{"lat":52.8808326721191,"lng":6.00361108779907},"countryCode":"NL"},{"uicCode":"8400305","stationCode":"HR","name":"Heerenveen","coordinate":{"lat":52.9613876342773,"lng":5.91416645050049},"countryCode":"NL"},{"uicCode":"8400049","stationCode":"AKM","name":"Akkrum","coordinate":{"lat":53.0463905334473,"lng":5.84361124038696},"countryCode":"NL"},{"uicCode":"8400266","stationCode":"GW","name":"Grou-Jirnsum","coordinate":{"lat":53.0888900756836,"lng":5.82250022888184},"countryCode":"NL"},{"uicCode":"8400387","stationCode":"LW","name":"Leeuwarden","coordinate":{"lat":53.1958351135254,"lng":5.79222202301025},"countryCode":"NL"}],"direction":"BOTH"},"consequence":{"section":{"stations":[{"uicCode":"8400435","stationCode":"MP","name":"Meppel","coordinate":{"lat":52.6908340454102,"lng":6.19750022888184},"countryCode":"NL"},{"uicCode":"8400578","stationCode":"SWK","name":"Steenwijk","coordinate":{"lat":52.7915109924316,"lng":6.11455576324463},"countryCode":"NL"},{"uicCode":"8400705","stationCode":"WV","name":"Wolvega","coordinate":{"lat":52.8808326721191,"lng":6.00361108779907},"countryCode":"NL"},{"uicCode":"8400305","stationCode":"HR","name":"Heerenveen","coordinate":{"lat":52.9613876342773,"lng":5.91416645050049},"countryCode":"NL"}],"direction":"ONE_WAY"},"description":"rijden bussen","level":"LESS_TRAINS"},"sectionType":"NL"}],"timespans":[{"start":"2023-06-03T01:00:00+0200","end":"2023-06-05T02:00:00+0200","period":"Zaterdag 03-06-2023 01:00 uur t/m maandag 05-06-2023 02:00 uur.","situation":{"label":"Door werkzaamheden: tussen Meppel en Heerenveen rijden er bussen."},"cause":{"label":"werkzaamheden"},"additionalTravelTime":{"label":"De extra reistijd kan oplopen tot 30 minuten.","shortLabel":"Extra reistijd tot 30 min.","maximumDurationInMinutes":30},"alternativeTransport":{"label":"er rijden stop- en snelbussen","shortLabel":"er rijden stop- en snelbussen"},"advices":[]}],"alternativeTransportTimespans":[{"start":"2023-06-03T01:00:00+0200","end":"2023-06-05T02:00:00+0200","alternativeTransport":{"location":[{"station":{"uicCode":"8400435","stationCode":"MP","name":"Meppel","coordinate":{"lat":52.6908340454102,"lng":6.19750022888184},"countryCode":"NL"},"description":"vanaf de voorzijde van het station"},{"station":{"uicCode":"8400305","stationCode":"HR","name":"Heerenveen","coordinate":{"lat":52.9613876342773,"lng":5.91416645050049},"countryCode":"NL"},"description":"vanaf de voorzijde van het station"}],"label":"Er rijden snelbussen tussen Meppel en Heerenveen.","shortLabel":"Er rijden snelbussen Meppel - Heerenveen"}},{"start":"2023-06-03T01:00:00+0200","end":"2023-06-05T02:00:00+0200","alternativeTransport":{"location":[{"station":{"uicCode":"8400435","stationCode":"MP","name":"Meppel","coordinate":{"lat":52.6908340454102,"lng":6.19750022888184},"countryCode":"NL"},"description":"vanaf de voorzijde van het station"},{"station":{"uicCode":"8400578","stationCode":"SWK","name":"Steenwijk","coordinate":{"lat":52.7915109924316,"lng":6.11455576324463},"countryCode":"NL"},"description":"vanaf het Stationsplein"},{"station":{"uicCode":"8400705","stationCode":"WV","name":"Wolvega","coordinate":{"lat":52.8808326721191,"lng":6.00361108779907},"countryCode":"NL"},"description":"vanaf de voorzijde van het station"},{"station":{"uicCode":"8400305","stationCode":"HR","name":"Heerenveen","coordinate":{"lat":52.9613876342773,"lng":5.91416645050049},"countryCode":"NL"},"description":"vanaf de voorzijde van het station"}],"label":"Er rijden stopbussen tussen Meppel, Steenwijk, Wolvega en Heerenveen.","shortLabel":"Er rijden stopbussen Meppel - Steenwijk - Wolvega - Heerenveen"}}]},{"id":"7003541","type":"MAINTENANCE","registrationTime":"2023-05-30T12:24:05+0200","releaseTime":"2023-05-30T12:24:05+0200","local":false,"title":"Amsterdam - Haarlem.","titleSections":[[{"type":"STATION","value":"Amsterdam C."},{"type":"STATION","value":"Sloterdijk"},{"type":"ICON","value":"MAINTENANCE"},{"type":"STATION","value":"Haarlem"}]],"isActive":true,"start":"2023-06-03T01:45:00+0200","end":"2023-06-05T02:00:00+0200","period":"Zaterdag 03-06-2023 01:45 uur t/m maandag 05-06-2023 02:00 uur.","impact":{"value":4},"summaryAdditionalTravelTime":{"label":"De extra reistijd kan oplopen tot 30 minuten.","shortLabel":"Extra reistijd tot 30 min.","maximumDurationInMinutes":30},"publicationSections":[{"section":{"stations":[{"uicCode":"8400058","stationCode":"ASD","name":"Amsterdam Centraal","coordinate":{"lat":52.3788871765137,"lng":4.90027761459351},"countryCode":"NL"},{"uicCode":"8400059","stationCode":"ASS","name":"Amsterdam Sloterdijk","coordinate":{"lat":52.3888893127441,"lng":4.83777761459351},"countryCode":"NL"},{"uicCode":"8400400","stationCode":"HWZB","name":"Halfweg-Zwanenburg","coordinate":{"lat":52.385935,"lng":4.747165},"countryCode":"NL"},{"uicCode":"8400270","stationCode":"HLMS","name":"Haarlem Spaarnwoude","coordinate":{"lat":52.3827781677246,"lng":4.67305564880371},"countryCode":"NL"},{"uicCode":"8400285","stationCode":"HLM","name":"Haarlem","coordinate":{"lat":52.3877792358398,"lng":4.63833332061768},"countryCode":"NL"}],"direction":"BOTH"},"consequence":{"section":{"stations":[{"uicCode":"8400059","stationCode":"ASS","name":"Amsterdam Sloterdijk","coordinate":{"lat":52.3888893127441,"lng":4.83777761459351},"countryCode":"NL"},{"uicCode":"8400400","stationCode":"HWZB","name":"Halfweg-Zwanenburg","coordinate":{"lat":52.385935,"lng":4.747165},"countryCode":"NL"},{"uicCode":"8400270","stationCode":"HLMS","name":"Haarlem Spaarnwoude","coordinate":{"lat":52.3827781677246,"lng":4.67305564880371},"countryCode":"NL"},{"uicCode":"8400285","stationCode":"HLM","name":"Haarlem","coordinate":{"lat":52.3877792358398,"lng":4.63833332061768},"countryCode":"NL"}],"direction":"ONE_WAY"},"description":"rijden bussen","level":"LESS_TRAINS"},"sectionType":"NL"}],"timespans":[{"start":"2023-06-03T01:45:00+0200","end":"2023-06-05T02:00:00+0200","period":"Zaterdag 03-06-2023 01:45 uur t/m maandag 05-06-2023 02:00 uur.","situation":{"label":"Door werkzaamheden: tussen Amsterdam Sloterdijk en Haarlem rijden er bussen."},"cause":{"label":"werkzaamheden"},"additionalTravelTime":{"label":"De extra reistijd kan oplopen tot 30 minuten.","shortLabel":"Extra reistijd tot 30 min.","maximumDurationInMinutes":30},"alternativeTransport":{"label":"er rijden stop- en snelbussen","shortLabel":"er rijden stop- en snelbussen"},"advices":["Tussen Sloterdijk en Leiden C. reist u via Schiphol Airport"]}],"alternativeTransportTimespans":[{"start":"2023-06-03T01:45:00+0200","end":"2023-06-05T02:00:00+0200","alternativeTransport":{"location":[{"station":{"uicCode":"8400059","stationCode":"ASS","name":"Amsterdam Sloterdijk","coordinate":{"lat":52.3888893127441,"lng":4.83777761459351},"countryCode":"NL"},"description":"vanaf de voorzijde van het station"},{"station":{"uicCode":"8400400","stationCode":"HWZB","name":"Halfweg-Zwanenburg","coordinate":{"lat":52.385935,"lng":4.747165},"countryCode":"NL"},"description":"vanaf de bushalte"},{"station":{"uicCode":"8400270","stationCode":"HLMS","name":"Haarlem Spaarnwoude","coordinate":{"lat":52.3827781677246,"lng":4.67305564880371},"countryCode":"NL"},"description":"vanaf de bushalte"},{"station":{"uicCode":"8400285","stationCode":"HLM","name":"Haarlem","coordinate":{"lat":52.3877792358398,"lng":4.63833332061768},"countryCode":"NL"},"description":"vanaf de Jansweg"}],"label":"Er rijden stopbussen tussen Amsterdam Sloterdijk, Halfweg-Zwanenburg, Haarlem Spaarnwoude en Haarlem.","shortLabel":"Er rijden stopbussen Sloterdijk - Halfweg-Zw. - Spaarnwoude - Haarlem"}},{"start":"2023-06-03T02:45:00+0200","end":"2023-06-03T03:55:00+0200","alternativeTransport":{"location":[{"station":{"uicCode":"8400058","stationCode":"ASD","name":"Amsterdam Centraal","coordinate":{"lat":52.3788871765137,"lng":4.90027761459351},"countryCode":"NL"},"description":"vanaf het busstation"},{"station":{"uicCode":"8400285","stationCode":"HLM","name":"Haarlem","coordinate":{"lat":52.3877792358398,"lng":4.63833332061768},"countryCode":"NL"},"description":"vanaf de Jansweg"}],"label":"Er rijden snelbussen tussen Amsterdam Centraal en Haarlem.","shortLabel":"Er rijden snelbussen Amsterdam C. - Haarlem"}}]},{"id":"7003555","type":"MAINTENANCE","registrationTime":"2023-05-19T14:18:11+0200","releaseTime":"2023-05-19T14:18:11+0200","local":false,"title":"Haarlem - Leiden.","titleSections":[[{"type":"STATION","value":"Haarlem"},{"type":"ICON","value":"MAINTENANCE"},{"type":"STATION","value":"Leiden C."}]],"isActive":true,"start":"2023-06-03T04:00:00+0200","end":"2023-06-05T02:00:00+0200","period":"Zaterdag 03-06-2023 04:00 uur t/m maandag 05-06-2023 02:00 uur.","impact":{"value":2},"summaryAdditionalTravelTime":{"label":"U heeft geen langere reistijd.","shortLabel":"Geen extra reistijd"},"publicationSections":[{"section":{"stations":[{"uicCode":"8400285","stationCode":"HLM","name":"Haarlem","coordinate":{"lat":52.3877792358398,"lng":4.63833332061768},"countryCode":"NL"},{"uicCode":"8400302","stationCode":"HAD","name":"Heemstede-Aerdenhout","coordinate":{"lat":52.3591651916504,"lng":4.60666656494141},"countryCode":"NL"},{"uicCode":"8400329","stationCode":"HIL","name":"Hillegom","coordinate":{"lat":52.3025016784668,"lng":4.56555557250977},"countryCode":"NL"},{"uicCode":"8400655","stationCode":"VH","name":"Voorhout","coordinate":{"lat":52.2244453430176,"lng":4.4844446182251},"countryCode":"NL"},{"uicCode":"8400390","stationCode":"LEDN","name":"Leiden Centraal","coordinate":{"lat":52.1661109924316,"lng":4.48166656494141},"countryCode":"NL"}],"direction":"BOTH"},"consequence":{"section":{"stations":[{"uicCode":"8400285","stationCode":"HLM","name":"Haarlem","coordinate":{"lat":52.3877792358398,"lng":4.63833332061768},"countryCode":"NL"},{"uicCode":"8400302","stationCode":"HAD","name":"Heemstede-Aerdenhout","coordinate":{"lat":52.3591651916504,"lng":4.60666656494141},"countryCode":"NL"},{"uicCode":"8400329","stationCode":"HIL","name":"Hillegom","coordinate":{"lat":52.3025016784668,"lng":4.56555557250977},"countryCode":"NL"},{"uicCode":"8400655","stationCode":"VH","name":"Voorhout","coordinate":{"lat":52.2244453430176,"lng":4.4844446182251},"countryCode":"NL"},{"uicCode":"8400390","stationCode":"LEDN","name":"Leiden Centraal","coordinate":{"lat":52.1661109924316,"lng":4.48166656494141},"countryCode":"NL"}],"direction":"ONE_WAY"},"description":"geen Intercity's","level":"LESS_TRAINS"},"sectionType":"NL"}],"timespans":[{"start":"2023-06-03T04:00:00+0200","end":"2023-06-05T02:00:00+0200","period":"Zaterdag 03-06-2023 04:00 uur t/m maandag 05-06-2023 02:00 uur.","situation":{"label":"Door werkzaamheden: tussen Haarlem en Leiden Centraal rijden er geen Intercity's."},"cause":{"label":"werkzaamheden"},"additionalTravelTime":{"label":"U heeft geen langere reistijd.","shortLabel":"Geen extra reistijd"},"advices":["Tussen Sloterdijk en Leiden C./Den Haag HS reist u via Schiphol Airport"]}],"alternativeTransportTimespans":[]},{"id":"7003518","type":"MAINTENANCE","registrationTime":"2023-04-28T11:06:02+0200","releaseTime":"2023-04-28T11:06:02+0200","local":false,"title":"Dordrecht - Roosendaal.","titleSections":[[{"type":"STATION","value":"Dordrecht"},{"type":"ICON","value":"MAINTENANCE"},{"type":"STATION","value":"Roosendaal"}]],"isActive":true,"start":"2023-06-03T04:00:00+0200","end":"2023-06-05T02:00:00+0200","period":"Zaterdag 03-06-2023 04:00 uur t/m maandag 05-06-2023 02:00 uur.","impact":{"value":2},"summaryAdditionalTravelTime":{"label":"De extra reistijd is ongeveer 15 minuten.","shortLabel":"Extra reistijd 15 min.","minimumDurationInMinutes":15,"maximumDurationInMinutes":15},"publicationSections":[{"section":{"stations":[{"uicCode":"8400180","stationCode":"DDR","name":"Dordrecht","coordinate":{"lat":51.8072204589844,"lng":4.66833353042603},"countryCode":"NL"},{"uicCode":"8400181","stationCode":"DDZD","name":"Dordrecht Zuid","coordinate":{"lat":51.7900009155273,"lng":4.67138910293579},"countryCode":"NL"},{"uicCode":"8400382","stationCode":"ZLW","name":"Lage Zwaluwe","coordinate":{"lat":51.6911125183105,"lng":4.66305541992188},"countryCode":"NL"},{"uicCode":"8400737","stationCode":"ZVB","name":"Zevenbergen","coordinate":{"lat":51.64042,"lng":4.60904},"countryCode":"NL"},{"uicCode":"8400498","stationCode":"ODB","name":"Oudenbosch","coordinate":{"lat":51.587776184082,"lng":4.53333330154419},"countryCode":"NL"},{"uicCode":"8400526","stationCode":"RSD","name":"Roosendaal","coordinate":{"lat":51.5402793884277,"lng":4.45833349227905},"countryCode":"NL"}],"direction":"BOTH"},"consequence":{"section":{"stations":[{"uicCode":"8400180","stationCode":"DDR","name":"Dordrecht","coordinate":{"lat":51.8072204589844,"lng":4.66833353042603},"countryCode":"NL"},{"uicCode":"8400181","stationCode":"DDZD","name":"Dordrecht Zuid","coordinate":{"lat":51.7900009155273,"lng":4.67138910293579},"countryCode":"NL"},{"uicCode":"8400382","stationCode":"ZLW","name":"Lage Zwaluwe","coordinate":{"lat":51.6911125183105,"lng":4.66305541992188},"countryCode":"NL"},{"uicCode":"8400737","stationCode":"ZVB","name":"Zevenbergen","coordinate":{"lat":51.64042,"lng":4.60904},"countryCode":"NL"},{"uicCode":"8400498","stationCode":"ODB","name":"Oudenbosch","coordinate":{"lat":51.587776184082,"lng":4.53333330154419},"countryCode":"NL"},{"uicCode":"8400526","stationCode":"RSD","name":"Roosendaal","coordinate":{"lat":51.5402793884277,"lng":4.45833349227905},"countryCode":"NL"}],"direction":"ONE_WAY"},"description":"dienstregeling aangepast","level":"LESS_TRAINS"},"sectionType":"NL"}],"timespans":[{"start":"2023-06-03T04:00:00+0200","end":"2023-06-05T02:00:00+0200","period":"Zaterdag 03-06-2023 04:00 uur t/m maandag 05-06-2023 02:00 uur.","situation":{"label":"Door werkzaamheden: tussen Dordrecht en Roosendaal is de dienstregeling aangepast."},"cause":{"label":"werkzaamheden"},"additionalTravelTime":{"label":"De extra reistijd is ongeveer 15 minuten.","shortLabel":"Extra reistijd 15 min.","minimumDurationInMinutes":15,"maximumDurationInMinutes":15},"advices":["Intercity Rotterdam C -Vlissingen stopt 1x per uur in Lage Zwaluwe, Zevenbergen en Oudenbosch."]}],"alternativeTransportTimespans":[]},{"id":"7003422","type":"MAINTENANCE","registrationTime":"2023-04-25T13:20:10+0200","releaseTime":"2023-04-25T13:20:10+0200","local":false,"title":"Breda - Antwerpen - Brussel (HSL)","titleSections":[[{"type":"STATION","value":"Breda"},{"type":"ICON","value":"MAINTENANCE"},{"type":"STATION","value":"Antwerpen-C."},{"type":"STATION","value":"Brussel-Z. Midi"}]],"isActive":true,"start":"2023-06-03T04:00:00+0200","end":"2023-06-05T02:00:00+0200","period":"Zaterdag 03-06-2023 04:00 uur t/m maandag 05-06-2023 02:00 uur.","impact":{"value":2},"summaryAdditionalTravelTime":{"label":"U heeft geen langere reistijd.","shortLabel":"Geen extra reistijd"},"publicationSections":[{"section":{"stations":[{"uicCode":"8400131","stationCode":"BD","name":"Breda","coordinate":{"lat":51.5955543518066,"lng":4.78000020980835},"countryCode":"NL"},{"uicCode":"8821105","stationCode":"NDKP","name":"Noorderkempen","coordinate":{"lat":51.358088,"lng":4.633977},"countryCode":"B"},{"uicCode":"8821063","stationCode":"ATWLB","name":"Antwerpen-Luchtbal","coordinate":{"lat":51.2449375,"lng":4.4251543},"countryCode":"B"},{"uicCode":"8821006","stationCode":"ATW","name":"Antwerpen-Centraal","coordinate":{"lat":51.21686,"lng":4.421242},"countryCode":"B"},{"uicCode":"8821121","stationCode":"BERCH","name":"Antwerpen-Berchem","coordinate":{"lat":51.198914,"lng":4.4332},"countryCode":"B"},{"uicCode":"8822004","stationCode":"MECH","name":"Mechelen","coordinate":{"lat":51.01758,"lng":4.48313},"countryCode":"B"},{"uicCode":"8819406","stationCode":"FBNL","name":"Brussels Airport-Zaventem","coordinate":{"lat":50.896821,"lng":4.48549},"countryCode":"B"},{"uicCode":"8812005","stationCode":"BRUSN","name":"Brussel-Noord","coordinate":{"lat":50.859658,"lng":4.360854},"countryCode":"B"},{"uicCode":"8813003","stationCode":"BRUSC","name":"Brussel-Centraal","coordinate":{"lat":50.845175,"lng":4.357131},"countryCode":"B"},{"uicCode":"8814001","stationCode":"BRUSZ","name":"Brussel-Zuid Midi","coordinate":{"lat":50.836782,"lng":4.336922},"countryCode":"B"}],"direction":"BOTH"},"consequence":{"section":{"stations":[{"uicCode":"8400131","stationCode":"BD","name":"Breda","coordinate":{"lat":51.5955543518066,"lng":4.78000020980835},"countryCode":"NL"},{"uicCode":"8821105","stationCode":"NDKP","name":"Noorderkempen","coordinate":{"lat":51.358088,"lng":4.633977},"countryCode":"B"},{"uicCode":"8821063","stationCode":"ATWLB","name":"Antwerpen-Luchtbal","coordinate":{"lat":51.2449375,"lng":4.4251543},"countryCode":"B"},{"uicCode":"8821006","stationCode":"ATW","name":"Antwerpen-Centraal","coordinate":{"lat":51.21686,"lng":4.421242},"countryCode":"B"}],"direction":"ONE_WAY"},"description":"aangepaste internationale dienstregeling","level":"LESS_TRAINS"},"sectionType":"HSL"}],"timespans":[{"start":"2023-06-03T04:00:00+0200","end":"2023-06-05T02:00:00+0200","period":"Zaterdag 03-06-2023 04:00 uur t/m maandag 05-06-2023 02:00 uur.","situation":{"label":"Door werkzaamheden: tussen Breda en Antwerpen-Centraal is de internationale dienstregeling aangepast."},"cause":{"label":"Werkzaamheden"},"additionalTravelTime":{"label":"U heeft geen langere reistijd.","shortLabel":"Geen extra reistijd"},"alternativeTransport":{"label":"Er rijden snelbussen.","shortLabel":"er rijden snelbussen"},"advices":[]}],"alternativeTransportTimespans":[{"start":"2023-06-03T04:00:00+0200","end":"2023-06-05T02:00:00+0200","alternativeTransport":{"location":[{"station":{"uicCode":"8400131","stationCode":"BD","name":"Breda","coordinate":{"lat":51.5955543518066,"lng":4.78000020980835},"countryCode":"NL"},"description":"vanaf de Belcrumzijde"}],"label":"Er rijden snelbussen tussen Breda en Noorderkempen.","shortLabel":"Er rijden snelbussen Breda - Noorderkempen"}}]},{"id":"7003519","type":"MAINTENANCE","registrationTime":"2023-04-28T11:06:37+0200","releaseTime":"2023-04-28T11:06:37+0200","local":false,"title":"Rotterdam - Breda (HSL).","titleSections":[[{"type":"STATION","value":"Rotterdam C."},{"type":"ICON","value":"MAINTENANCE"},{"type":"STATION","value":"Breda"}]],"isActive":true,"start":"2023-06-03T04:00:00+0200","end":"2023-06-05T02:00:00+0200","period":"Zaterdag 03-06-2023 04:00 uur t/m maandag 05-06-2023 02:00 uur.","impact":{"value":2},"summaryAdditionalTravelTime":{"label":"De extra reistijd is ongeveer 15 minuten.","shortLabel":"Extra reistijd 15 min.","minimumDurationInMinutes":15,"maximumDurationInMinutes":15},"publicationSections":[{"section":{"stations":[{"uicCode":"8400530","stationCode":"RTD","name":"Rotterdam Centraal","coordinate":{"lat":51.9249992370605,"lng":4.46888875961304},"countryCode":"NL"},{"uicCode":"8400529","stationCode":"RTB","name":"Rotterdam Blaak","coordinate":{"lat":51.9202766418457,"lng":4.48888874053955},"countryCode":"NL"},{"uicCode":"8400533","stationCode":"RTZ","name":"Rotterdam Zuid","coordinate":{"lat":51.9044456481934,"lng":4.51027774810791},"countryCode":"NL"},{"uicCode":"8400542","stationCode":"RLB","name":"Rotterdam Lombardijen","coordinate":{"lat":51.8800010681152,"lng":4.53138875961304},"countryCode":"NL"},{"uicCode":"8400132","stationCode":"BDPB","name":"Breda-Prinsenbeek","coordinate":{"lat":51.606388092041,"lng":4.72083330154419},"countryCode":"NL"},{"uicCode":"8400131","stationCode":"BD","name":"Breda","coordinate":{"lat":51.5955543518066,"lng":4.78000020980835},"countryCode":"NL"}],"direction":"BOTH"},"consequence":{"section":{"stations":[{"uicCode":"8400530","stationCode":"RTD","name":"Rotterdam Centraal","coordinate":{"lat":51.9249992370605,"lng":4.46888875961304},"countryCode":"NL"},{"uicCode":"8400529","stationCode":"RTB","name":"Rotterdam Blaak","coordinate":{"lat":51.9202766418457,"lng":4.48888874053955},"countryCode":"NL"},{"uicCode":"8400533","stationCode":"RTZ","name":"Rotterdam Zuid","coordinate":{"lat":51.9044456481934,"lng":4.51027774810791},"countryCode":"NL"},{"uicCode":"8400542","stationCode":"RLB","name":"Rotterdam Lombardijen","coordinate":{"lat":51.8800010681152,"lng":4.53138875961304},"countryCode":"NL"},{"uicCode":"8400132","stationCode":"BDPB","name":"Breda-Prinsenbeek","coordinate":{"lat":51.606388092041,"lng":4.72083330154419},"countryCode":"NL"},{"uicCode":"8400131","stationCode":"BD","name":"Breda","coordinate":{"lat":51.5955543518066,"lng":4.78000020980835},"countryCode":"NL"}],"direction":"ONE_WAY"},"description":"geen treinen op de HSL","level":"LESS_TRAINS"},"sectionType":"HSL"}],"timespans":[{"start":"2023-06-03T04:00:00+0200","end":"2023-06-05T02:00:00+0200","period":"Zaterdag 03-06-2023 04:00 uur t/m maandag 05-06-2023 02:00 uur.","situation":{"label":"Door werkzaamheden aan de Hogesnelheidslijn: tussen Rotterdam Centraal en Breda rijden er op de hogesnelheidslijn geen treinen."},"cause":{"label":"werkzaamheden HSL"},"additionalTravelTime":{"label":"De extra reistijd is ongeveer 15 minuten.","shortLabel":"Extra reistijd 15 min.","minimumDurationInMinutes":15,"maximumDurationInMinutes":15},"advices":["Tussen Rotterdam C. en Breda reist u via Dordrecht"]}],"alternativeTransportTimespans":[]},{"id":"7003471","type":"MAINTENANCE","registrationTime":"2023-04-25T15:29:35+0200","releaseTime":"2023-04-25T15:29:35+0200","local":false,"title":"Amsterdam - Brussel - London (HSL)","titleSections":[[{"type":"STATION","value":"Amsterdam C."},{"type":"ICON","value":"MAINTENANCE"},{"type":"STATION","value":"London St. P Int"}]],"isActive":false,"start":"2023-06-03T06:00:00+0200","end":"2023-06-04T23:59:00+0200","period":"Zaterdag 03-06-2023 06:00 uur t/m zondag 04-06-2023 23:59 uur.","impact":{"value":2},"summaryAdditionalTravelTime":{"label":"U heeft geen langere reistijd.","shortLabel":"Geen extra reistijd"},"publicationSections":[{"section":{"stations":[{"uicCode":"8400058","stationCode":"ASD","name":"Amsterdam Centraal","coordinate":{"lat":52.3788871765137,"lng":4.90027761459351},"countryCode":"NL"},{"uicCode":"8400059","stationCode":"ASS","name":"Amsterdam Sloterdijk","coordinate":{"lat":52.3888893127441,"lng":4.83777761459351},"countryCode":"NL"},{"uicCode":"8400079","stationCode":"ASDL","name":"Amsterdam Lelylaan","coordinate":{"lat":52.3577766418457,"lng":4.83388900756836},"countryCode":"NL"},{"uicCode":"8400561","stationCode":"SHL","name":"Schiphol Airport","coordinate":{"lat":52.3094444274902,"lng":4.76194429397583},"countryCode":"NL"},{"uicCode":"8400332","stationCode":"HFD","name":"Hoofddorp","coordinate":{"lat":52.2933349609375,"lng":4.70055532455444},"countryCode":"NL"},{"uicCode":"8400530","stationCode":"RTD","name":"Rotterdam Centraal","coordinate":{"lat":51.9249992370605,"lng":4.46888875961304},"countryCode":"NL"},{"uicCode":"8400529","stationCode":"RTB","name":"Rotterdam Blaak","coordinate":{"lat":51.9202766418457,"lng":4.48888874053955},"countryCode":"NL"},{"uicCode":"8400533","stationCode":"RTZ","name":"Rotterdam Zuid","coordinate":{"lat":51.9044456481934,"lng":4.51027774810791},"countryCode":"NL"},{"uicCode":"8400542","stationCode":"RLB","name":"Rotterdam Lombardijen","coordinate":{"lat":51.8800010681152,"lng":4.53138875961304},"countryCode":"NL"},{"uicCode":"8400132","stationCode":"BDPB","name":"Breda-Prinsenbeek","coordinate":{"lat":51.606388092041,"lng":4.72083330154419},"countryCode":"NL"},{"uicCode":"8400131","stationCode":"BD","name":"Breda","coordinate":{"lat":51.5955543518066,"lng":4.78000020980835},"countryCode":"NL"},{"uicCode":"8821105","stationCode":"NDKP","name":"Noorderkempen","coordinate":{"lat":51.358088,"lng":4.633977},"countryCode":"B"},{"uicCode":"8821063","stationCode":"ATWLB","name":"Antwerpen-Luchtbal","coordinate":{"lat":51.2449375,"lng":4.4251543},"countryCode":"B"},{"uicCode":"8821006","stationCode":"ATW","name":"Antwerpen-Centraal","coordinate":{"lat":51.21686,"lng":4.421242},"countryCode":"B"},{"uicCode":"8821121","stationCode":"BERCH","name":"Antwerpen-Berchem","coordinate":{"lat":51.198914,"lng":4.4332},"countryCode":"B"},{"uicCode":"8822004","stationCode":"MECH","name":"Mechelen","coordinate":{"lat":51.01758,"lng":4.48313},"countryCode":"B"},{"uicCode":"8812005","stationCode":"BRUSN","name":"Brussel-Noord","coordinate":{"lat":50.859658,"lng":4.360854},"countryCode":"B"},{"uicCode":"8813003","stationCode":"BRUSC","name":"Brussel-Centraal","coordinate":{"lat":50.845175,"lng":4.357131},"countryCode":"B"},{"uicCode":"8814001","stationCode":"BRUSZ","name":"Brussel-Zuid Midi","coordinate":{"lat":50.836782,"lng":4.336922},"countryCode":"B"},{"uicCode":"8722326","stationCode":"LILLEE","name":"Lille Europe","coordinate":{"lat":50.639444,"lng":3.074722},"countryCode":"F"},{"uicCode":"7015400","stationCode":"STP","name":"London St. Pancras Int.","coordinate":{"lat":51.531437,"lng":-0.126136},"countryCode":"GB"}],"direction":"BOTH"},"consequence":{"section":{"stations":[{"uicCode":"8400058","stationCode":"ASD","name":"Amsterdam Centraal","coordinate":{"lat":52.3788871765137,"lng":4.90027761459351},"countryCode":"NL"},{"uicCode":"8400059","stationCode":"ASS","name":"Amsterdam Sloterdijk","coordinate":{"lat":52.3888893127441,"lng":4.83777761459351},"countryCode":"NL"},{"uicCode":"8400079","stationCode":"ASDL","name":"Amsterdam Lelylaan","coordinate":{"lat":52.3577766418457,"lng":4.83388900756836},"countryCode":"NL"},{"uicCode":"8400561","stationCode":"SHL","name":"Schiphol Airport","coordinate":{"lat":52.3094444274902,"lng":4.76194429397583},"countryCode":"NL"},{"uicCode":"8400332","stationCode":"HFD","name":"Hoofddorp","coordinate":{"lat":52.2933349609375,"lng":4.70055532455444},"countryCode":"NL"},{"uicCode":"8400530","stationCode":"RTD","name":"Rotterdam Centraal","coordinate":{"lat":51.9249992370605,"lng":4.46888875961304},"countryCode":"NL"},{"uicCode":"8400529","stationCode":"RTB","name":"Rotterdam Blaak","coordinate":{"lat":51.9202766418457,"lng":4.48888874053955},"countryCode":"NL"},{"uicCode":"8400533","stationCode":"RTZ","name":"Rotterdam Zuid","coordinate":{"lat":51.9044456481934,"lng":4.51027774810791},"countryCode":"NL"},{"uicCode":"8400542","stationCode":"RLB","name":"Rotterdam Lombardijen","coordinate":{"lat":51.8800010681152,"lng":4.53138875961304},"countryCode":"NL"},{"uicCode":"8400132","stationCode":"BDPB","name":"Breda-Prinsenbeek","coordinate":{"lat":51.606388092041,"lng":4.72083330154419},"countryCode":"NL"},{"uicCode":"8400131","stationCode":"BD","name":"Breda","coordinate":{"lat":51.5955543518066,"lng":4.78000020980835},"countryCode":"NL"},{"uicCode":"8821105","stationCode":"NDKP","name":"Noorderkempen","coordinate":{"lat":51.358088,"lng":4.633977},"countryCode":"B"},{"uicCode":"8821063","stationCode":"ATWLB","name":"Antwerpen-Luchtbal","coordinate":{"lat":51.2449375,"lng":4.4251543},"countryCode":"B"},{"uicCode":"8821006","stationCode":"ATW","name":"Antwerpen-Centraal","coordinate":{"lat":51.21686,"lng":4.421242},"countryCode":"B"},{"uicCode":"8821121","stationCode":"BERCH","name":"Antwerpen-Berchem","coordinate":{"lat":51.198914,"lng":4.4332},"countryCode":"B"},{"uicCode":"8822004","stationCode":"MECH","name":"Mechelen","coordinate":{"lat":51.01758,"lng":4.48313},"countryCode":"B"},{"uicCode":"8812005","stationCode":"BRUSN","name":"Brussel-Noord","coordinate":{"lat":50.859658,"lng":4.360854},"countryCode":"B"},{"uicCode":"8813003","stationCode":"BRUSC","name":"Brussel-Centraal","coordinate":{"lat":50.845175,"lng":4.357131},"countryCode":"B"},{"uicCode":"8814001","stationCode":"BRUSZ","name":"Brussel-Zuid Midi","coordinate":{"lat":50.836782,"lng":4.336922},"countryCode":"B"},{"uicCode":"8722326","stationCode":"LILLEE","name":"Lille Europe","coordinate":{"lat":50.639444,"lng":3.074722},"countryCode":"F"},{"uicCode":"7015400","stationCode":"STP","name":"London St. Pancras Int.","coordinate":{"lat":51.531437,"lng":-0.126136},"countryCode":"GB"}],"direction":"ONE_WAY"},"description":"aangepaste internationale dienstregeling","level":"LESS_TRAINS"},"sectionType":"HSL"}],"timespans":[{"start":"2023-06-03T06:00:00+0200","end":"2023-06-04T23:59:00+0200","period":"Zaterdag 03-06-2023 06:00 uur t/m zondag 04-06-2023 23:59 uur.","situation":{"label":"Door werkzaamheden: tussen Amsterdam Centraal en London St. Pancras Int. is de internationale dienstregeling aangepast."},"cause":{"label":"Werkzaamheden"},"additionalTravelTime":{"label":"U heeft geen langere reistijd.","shortLabel":"Geen extra reistijd"},"advices":[]}],"alternativeTransportTimespans":[]},{"id":"7003455","type":"MAINTENANCE","registrationTime":"2023-05-31T09:33:28+0200","releaseTime":"2023-05-31T09:33:28+0200","local":false,"title":"Zwolle - Groningen.","titleSections":[[{"type":"STATION","value":"Zwolle"},{"type":"STATION","value":"Meppel"},{"type":"ICON","value":"MAINTENANCE"},{"type":"STATION","value":"Assen"},{"type":"STATION","value":"Groningen"}]],"isActive":false,"start":"2023-06-08T04:00:00+0200","end":"2023-06-22T02:00:00+0200","period":"Donderdag 08-06-2023 04:00 uur t/m donderdag 22-06-2023 02:00 uur.","impact":{"value":5},"summaryAdditionalTravelTime":{"label":"De extra reistijd kan oplopen tot 45 minuten.","shortLabel":"Extra reistijd tot 45 min.","maximumDurationInMinutes":45},"publicationSections":[{"section":{"stations":[{"uicCode":"8400747","stationCode":"ZL","name":"Zwolle","coordinate":{"lat":52.5047225952148,"lng":6.09194421768188},"countryCode":"NL"},{"uicCode":"8400435","stationCode":"MP","name":"Meppel","coordinate":{"lat":52.6908340454102,"lng":6.19750022888184},"countryCode":"NL"},{"uicCode":"8400330","stationCode":"HGV","name":"Hoogeveen","coordinate":{"lat":52.7338905334473,"lng":6.47361087799072},"countryCode":"NL"},{"uicCode":"8400100","stationCode":"BL","name":"Beilen","coordinate":{"lat":52.8547210693359,"lng":6.52111101150513},"countryCode":"NL"},{"uicCode":"8400073","stationCode":"ASN","name":"Assen","coordinate":{"lat":52.9916648864746,"lng":6.57083320617676},"countryCode":"NL"},{"uicCode":"8400297","stationCode":"HRN","name":"Haren","coordinate":{"lat":53.1761093139648,"lng":6.61722230911255},"countryCode":"NL"},{"uicCode":"8400238","stationCode":"GERP","name":"Groningen Europapark","coordinate":{"lat":53.20480027,"lng":6.5854178},"countryCode":"NL"},{"uicCode":"8400263","stationCode":"GN","name":"Groningen","coordinate":{"lat":53.2105560302734,"lng":6.56472206115723},"countryCode":"NL"}],"direction":"BOTH"},"consequence":{"section":{"stations":[{"uicCode":"8400435","stationCode":"MP","name":"Meppel","coordinate":{"lat":52.6908340454102,"lng":6.19750022888184},"countryCode":"NL"},{"uicCode":"8400330","stationCode":"HGV","name":"Hoogeveen","coordinate":{"lat":52.7338905334473,"lng":6.47361087799072},"countryCode":"NL"},{"uicCode":"8400100","stationCode":"BL","name":"Beilen","coordinate":{"lat":52.8547210693359,"lng":6.52111101150513},"countryCode":"NL"},{"uicCode":"8400073","stationCode":"ASN","name":"Assen","coordinate":{"lat":52.9916648864746,"lng":6.57083320617676},"countryCode":"NL"}],"direction":"ONE_WAY"},"description":"rijden bussen","level":"LESS_TRAINS"},"sectionType":"NL"}],"timespans":[{"start":"2023-06-08T04:00:00+0200","end":"2023-06-22T02:00:00+0200","period":"Donderdag 08-06-2023 04:00 uur t/m donderdag 22-06-2023 02:00 uur.","situation":{"label":"Door werkzaamheden: tussen Assen en Meppel rijden er bussen."},"cause":{"label":"werkzaamheden"},"additionalTravelTime":{"label":"De extra reistijd kan oplopen tot 45 minuten.","shortLabel":"Extra reistijd tot 45 min.","maximumDurationInMinutes":45},"alternativeTransport":{"label":"er rijden stop- en snelbussen","shortLabel":"er rijden stop- en snelbussen"},"advices":["Uw NS-vervoerbewijs is geldig bij Arriva tussen Groningen en Leeuwarden. Uitchecken bij NS, inchecken bij Arriva voor omreizen is niet nodig","Tussen Zwolle en Groningen reist u via Leeuwarden"]}],"alternativeTransportTimespans":[{"start":"2023-06-08T04:00:00+0200","end":"2023-06-22T02:00:00+0200","alternativeTransport":{"location":[{"station":{"uicCode":"8400435","stationCode":"MP","name":"Meppel","coordinate":{"lat":52.6908340454102,"lng":6.19750022888184},"countryCode":"NL"},"description":"vanaf de voorzijde van het station"},{"station":{"uicCode":"8400330","stationCode":"HGV","name":"Hoogeveen","coordinate":{"lat":52.7338905334473,"lng":6.47361087799072},"countryCode":"NL"},"description":"vanaf de voorzijde van het station"},{"station":{"uicCode":"8400100","stationCode":"BL","name":"Beilen","coordinate":{"lat":52.8547210693359,"lng":6.52111101150513},"countryCode":"NL"},"description":"vanaf de voorzijde van het station"},{"station":{"uicCode":"8400073","stationCode":"ASN","name":"Assen","coordinate":{"lat":52.9916648864746,"lng":6.57083320617676},"countryCode":"NL"},"description":"vanaf het busstation"}],"label":"Er rijden stopbussen tussen Meppel, Hoogeveen, Beilen en Assen.","shortLabel":"Er rijden stopbussen Meppel - Hoogeveen - Beilen - Assen"}},{"start":"2023-06-08T04:00:00+0200","end":"2023-06-22T02:00:00+0200","alternativeTransport":{"location":[{"station":{"uicCode":"8400747","stationCode":"ZL","name":"Zwolle","coordinate":{"lat":52.5047225952148,"lng":6.09194421768188},"countryCode":"NL"},"description":"vanaf de Hanzelaan, aan de zuidzijde van het station"},{"station":{"uicCode":"8400073","stationCode":"ASN","name":"Assen","coordinate":{"lat":52.9916648864746,"lng":6.57083320617676},"countryCode":"NL"},"description":"vanaf het busstation"}],"label":"Er rijden snelbussen tussen Zwolle en Assen.","shortLabel":"Er rijden snelbussen Zwolle - Assen"}}]},{"id":"7003533","type":"MAINTENANCE","registrationTime":"2023-05-19T13:11:29+0200","releaseTime":"2023-05-19T13:11:29+0200","local":false,"title":"Roosendaal - Vlissingen.","titleSections":[[{"type":"STATION","value":"Roosendaal"},{"type":"ICON","value":"MAINTENANCE"},{"type":"STATION","value":"Vlissingen"}],[{"type":"STATION","value":"Roosendaal"},{"type":"ICON","value":"MAINTENANCE"},{"type":"STATION","value":"Goes"},{"type":"STATION","value":"Vlissingen"}]],"isActive":false,"start":"2023-06-09T04:00:00+0200","end":"2023-06-18T02:00:00+0200","period":"Vrijdag 09-06-2023 04:00 uur t/m zondag 18-06-2023 02:00 uur.","impact":{"value":5},"summaryAdditionalTravelTime":{"label":"De extra reistijd kan oplopen tot 45 minuten.","shortLabel":"Extra reistijd tot 45 min.","minimumDurationInMinutes":45,"maximumDurationInMinutes":45},"publicationSections":[{"section":{"stations":[{"uicCode":"8400526","stationCode":"RSD","name":"Roosendaal","coordinate":{"lat":51.5402793884277,"lng":4.45833349227905},"countryCode":"NL"},{"uicCode":"8400108","stationCode":"BGN","name":"Bergen op Zoom","coordinate":{"lat":51.4938888549805,"lng":4.29611110687256},"countryCode":"NL"},{"uicCode":"8400521","stationCode":"RB","name":"Rilland-Bath","coordinate":{"lat":51.422779083252,"lng":4.16111087799072},"countryCode":"NL"},{"uicCode":"8400367","stationCode":"KBD","name":"Krabbendijke","coordinate":{"lat":51.4333343505859,"lng":4.11694431304932},"countryCode":"NL"},{"uicCode":"8400370","stationCode":"KRG","name":"Kruiningen-Yerseke","coordinate":{"lat":51.4650001525879,"lng":4.03722238540649},"countryCode":"NL"},{"uicCode":"8400354","stationCode":"BZL","name":"Kapelle-Biezelinge","coordinate":{"lat":51.4808349609375,"lng":3.95611119270325},"countryCode":"NL"},{"uicCode":"8400253","stationCode":"GS","name":"Goes","coordinate":{"lat":51.4980545043945,"lng":3.89055562019348},"countryCode":"NL"},{"uicCode":"8400069","stationCode":"ARN","name":"Arnemuiden","coordinate":{"lat":51.5016670227051,"lng":3.66916656494141},"countryCode":"NL"},{"uicCode":"8400436","stationCode":"MDB","name":"Middelburg","coordinate":{"lat":51.4947204589844,"lng":3.61722230911255},"countryCode":"NL"},{"uicCode":"8400653","stationCode":"VSS","name":"Vlissingen Souburg","coordinate":{"lat":51.4647216796875,"lng":3.59527778625488},"countryCode":"NL"},{"uicCode":"8400652","stationCode":"VS","name":"Vlissingen","coordinate":{"lat":51.4458351135254,"lng":3.59527778625488},"countryCode":"NL"}],"direction":"BOTH"},"consequence":{"section":{"stations":[{"uicCode":"8400526","stationCode":"RSD","name":"Roosendaal","coordinate":{"lat":51.5402793884277,"lng":4.45833349227905},"countryCode":"NL"},{"uicCode":"8400108","stationCode":"BGN","name":"Bergen op Zoom","coordinate":{"lat":51.4938888549805,"lng":4.29611110687256},"countryCode":"NL"},{"uicCode":"8400521","stationCode":"RB","name":"Rilland-Bath","coordinate":{"lat":51.422779083252,"lng":4.16111087799072},"countryCode":"NL"},{"uicCode":"8400367","stationCode":"KBD","name":"Krabbendijke","coordinate":{"lat":51.4333343505859,"lng":4.11694431304932},"countryCode":"NL"},{"uicCode":"8400370","stationCode":"KRG","name":"Kruiningen-Yerseke","coordinate":{"lat":51.4650001525879,"lng":4.03722238540649},"countryCode":"NL"},{"uicCode":"8400354","stationCode":"BZL","name":"Kapelle-Biezelinge","coordinate":{"lat":51.4808349609375,"lng":3.95611119270325},"countryCode":"NL"},{"uicCode":"8400253","stationCode":"GS","name":"Goes","coordinate":{"lat":51.4980545043945,"lng":3.89055562019348},"countryCode":"NL"},{"uicCode":"8400069","stationCode":"ARN","name":"Arnemuiden","coordinate":{"lat":51.5016670227051,"lng":3.66916656494141},"countryCode":"NL"},{"uicCode":"8400436","stationCode":"MDB","name":"Middelburg","coordinate":{"lat":51.4947204589844,"lng":3.61722230911255},"countryCode":"NL"},{"uicCode":"8400653","stationCode":"VSS","name":"Vlissingen Souburg","coordinate":{"lat":51.4647216796875,"lng":3.59527778625488},"countryCode":"NL"},{"uicCode":"8400652","stationCode":"VS","name":"Vlissingen","coordinate":{"lat":51.4458351135254,"lng":3.59527778625488},"countryCode":"NL"}],"direction":"ONE_WAY"},"description":"rijden bussen","level":"LESS_TRAINS"},"sectionType":"NL"},{"section":{"stations":[{"uicCode":"8400526","stationCode":"RSD","name":"Roosendaal","coordinate":{"lat":51.5402793884277,"lng":4.45833349227905},"countryCode":"NL"},{"uicCode":"8400108","stationCode":"BGN","name":"Bergen op Zoom","coordinate":{"lat":51.4938888549805,"lng":4.29611110687256},"countryCode":"NL"},{"uicCode":"8400521","stationCode":"RB","name":"Rilland-Bath","coordinate":{"lat":51.422779083252,"lng":4.16111087799072},"countryCode":"NL"},{"uicCode":"8400367","stationCode":"KBD","name":"Krabbendijke","coordinate":{"lat":51.4333343505859,"lng":4.11694431304932},"countryCode":"NL"},{"uicCode":"8400370","stationCode":"KRG","name":"Kruiningen-Yerseke","coordinate":{"lat":51.4650001525879,"lng":4.03722238540649},"countryCode":"NL"},{"uicCode":"8400354","stationCode":"BZL","name":"Kapelle-Biezelinge","coordinate":{"lat":51.4808349609375,"lng":3.95611119270325},"countryCode":"NL"},{"uicCode":"8400253","stationCode":"GS","name":"Goes","coordinate":{"lat":51.4980545043945,"lng":3.89055562019348},"countryCode":"NL"},{"uicCode":"8400069","stationCode":"ARN","name":"Arnemuiden","coordinate":{"lat":51.5016670227051,"lng":3.66916656494141},"countryCode":"NL"},{"uicCode":"8400436","stationCode":"MDB","name":"Middelburg","coordinate":{"lat":51.4947204589844,"lng":3.61722230911255},"countryCode":"NL"},{"uicCode":"8400653","stationCode":"VSS","name":"Vlissingen Souburg","coordinate":{"lat":51.4647216796875,"lng":3.59527778625488},"countryCode":"NL"},{"uicCode":"8400652","stationCode":"VS","name":"Vlissingen","coordinate":{"lat":51.4458351135254,"lng":3.59527778625488},"countryCode":"NL"}],"direction":"BOTH"},"consequence":{"section":{"stations":[{"uicCode":"8400526","stationCode":"RSD","name":"Roosendaal","coordinate":{"lat":51.5402793884277,"lng":4.45833349227905},"countryCode":"NL"},{"uicCode":"8400108","stationCode":"BGN","name":"Bergen op Zoom","coordinate":{"lat":51.4938888549805,"lng":4.29611110687256},"countryCode":"NL"},{"uicCode":"8400521","stationCode":"RB","name":"Rilland-Bath","coordinate":{"lat":51.422779083252,"lng":4.16111087799072},"countryCode":"NL"},{"uicCode":"8400367","stationCode":"KBD","name":"Krabbendijke","coordinate":{"lat":51.4333343505859,"lng":4.11694431304932},"countryCode":"NL"},{"uicCode":"8400370","stationCode":"KRG","name":"Kruiningen-Yerseke","coordinate":{"lat":51.4650001525879,"lng":4.03722238540649},"countryCode":"NL"},{"uicCode":"8400354","stationCode":"BZL","name":"Kapelle-Biezelinge","coordinate":{"lat":51.4808349609375,"lng":3.95611119270325},"countryCode":"NL"},{"uicCode":"8400253","stationCode":"GS","name":"Goes","coordinate":{"lat":51.4980545043945,"lng":3.89055562019348},"countryCode":"NL"}],"direction":"ONE_WAY"},"description":"rijden bussen","level":"LESS_TRAINS"},"sectionType":"NL"}],"timespans":[{"start":"2023-06-09T04:00:00+0200","end":"2023-06-14T02:00:00+0200","period":"Vrijdag 09-06-2023 04:00 uur t/m woensdag 14-06-2023 02:00 uur.","situation":{"label":"Door werkzaamheden: tussen Roosendaal en Vlissingen rijden er bussen."},"cause":{"label":"werkzaamheden"},"additionalTravelTime":{"label":"De extra reistijd is ongeveer 45 minuten.","shortLabel":"Extra reistijd 45 min.","minimumDurationInMinutes":45,"maximumDurationInMinutes":45},"alternativeTransport":{"label":"maak gebruik van het vervangende vervoer","shortLabel":"gebruik het vervangende vervoer"},"advices":["Tussen Arnemuiden en Goes reist u via Middelburg","Tussen Kapelle-Biezel. en Kruiningen-Y./Roosendaal reist u via Goes"]},{"start":"2023-06-14T04:00:00+0200","end":"2023-06-18T02:00:00+0200","period":"Woensdag 14-06-2023 04:00 uur t/m zondag 18-06-2023 02:00 uur.","situation":{"label":"Door werkzaamheden: tussen Roosendaal en Goes rijden er bussen."},"cause":{"label":"werkzaamheden"},"additionalTravelTime":{"label":"De extra reistijd is ongeveer 30 minuten.","shortLabel":"Extra reistijd 30 min.","minimumDurationInMinutes":30,"maximumDurationInMinutes":30},"alternativeTransport":{"label":"maak gebruik van het vervangende vervoer","shortLabel":"gebruik het vervangende vervoer"},"advices":["Tussen Kapelle-Biezel. en Kruiningen-Y./Roosendaal reist u via Goes"]}],"alternativeTransportTimespans":[{"start":"2023-06-09T04:00:00+0200","end":"2023-06-14T02:00:00+0200","alternativeTransport":{"location":[{"station":{"uicCode":"8400526","stationCode":"RSD","name":"Roosendaal","coordinate":{"lat":51.5402793884277,"lng":4.45833349227905},"countryCode":"NL"},"description":"vanaf de voorzijde van het station"},{"station":{"uicCode":"8400108","stationCode":"BGN","name":"Bergen op Zoom","coordinate":{"lat":51.4938888549805,"lng":4.29611110687256},"countryCode":"NL"},"description":"vanaf het Stationsplein"},{"station":{"uicCode":"8400253","stationCode":"GS","name":"Goes","coordinate":{"lat":51.4980545043945,"lng":3.89055562019348},"countryCode":"NL"},"description":"vanaf de achterzijde van het station"},{"station":{"uicCode":"8400436","stationCode":"MDB","name":"Middelburg","coordinate":{"lat":51.4947204589844,"lng":3.61722230911255},"countryCode":"NL"},"description":"vanaf de achterzijde van het station"},{"station":{"uicCode":"8400652","stationCode":"VS","name":"Vlissingen","coordinate":{"lat":51.4458351135254,"lng":3.59527778625488},"countryCode":"NL"},"description":"vanaf het Stationsplein"}],"label":"Er rijden snelbussen tussen Roosendaal, Bergen op Zoom, Goes, Middelburg en Vlissingen.","shortLabel":"Er rijden snelbussen Roosendaal - Bergen op Zoom - Goes - Middelburg - Vlissingen"}},{"start":"2023-06-09T04:00:00+0200","end":"2023-06-14T02:00:00+0200","alternativeTransport":{"location":[{"station":{"uicCode":"8400526","stationCode":"RSD","name":"Roosendaal","coordinate":{"lat":51.5402793884277,"lng":4.45833349227905},"countryCode":"NL"},"description":"vanaf de voorzijde van het station"},{"station":{"uicCode":"8400108","stationCode":"BGN","name":"Bergen op Zoom","coordinate":{"lat":51.4938888549805,"lng":4.29611110687256},"countryCode":"NL"},"description":"vanaf het Stationsplein"},{"station":{"uicCode":"8400521","stationCode":"RB","name":"Rilland-Bath","coordinate":{"lat":51.422779083252,"lng":4.16111087799072},"countryCode":"NL"},"description":"vanaf de Provinciale weg"},{"station":{"uicCode":"8400367","stationCode":"KBD","name":"Krabbendijke","coordinate":{"lat":51.4333343505859,"lng":4.11694431304932},"countryCode":"NL"},"description":"vanaf de voorzijde van het station"},{"station":{"uicCode":"8400370","stationCode":"KRG","name":"Kruiningen-Yerseke","coordinate":{"lat":51.4650001525879,"lng":4.03722238540649},"countryCode":"NL"},"description":"vanaf de voorzijde van het station"},{"station":{"uicCode":"8400253","stationCode":"GS","name":"Goes","coordinate":{"lat":51.4980545043945,"lng":3.89055562019348},"countryCode":"NL"},"description":"vanaf de achterzijde van het station"},{"station":{"uicCode":"8400436","stationCode":"MDB","name":"Middelburg","coordinate":{"lat":51.4947204589844,"lng":3.61722230911255},"countryCode":"NL"},"description":"vanaf de achterzijde van het station"},{"station":{"uicCode":"8400653","stationCode":"VSS","name":"Vlissingen Souburg","coordinate":{"lat":51.4647216796875,"lng":3.59527778625488},"countryCode":"NL"},"description":"vanaf de achterzijde van het station"},{"station":{"uicCode":"8400652","stationCode":"VS","name":"Vlissingen","coordinate":{"lat":51.4458351135254,"lng":3.59527778625488},"countryCode":"NL"},"description":"vanaf het Stationsplein"}],"label":"Er rijden stopbussen tussen Roosendaal, Bergen op Zoom, Rilland-Bath, Krabbendijke, Kruiningen-Yerseke, Goes, Middelburg, Vlissingen Souburg en Vlissingen.","shortLabel":"Er rijden stopbussen Roosendaal - Bergen op Zoom - Rilland-Bath - Krabbendijke - Kruiningen-Y. - Goes - Middelburg - Souburg - Vlissingen"}},{"start":"2023-06-09T04:00:00+0200","end":"2023-06-14T02:00:00+0200","alternativeTransport":{"location":[{"station":{"uicCode":"8400436","stationCode":"MDB","name":"Middelburg","coordinate":{"lat":51.4947204589844,"lng":3.61722230911255},"countryCode":"NL"},"description":"vanaf de achterzijde van het station"},{"station":{"uicCode":"8400069","stationCode":"ARN","name":"Arnemuiden","coordinate":{"lat":51.5016670227051,"lng":3.66916656494141},"countryCode":"NL"},"description":"vanaf het Stationsplein"}],"label":"Er rijden taxibusjes tussen Middelburg en Arnemuiden.","shortLabel":"Er rijden taxibusjes Middelburg - Arnemuiden"}},{"start":"2023-06-09T04:00:00+0200","end":"2023-06-14T02:00:00+0200","alternativeTransport":{"location":[{"station":{"uicCode":"8400253","stationCode":"GS","name":"Goes","coordinate":{"lat":51.4980545043945,"lng":3.89055562019348},"countryCode":"NL"},"description":"vanaf de achterzijde van het station"},{"station":{"uicCode":"8400354","stationCode":"BZL","name":"Kapelle-Biezelinge","coordinate":{"lat":51.4808349609375,"lng":3.95611119270325},"countryCode":"NL"},"description":"vanaf de voorzijde van het station"}],"label":"Er rijden taxibusjes tussen Goes en Kapelle-Biezelinge.","shortLabel":"Er rijden taxibusjes Goes - Kapelle-Biezel."}},{"start":"2023-06-14T04:00:00+0200","end":"2023-06-17T02:00:00+0200","alternativeTransport":{"location":[{"station":{"uicCode":"8400526","stationCode":"RSD","name":"Roosendaal","coordinate":{"lat":51.5402793884277,"lng":4.45833349227905},"countryCode":"NL"},"description":"vanaf de voorzijde van het station"},{"station":{"uicCode":"8400108","stationCode":"BGN","name":"Bergen op Zoom","coordinate":{"lat":51.4938888549805,"lng":4.29611110687256},"countryCode":"NL"},"description":"vanaf het Stationsplein"},{"station":{"uicCode":"8400253","stationCode":"GS","name":"Goes","coordinate":{"lat":51.4980545043945,"lng":3.89055562019348},"countryCode":"NL"},"description":"vanaf de achterzijde van het station"}],"label":"Er rijden snelbussen tussen Roosendaal, Bergen op Zoom en Goes.","shortLabel":"Er rijden snelbussen Roosendaal - Bergen op Zoom - Goes"}},{"start":"2023-06-14T04:00:00+0200","end":"2023-06-17T02:00:00+0200","alternativeTransport":{"location":[{"station":{"uicCode":"8400526","stationCode":"RSD","name":"Roosendaal","coordinate":{"lat":51.5402793884277,"lng":4.45833349227905},"countryCode":"NL"},"description":"vanaf de voorzijde van het station"},{"station":{"uicCode":"8400108","stationCode":"BGN","name":"Bergen op Zoom","coordinate":{"lat":51.4938888549805,"lng":4.29611110687256},"countryCode":"NL"},"description":"vanaf het Stationsplein"},{"station":{"uicCode":"8400521","stationCode":"RB","name":"Rilland-Bath","coordinate":{"lat":51.422779083252,"lng":4.16111087799072},"countryCode":"NL"},"description":"vanaf de Provinciale weg"},{"station":{"uicCode":"8400367","stationCode":"KBD","name":"Krabbendijke","coordinate":{"lat":51.4333343505859,"lng":4.11694431304932},"countryCode":"NL"},"description":"vanaf de voorzijde van het station"},{"station":{"uicCode":"8400370","stationCode":"KRG","name":"Kruiningen-Yerseke","coordinate":{"lat":51.4650001525879,"lng":4.03722238540649},"countryCode":"NL"},"description":"vanaf de voorzijde van het station"},{"station":{"uicCode":"8400253","stationCode":"GS","name":"Goes","coordinate":{"lat":51.4980545043945,"lng":3.89055562019348},"countryCode":"NL"},"description":"vanaf de achterzijde van het station"}],"label":"Er rijden stopbussen tussen Roosendaal, Bergen op Zoom, Rilland-Bath, Krabbendijke, Kruiningen-Yerseke en Goes.","shortLabel":"Er rijden stopbussen Roosendaal - Bergen op Zoom - Rilland-Bath - Krabbendijke - Kruiningen-Y. - Goes"}},{"start":"2023-06-14T04:00:00+0200","end":"2023-06-17T02:00:00+0200","alternativeTransport":{"location":[{"station":{"uicCode":"8400253","stationCode":"GS","name":"Goes","coordinate":{"lat":51.4980545043945,"lng":3.89055562019348},"countryCode":"NL"},"description":"vanaf de achterzijde van het station"},{"station":{"uicCode":"8400354","stationCode":"BZL","name":"Kapelle-Biezelinge","coordinate":{"lat":51.4808349609375,"lng":3.95611119270325},"countryCode":"NL"},"description":"vanaf de voorzijde van het station"}],"label":"Er rijden taxibusjes tussen Goes en Kapelle-Biezelinge.","shortLabel":"Er rijden taxibusjes Goes - Kapelle-Biezel."}},{"start":"2023-06-17T04:00:00+0200","end":"2023-06-18T02:00:00+0200","alternativeTransport":{"location":[{"station":{"uicCode":"8400526","stationCode":"RSD","name":"Roosendaal","coordinate":{"lat":51.5402793884277,"lng":4.45833349227905},"countryCode":"NL"},"description":"vanaf de voorzijde van het station"},{"station":{"uicCode":"8400253","stationCode":"GS","name":"Goes","coordinate":{"lat":51.4980545043945,"lng":3.89055562019348},"countryCode":"NL"},"description":"vanaf de achterzijde van het station"}],"label":"Er rijden snelbussen tussen Roosendaal en Goes.","shortLabel":"Er rijden snelbussen Roosendaal - Goes"}},{"start":"2023-06-17T04:00:00+0200","end":"2023-06-18T02:00:00+0200","alternativeTransport":{"location":[{"station":{"uicCode":"8400526","stationCode":"RSD","name":"Roosendaal","coordinate":{"lat":51.5402793884277,"lng":4.45833349227905},"countryCode":"NL"},"description":"vanaf de voorzijde van het station"},{"station":{"uicCode":"8400108","stationCode":"BGN","name":"Bergen op Zoom","coordinate":{"lat":51.4938888549805,"lng":4.29611110687256},"countryCode":"NL"},"description":"vanaf het Stationsplein"},{"station":{"uicCode":"8400521","stationCode":"RB","name":"Rilland-Bath","coordinate":{"lat":51.422779083252,"lng":4.16111087799072},"countryCode":"NL"},"description":"vanaf de Provinciale weg"},{"station":{"uicCode":"8400367","stationCode":"KBD","name":"Krabbendijke","coordinate":{"lat":51.4333343505859,"lng":4.11694431304932},"countryCode":"NL"},"description":"vanaf de voorzijde van het station"},{"station":{"uicCode":"8400370","stationCode":"KRG","name":"Kruiningen-Yerseke","coordinate":{"lat":51.4650001525879,"lng":4.03722238540649},"countryCode":"NL"},"description":"vanaf de voorzijde van het station"},{"station":{"uicCode":"8400253","stationCode":"GS","name":"Goes","coordinate":{"lat":51.4980545043945,"lng":3.89055562019348},"countryCode":"NL"},"description":"vanaf de achterzijde van het station"}],"label":"Er rijden stopbussen tussen Roosendaal, Bergen op Zoom, Rilland-Bath, Krabbendijke, Kruiningen-Yerseke en Goes.","shortLabel":"Er rijden stopbussen Roosendaal - Bergen op Zoom - Rilland-Bath - Krabbendijke - Kruiningen-Y. - Goes"}},{"start":"2023-06-17T04:00:00+0200","end":"2023-06-18T02:00:00+0200","alternativeTransport":{"location":[{"station":{"uicCode":"8400253","stationCode":"GS","name":"Goes","coordinate":{"lat":51.4980545043945,"lng":3.89055562019348},"countryCode":"NL"},"description":"vanaf de achterzijde van het station"},{"station":{"uicCode":"8400354","stationCode":"BZL","name":"Kapelle-Biezelinge","coordinate":{"lat":51.4808349609375,"lng":3.95611119270325},"countryCode":"NL"},"description":"vanaf de voorzijde van het station"}],"label":"Er rijden taxibusjes tussen Goes en Kapelle-Biezelinge.","shortLabel":"Er rijden taxibusjes Goes - Kapelle-Biezel."}}]},{"id":"7003545","type":"MAINTENANCE","registrationTime":"2023-05-22T09:43:40+0200","releaseTime":"2023-05-22T09:43:40+0200","local":false,"title":"Apeldoorn - Enschede.","titleSections":[[{"type":"STATION","value":"Apeldoorn"},{"type":"ICON","value":"MAINTENANCE"},{"type":"STATION","value":"Almelo"},{"type":"STATION","value":"Enschede"}]],"isActive":false,"start":"2023-06-10T00:30:00+0200","end":"2023-06-12T02:00:00+0200","period":"Zaterdag 10-06-2023 00:30 uur t/m maandag 12-06-2023 02:00 uur.","impact":{"value":4},"summaryAdditionalTravelTime":{"label":"De extra reistijd kan oplopen tot 30 minuten.","shortLabel":"Extra reistijd tot 30 min.","maximumDurationInMinutes":30},"publicationSections":[{"section":{"stations":[{"uicCode":"8400066","stationCode":"APD","name":"Apeldoorn","coordinate":{"lat":52.2091674804687,"lng":5.97027778625488},"countryCode":"NL"},{"uicCode":"8400229","stationCode":"APDO","name":"Apeldoorn Osseveld","coordinate":{"lat":52.2152786254883,"lng":6.00444459915161},"countryCode":"NL"},{"uicCode":"8400599","stationCode":"TWL","name":"Twello","coordinate":{"lat":52.2377777099609,"lng":6.09861087799072},"countryCode":"NL"},{"uicCode":"8400173","stationCode":"DV","name":"Deventer","coordinate":{"lat":52.2574996948242,"lng":6.16055536270142},"countryCode":"NL"},{"uicCode":"8400185","stationCode":"DVC","name":"Deventer Colmschate","coordinate":{"lat":52.2502784729004,"lng":6.21444463729858},"countryCode":"NL"},{"uicCode":"8400328","stationCode":"HON","name":"Holten","coordinate":{"lat":52.2838897705078,"lng":6.42027759552002},"countryCode":"NL"},{"uicCode":"8400538","stationCode":"RSN","name":"Rijssen","coordinate":{"lat":52.3122215270996,"lng":6.52027797698975},"countryCode":"NL"},{"uicCode":"8400691","stationCode":"WDN","name":"Wierden","coordinate":{"lat":52.3613891601562,"lng":6.59166669845581},"countryCode":"NL"},{"uicCode":"8400051","stationCode":"AML","name":"Almelo","coordinate":{"lat":52.3580551147461,"lng":6.65388870239258},"countryCode":"NL"},{"uicCode":"8400520","stationCode":"AMRI","name":"Almelo de Riet","coordinate":{"lat":52.3419456481934,"lng":6.66666650772095},"countryCode":"NL"},{"uicCode":"8400124","stationCode":"BN","name":"Borne","coordinate":{"lat":52.2988891601562,"lng":6.74805545806885},"countryCode":"NL"},{"uicCode":"8400316","stationCode":"HGL","name":"Hengelo","coordinate":{"lat":52.2616653442383,"lng":6.79388904571533},"countryCode":"NL"},{"uicCode":"8400221","stationCode":"ESK","name":"Enschede Kennispark","coordinate":{"lat":52.2374992370605,"lng":6.83888912200928},"countryCode":"NL"},{"uicCode":"8400212","stationCode":"ES","name":"Enschede","coordinate":{"lat":52.2224998474121,"lng":6.8899998664856},"countryCode":"NL"}],"direction":"BOTH"},"consequence":{"section":{"stations":[{"uicCode":"8400066","stationCode":"APD","name":"Apeldoorn","coordinate":{"lat":52.2091674804687,"lng":5.97027778625488},"countryCode":"NL"},{"uicCode":"8400229","stationCode":"APDO","name":"Apeldoorn Osseveld","coordinate":{"lat":52.2152786254883,"lng":6.00444459915161},"countryCode":"NL"},{"uicCode":"8400599","stationCode":"TWL","name":"Twello","coordinate":{"lat":52.2377777099609,"lng":6.09861087799072},"countryCode":"NL"},{"uicCode":"8400173","stationCode":"DV","name":"Deventer","coordinate":{"lat":52.2574996948242,"lng":6.16055536270142},"countryCode":"NL"},{"uicCode":"8400185","stationCode":"DVC","name":"Deventer Colmschate","coordinate":{"lat":52.2502784729004,"lng":6.21444463729858},"countryCode":"NL"},{"uicCode":"8400328","stationCode":"HON","name":"Holten","coordinate":{"lat":52.2838897705078,"lng":6.42027759552002},"countryCode":"NL"},{"uicCode":"8400538","stationCode":"RSN","name":"Rijssen","coordinate":{"lat":52.3122215270996,"lng":6.52027797698975},"countryCode":"NL"},{"uicCode":"8400691","stationCode":"WDN","name":"Wierden","coordinate":{"lat":52.3613891601562,"lng":6.59166669845581},"countryCode":"NL"},{"uicCode":"8400051","stationCode":"AML","name":"Almelo","coordinate":{"lat":52.3580551147461,"lng":6.65388870239258},"countryCode":"NL"}],"direction":"ONE_WAY"},"description":"rijden bussen","level":"LESS_TRAINS"},"sectionType":"NL"}],"timespans":[{"start":"2023-06-10T00:30:00+0200","end":"2023-06-12T02:00:00+0200","period":"Zaterdag 10-06-2023 00:30 uur t/m maandag 12-06-2023 02:00 uur.","situation":{"label":"Door werkzaamheden: tussen Apeldoorn en Almelo rijden er bussen."},"cause":{"label":"werkzaamheden"},"additionalTravelTime":{"label":"De extra reistijd kan oplopen tot 30 minuten.","shortLabel":"Extra reistijd tot 30 min.","maximumDurationInMinutes":30},"alternativeTransport":{"label":"er rijden stop- en snelbussen","shortLabel":"er rijden stop- en snelbussen"},"advices":[]}],"alternativeTransportTimespans":[{"start":"2023-06-10T00:30:00+0200","end":"2023-06-10T01:30:00+0200","alternativeTransport":{"location":[{"station":{"uicCode":"8400051","stationCode":"AML","name":"Almelo","coordinate":{"lat":52.3580551147461,"lng":6.65388870239258},"countryCode":"NL"},"description":"vanaf de voorzijde van het station"},{"station":{"uicCode":"8400691","stationCode":"WDN","name":"Wierden","coordinate":{"lat":52.3613891601562,"lng":6.59166669845581},"countryCode":"NL"},"description":"vanaf de voorzijde van het station"},{"station":{"uicCode":"8400538","stationCode":"RSN","name":"Rijssen","coordinate":{"lat":52.3122215270996,"lng":6.52027797698975},"countryCode":"NL"},"description":"vanaf het P+R-terrein"},{"station":{"uicCode":"8400328","stationCode":"HON","name":"Holten","coordinate":{"lat":52.2838897705078,"lng":6.42027759552002},"countryCode":"NL"},"description":"vanaf de NS Bushalte"},{"station":{"uicCode":"8400185","stationCode":"DVC","name":"Deventer Colmschate","coordinate":{"lat":52.2502784729004,"lng":6.21444463729858},"countryCode":"NL"},"description":"vanaf het P+R-terrein"},{"station":{"uicCode":"8400173","stationCode":"DV","name":"Deventer","coordinate":{"lat":52.2574996948242,"lng":6.16055536270142},"countryCode":"NL"},"description":"vanaf de Stationsstraat"}],"label":"Er rijden stopbussen van Almelo, Wierden, Rijssen, Holten, Deventer Colmschate naar Deventer.","shortLabel":"Er rijden stopbussen Almelo -> Wierden -> Rijssen -> Holten -> Colmschate -> Deventer"}},{"start":"2023-06-10T00:30:00+0200","end":"2023-06-12T02:00:00+0200","alternativeTransport":{"location":[{"station":{"uicCode":"8400538","stationCode":"RSN","name":"Rijssen","coordinate":{"lat":52.3122215270996,"lng":6.52027797698975},"countryCode":"NL"},"description":"vanaf het P+R-terrein"},{"station":{"uicCode":"8400173","stationCode":"DV","name":"Deventer","coordinate":{"lat":52.2574996948242,"lng":6.16055536270142},"countryCode":"NL"},"description":"vanaf de Stationsstraat"}],"label":"Er rijden snelbussen tussen Rijssen en Deventer.","shortLabel":"Er rijden snelbussen Rijssen - Deventer"}},{"start":"2023-06-10T00:30:00+0200","end":"2023-06-12T02:00:00+0200","alternativeTransport":{"location":[{"station":{"uicCode":"8400538","stationCode":"RSN","name":"Rijssen","coordinate":{"lat":52.3122215270996,"lng":6.52027797698975},"countryCode":"NL"},"description":"vanaf het P+R-terrein"},{"station":{"uicCode":"8400328","stationCode":"HON","name":"Holten","coordinate":{"lat":52.2838897705078,"lng":6.42027759552002},"countryCode":"NL"},"description":"vanaf de NS Bushalte"},{"station":{"uicCode":"8400185","stationCode":"DVC","name":"Deventer Colmschate","coordinate":{"lat":52.2502784729004,"lng":6.21444463729858},"countryCode":"NL"},"description":"vanaf het P+R-terrein"}],"label":"Er rijden stopbussen tussen Rijssen, Holten, Deventer Colmschate en Deventer.","shortLabel":"Er rijden stopbussen Rijssen - Holten - Colmschate - Deventer"}},{"start":"2023-06-10T00:30:00+0200","end":"2023-06-12T02:00:00+0200","alternativeTransport":{"location":[{"station":{"uicCode":"8400747","stationCode":"ZL","name":"Zwolle","coordinate":{"lat":52.5047225952148,"lng":6.09194421768188},"countryCode":"NL"},"description":"vanaf de Hanzelaan, aan de zuidzijde van het station"},{"station":{"uicCode":"8400173","stationCode":"DV","name":"Deventer","coordinate":{"lat":52.2574996948242,"lng":6.16055536270142},"countryCode":"NL"},"description":"vanaf de Stationsstraat"},{"station":{"uicCode":"8400744","stationCode":"ZP","name":"Zutphen","coordinate":{"lat":52.1452789306641,"lng":6.19416666030884},"countryCode":"NL"},"description":"vanaf de achterzijde van het station"}],"label":"Er rijden snelbussen tussen Zwolle, Deventer en Zutphen.","shortLabel":"Er rijden snelbussen Zwolle - Deventer - Zutphen"}},{"start":"2023-06-10T00:30:00+0200","end":"2023-06-12T02:00:00+0200","alternativeTransport":{"location":[{"station":{"uicCode":"8400747","stationCode":"ZL","name":"Zwolle","coordinate":{"lat":52.5047225952148,"lng":6.09194421768188},"countryCode":"NL"},"description":"vanaf de Hanzelaan, aan de zuidzijde van het station"},{"station":{"uicCode":"8400711","stationCode":"WH","name":"Wijhe","coordinate":{"lat":52.3902778625488,"lng":6.1405553817749},"countryCode":"NL"},"description":"vanaf de voorzijde van het station"},{"station":{"uicCode":"8400486","stationCode":"OST","name":"Olst","coordinate":{"lat":52.3347206115723,"lng":6.11305570602417},"countryCode":"NL"},"description":"vanaf de voorzijde van het station"},{"station":{"uicCode":"8400173","stationCode":"DV","name":"Deventer","coordinate":{"lat":52.2574996948242,"lng":6.16055536270142},"countryCode":"NL"},"description":"vanaf de Stationsstraat"}],"label":"Er rijden stopbussen tussen Zwolle, Wijhe, Olst en Deventer.","shortLabel":"Er rijden stopbussen Zwolle - Wijhe - Olst - Deventer"}},{"start":"2023-06-10T00:40:00+0200","end":"2023-06-10T02:25:00+0200","alternativeTransport":{"location":[{"station":{"uicCode":"8400066","stationCode":"APD","name":"Apeldoorn","coordinate":{"lat":52.2091674804687,"lng":5.97027778625488},"countryCode":"NL"},"description":"vanaf de voorzijde van het station"},{"station":{"uicCode":"8400173","stationCode":"DV","name":"Deventer","coordinate":{"lat":52.2574996948242,"lng":6.16055536270142},"countryCode":"NL"},"description":"vanaf de Stationsstraat"},{"station":{"uicCode":"8400051","stationCode":"AML","name":"Almelo","coordinate":{"lat":52.3580551147461,"lng":6.65388870239258},"countryCode":"NL"},"description":"vanaf de voorzijde van het station"},{"station":{"uicCode":"8400316","stationCode":"HGL","name":"Hengelo","coordinate":{"lat":52.2616653442383,"lng":6.79388904571533},"countryCode":"NL"},"description":"vanaf de voorzijde van het station"},{"station":{"uicCode":"8400212","stationCode":"ES","name":"Enschede","coordinate":{"lat":52.2224998474121,"lng":6.8899998664856},"countryCode":"NL"},"description":"vanaf de voorzijde van het station"}],"label":"Er rijden stopbussen van Apeldoorn, Deventer, Almelo, Hengelo naar Enschede.","shortLabel":"Er rijden stopbussen Apeldoorn -> Deventer -> Almelo -> Hengelo -> Enschede"}},{"start":"2023-06-10T01:20:00+0200","end":"2023-06-10T01:30:00+0200","alternativeTransport":{"location":[{"station":{"uicCode":"8400066","stationCode":"APD","name":"Apeldoorn","coordinate":{"lat":52.2091674804687,"lng":5.97027778625488},"countryCode":"NL"},"description":"vanaf de voorzijde van het station"},{"station":{"uicCode":"8400173","stationCode":"DV","name":"Deventer","coordinate":{"lat":52.2574996948242,"lng":6.16055536270142},"countryCode":"NL"},"description":"vanaf de Stationsstraat"}],"label":"Er rijden snelbussen van Apeldoorn naar Deventer.","shortLabel":"Er rijden snelbussen Apeldoorn -> Deventer"}}]},{"id":"7003399","type":"MAINTENANCE","registrationTime":"2023-05-02T14:32:28+0200","releaseTime":"2023-05-02T14:32:28+0200","local":false,"title":"Sittard - Maastricht; Maastricht - Randwijck.","titleSections":[[{"type":"STATION","value":"Sittard"},{"type":"ICON","value":"MAINTENANCE"},{"type":"STATION","value":"Maastricht"}],[{"type":"STATION","value":"Maastricht"},{"type":"ICON","value":"MAINTENANCE"},{"type":"STATION","value":"Randwyck"}]],"isActive":false,"start":"2023-06-10T04:00:00+0200","end":"2023-06-12T02:00:00+0200","period":"Zaterdag 10-06-2023 04:00 uur t/m maandag 12-06-2023 02:00 uur.","impact":{"value":4},"summaryAdditionalTravelTime":{"label":"De extra reistijd is ongeveer 30 minuten.","shortLabel":"Extra reistijd 30 min.","minimumDurationInMinutes":30,"maximumDurationInMinutes":30},"publicationSections":[{"section":{"stations":[{"uicCode":"8400564","stationCode":"STD","name":"Sittard","coordinate":{"lat":51.0016670227051,"lng":5.85861110687256},"countryCode":"NL"},{"uicCode":"8400248","stationCode":"LUT","name":"Geleen-Lutterade","coordinate":{"lat":50.9755554199219,"lng":5.82472229003906},"countryCode":"NL"},{"uicCode":"8400096","stationCode":"BK","name":"Beek-Elsloo","coordinate":{"lat":50.9474983215332,"lng":5.78666687011719},"countryCode":"NL"},{"uicCode":"8400140","stationCode":"BDE","name":"Bunde","coordinate":{"lat":50.8969459533691,"lng":5.73666667938232},"countryCode":"NL"},{"uicCode":"8400424","stationCode":"MT","name":"Maastricht","coordinate":{"lat":50.8502769470215,"lng":5.70555543899536},"countryCode":"NL"}],"direction":"BOTH"},"consequence":{"section":{"stations":[{"uicCode":"8400564","stationCode":"STD","name":"Sittard","coordinate":{"lat":51.0016670227051,"lng":5.85861110687256},"countryCode":"NL"},{"uicCode":"8400248","stationCode":"LUT","name":"Geleen-Lutterade","coordinate":{"lat":50.9755554199219,"lng":5.82472229003906},"countryCode":"NL"},{"uicCode":"8400096","stationCode":"BK","name":"Beek-Elsloo","coordinate":{"lat":50.9474983215332,"lng":5.78666687011719},"countryCode":"NL"},{"uicCode":"8400140","stationCode":"BDE","name":"Bunde","coordinate":{"lat":50.8969459533691,"lng":5.73666667938232},"countryCode":"NL"},{"uicCode":"8400424","stationCode":"MT","name":"Maastricht","coordinate":{"lat":50.8502769470215,"lng":5.70555543899536},"countryCode":"NL"}],"direction":"ONE_WAY"},"description":"rijden bussen","level":"LESS_TRAINS"},"sectionType":"NL"},{"section":{"stations":[{"uicCode":"8400424","stationCode":"MT","name":"Maastricht","coordinate":{"lat":50.8502769470215,"lng":5.70555543899536},"countryCode":"NL"},{"uicCode":"8400426","stationCode":"MTR","name":"Maastricht Randwyck","coordinate":{"lat":50.8386116027832,"lng":5.71722221374512},"countryCode":"NL"}],"direction":"BOTH"},"consequence":{"section":{"stations":[{"uicCode":"8400424","stationCode":"MT","name":"Maastricht","coordinate":{"lat":50.8502769470215,"lng":5.70555543899536},"countryCode":"NL"},{"uicCode":"8400426","stationCode":"MTR","name":"Maastricht Randwyck","coordinate":{"lat":50.8386116027832,"lng":5.71722221374512},"countryCode":"NL"}],"direction":"ONE_WAY"},"description":"dienstregeling aangepast","level":"LESS_TRAINS"},"sectionType":"NL"}],"timespans":[{"start":"2023-06-10T04:00:00+0200","end":"2023-06-12T02:00:00+0200","period":"Zaterdag 10-06-2023 04:00 uur t/m maandag 12-06-2023 02:00 uur.","situation":{"label":"Door werkzaamheden: tussen Sittard en Maastricht rijden er bussen en tussen Maastricht en Maastricht Randwyck is de dienstregeling aangepast."},"cause":{"label":"werkzaamheden"},"additionalTravelTime":{"label":"De extra reistijd is ongeveer 30 minuten.","shortLabel":"Extra reistijd 30 min.","minimumDurationInMinutes":30,"maximumDurationInMinutes":30},"alternativeTransport":{"label":"er rijden stop- en snelbussen","shortLabel":"er rijden stop- en snelbussen"},"advices":[]}],"alternativeTransportTimespans":[{"start":"2023-06-10T04:00:00+0200","end":"2023-06-12T02:00:00+0200","alternativeTransport":{"location":[{"station":{"uicCode":"8400564","stationCode":"STD","name":"Sittard","coordinate":{"lat":51.0016670227051,"lng":5.85861110687256},"countryCode":"NL"},"description":"vanaf de achterzijde van het station"},{"station":{"uicCode":"8400248","stationCode":"LUT","name":"Geleen-Lutterade","coordinate":{"lat":50.9755554199219,"lng":5.82472229003906},"countryCode":"NL"},"description":"vanaf de achterzijde van het station"},{"station":{"uicCode":"8400096","stationCode":"BK","name":"Beek-Elsloo","coordinate":{"lat":50.9474983215332,"lng":5.78666687011719},"countryCode":"NL"},"description":"vanaf de voorzijde van het station"},{"station":{"uicCode":"8400140","stationCode":"BDE","name":"Bunde","coordinate":{"lat":50.8969459533691,"lng":5.73666667938232},"countryCode":"NL"},"description":"vanaf de voorzijde van het station"},{"station":{"uicCode":"8400424","stationCode":"MT","name":"Maastricht","coordinate":{"lat":50.8502769470215,"lng":5.70555543899536},"countryCode":"NL"},"description":"vanaf het Stationsplein"}],"label":"Er rijden stopbussen tussen Sittard, Geleen-Lutterade, Beek-Elsloo, Bunde en Maastricht.","shortLabel":"Er rijden stopbussen Sittard - Geleen-Lut. - Beek-Elsloo - Bunde - Maastricht"}},{"start":"2023-06-10T04:00:00+0200","end":"2023-06-12T02:00:00+0200","alternativeTransport":{"location":[{"station":{"uicCode":"8400564","stationCode":"STD","name":"Sittard","coordinate":{"lat":51.0016670227051,"lng":5.85861110687256},"countryCode":"NL"},"description":"vanaf de achterzijde van het station"},{"station":{"uicCode":"8400424","stationCode":"MT","name":"Maastricht","coordinate":{"lat":50.8502769470215,"lng":5.70555543899536},"countryCode":"NL"},"description":"vanaf het Stationsplein"}],"label":"Er rijden snelbussen tussen Sittard en Maastricht.","shortLabel":"Er rijden snelbussen Sittard - Maastricht"}},{"start":"2023-06-10T05:30:00+0200","end":"2023-06-10T06:50:00+0200","alternativeTransport":{"location":[{"station":{"uicCode":"8400426","stationCode":"MTR","name":"Maastricht Randwyck","coordinate":{"lat":50.8386116027832,"lng":5.71722221374512},"countryCode":"NL"},"description":"vanaf de Universiteitssingel"}],"label":"Er rijden stopbussen van Maastricht Randwyck naar Maastricht.","shortLabel":"Er rijden stopbussen Randwyck -> Maastricht"}},{"start":"2023-06-11T06:30:00+0200","end":"2023-06-11T07:50:00+0200","alternativeTransport":{"location":[{"station":{"uicCode":"8400426","stationCode":"MTR","name":"Maastricht Randwyck","coordinate":{"lat":50.8386116027832,"lng":5.71722221374512},"countryCode":"NL"},"description":"vanaf de Universiteitssingel"}],"label":"Er rijden stopbussen van Maastricht Randwyck naar Maastricht.","shortLabel":"Er rijden stopbussen Randwyck -> Maastricht"}}]},{"id":"7003608","type":"MAINTENANCE","registrationTime":"2023-05-25T15:13:06+0200","releaseTime":"2023-05-25T15:13:06+0200","local":false,"title":"Maastricht - Liège / Luik.","titleSections":[[{"type":"STATION","value":"Maastricht"},{"type":"STATION","value":"Visé"},{"type":"ICON","value":"MAINTENANCE"},{"type":"STATION","value":"Liège-Guillemins"}]],"isActive":false,"start":"2023-06-10T04:00:00+0200","end":"2023-06-12T02:00:00+0200","period":"Zaterdag 10-06-2023 04:00 uur t/m maandag 12-06-2023 02:00 uur.","impact":{"value":2},"summaryAdditionalTravelTime":{"label":"De extra reistijd kan oplopen tot 30 minuten.","shortLabel":"Extra reistijd tot 30 min.","maximumDurationInMinutes":30},"publicationSections":[{"section":{"stations":[{"uicCode":"8400424","stationCode":"MT","name":"Maastricht","coordinate":{"lat":50.8502769470215,"lng":5.70555543899536},"countryCode":"NL"},{"uicCode":"8400426","stationCode":"MTR","name":"Maastricht Randwyck","coordinate":{"lat":50.8386116027832,"lng":5.71722221374512},"countryCode":"NL"},{"uicCode":"8400219","stationCode":"EDN","name":"Eijsden","coordinate":{"lat":50.7719459533691,"lng":5.71000003814697},"countryCode":"NL"},{"uicCode":"8846201","stationCode":"FVS","name":"Visé","coordinate":{"lat":50.73781,"lng":5.69232},"countryCode":"B"},{"uicCode":"8843901","stationCode":"BRESSX","name":"Bressoux","coordinate":{"lat":50.643829,"lng":5.6112542},"countryCode":"B"},{"uicCode":"8841004","stationCode":"LUIK","name":"Liège-Guillemins","coordinate":{"lat":50.62436,"lng":5.56648},"countryCode":"B"}],"direction":"BOTH"},"consequence":{"section":{"stations":[{"uicCode":"8846201","stationCode":"FVS","name":"Visé","coordinate":{"lat":50.73781,"lng":5.69232},"countryCode":"B"},{"uicCode":"8843901","stationCode":"BRESSX","name":"Bressoux","coordinate":{"lat":50.643829,"lng":5.6112542},"countryCode":"B"},{"uicCode":"8841004","stationCode":"LUIK","name":"Liège-Guillemins","coordinate":{"lat":50.62436,"lng":5.56648},"countryCode":"B"}],"direction":"ONE_WAY"},"description":"rijden bussen","level":"LESS_TRAINS"},"sectionType":"NEIGHBORING_COUNTRY"}],"timespans":[{"start":"2023-06-10T04:00:00+0200","end":"2023-06-12T02:00:00+0200","period":"Zaterdag 10-06-2023 04:00 uur t/m maandag 12-06-2023 02:00 uur.","situation":{"label":"Door werkzaamheden: tussen Visé en Liège-Guillemins rijden er bussen."},"cause":{"label":"werkzaamheden"},"additionalTravelTime":{"label":"De extra reistijd kan oplopen tot 30 minuten.","shortLabel":"Extra reistijd tot 30 min.","maximumDurationInMinutes":30},"alternativeTransport":{"label":"er rijden stopbussen","shortLabel":"er rijden stopbussen"},"advices":[]}],"alternativeTransportTimespans":[{"start":"2023-06-10T04:00:00+0200","end":"2023-06-12T02:00:00+0200","alternativeTransport":{"location":[],"label":"Er rijden stopbussen tussen Visé, Bressoux en Liège-Guillemins.","shortLabel":"Er rijden stopbussen Visé - Bressoux - Liège-Guillemins"}}]},{"id":"7003554","type":"MAINTENANCE","registrationTime":"2023-05-26T09:32:53+0200","releaseTime":"2023-05-26T09:32:53+0200","local":false,"title":"Amsterdam - Hannover - Berlin.","titleSections":[[{"type":"STATION","value":"Amsterdam C."},{"type":"ICON","value":"MAINTENANCE"},{"type":"STATION","value":"Bad Bentheim"},{"type":"STATION","value":"Berlin Hbf"}]],"isActive":false,"start":"2023-06-10T04:00:00+0200","end":"2023-06-12T02:00:00+0200","period":"Zaterdag 10-06-2023 04:00 uur t/m maandag 12-06-2023 02:00 uur.","impact":{"value":2},"summaryAdditionalTravelTime":{"label":"De extra reistijd kan oplopen tot 30 minuten.","shortLabel":"Extra reistijd tot 30 min.","maximumDurationInMinutes":30},"publicationSections":[{"section":{"stations":[{"uicCode":"8400058","stationCode":"ASD","name":"Amsterdam Centraal","coordinate":{"lat":52.3788871765137,"lng":4.90027761459351},"countryCode":"NL"},{"uicCode":"8400060","stationCode":"ASDM","name":"Amsterdam Muiderpoort","coordinate":{"lat":52.3605537414551,"lng":4.93111133575439},"countryCode":"NL"},{"uicCode":"8400235","stationCode":"ASSP","name":"Amsterdam Science Park","coordinate":{"lat":52.35526,"lng":4.94651},"countryCode":"NL"},{"uicCode":"8400165","stationCode":"DMN","name":"Diemen","coordinate":{"lat":52.34515,"lng":4.967566},"countryCode":"NL"},{"uicCode":"8400685","stationCode":"WP","name":"Weesp","coordinate":{"lat":52.3127784729004,"lng":5.04305553436279},"countryCode":"NL"},{"uicCode":"8400452","stationCode":"NDB","name":"Naarden-Bussum","coordinate":{"lat":52.2802772521973,"lng":5.15694427490234},"countryCode":"NL"},{"uicCode":"8400145","stationCode":"BSMZ","name":"Bussum Zuid","coordinate":{"lat":52.2658348083496,"lng":5.16305541992188},"countryCode":"NL"},{"uicCode":"8400324","stationCode":"HVSM","name":"Hilversum Media Park","coordinate":{"lat":52.2380561828613,"lng":5.17388868331909},"countryCode":"NL"},{"uicCode":"8400322","stationCode":"HVS","name":"Hilversum","coordinate":{"lat":52.2258338928223,"lng":5.18194437026978},"countryCode":"NL"},{"uicCode":"8400086","stationCode":"BRN","name":"Baarn","coordinate":{"lat":52.2083320617676,"lng":5.28083324432373},"countryCode":"NL"},{"uicCode":"8400055","stationCode":"AMF","name":"Amersfoort Centraal","coordinate":{"lat":52.1538887023926,"lng":5.37055540084839},"countryCode":"NL"},{"uicCode":"8400490","stationCode":"HVL","name":"Hoevelaken","coordinate":{"lat":52.16652,"lng":5.45718},"countryCode":"NL"},{"uicCode":"8400066","stationCode":"APD","name":"Apeldoorn","coordinate":{"lat":52.2091674804687,"lng":5.97027778625488},"countryCode":"NL"},{"uicCode":"8400229","stationCode":"APDO","name":"Apeldoorn Osseveld","coordinate":{"lat":52.2152786254883,"lng":6.00444459915161},"countryCode":"NL"},{"uicCode":"8400599","stationCode":"TWL","name":"Twello","coordinate":{"lat":52.2377777099609,"lng":6.09861087799072},"countryCode":"NL"},{"uicCode":"8400173","stationCode":"DV","name":"Deventer","coordinate":{"lat":52.2574996948242,"lng":6.16055536270142},"countryCode":"NL"},{"uicCode":"8400185","stationCode":"DVC","name":"Deventer Colmschate","coordinate":{"lat":52.2502784729004,"lng":6.21444463729858},"countryCode":"NL"},{"uicCode":"8400328","stationCode":"HON","name":"Holten","coordinate":{"lat":52.2838897705078,"lng":6.42027759552002},"countryCode":"NL"},{"uicCode":"8400538","stationCode":"RSN","name":"Rijssen","coordinate":{"lat":52.3122215270996,"lng":6.52027797698975},"countryCode":"NL"},{"uicCode":"8400691","stationCode":"WDN","name":"Wierden","coordinate":{"lat":52.3613891601562,"lng":6.59166669845581},"countryCode":"NL"},{"uicCode":"8400051","stationCode":"AML","name":"Almelo","coordinate":{"lat":52.3580551147461,"lng":6.65388870239258},"countryCode":"NL"},{"uicCode":"8400520","stationCode":"AMRI","name":"Almelo de Riet","coordinate":{"lat":52.3419456481934,"lng":6.66666650772095},"countryCode":"NL"},{"uicCode":"8400124","stationCode":"BN","name":"Borne","coordinate":{"lat":52.2988891601562,"lng":6.74805545806885},"countryCode":"NL"},{"uicCode":"8400316","stationCode":"HGL","name":"Hengelo","coordinate":{"lat":52.2616653442383,"lng":6.79388904571533},"countryCode":"NL"},{"uicCode":"8400312","stationCode":"HGLO","name":"Hengelo Oost","coordinate":{"lat":52.2688903808594,"lng":6.81944465637207},"countryCode":"NL"},{"uicCode":"8400483","stationCode":"ODZ","name":"Oldenzaal","coordinate":{"lat":52.3063888549805,"lng":6.93472242355347},"countryCode":"NL"},{"uicCode":"8021156","stationCode":"BH","name":"Bad Bentheim","coordinate":{"lat":52.309685595156,"lng":7.15853691101074},"countryCode":"D"},{"uicCode":"8021067","stationCode":"RHEINE","name":"Rheine","coordinate":{"lat":52.276299,"lng":7.434255},"countryCode":"D"},{"uicCode":"8021025","stationCode":"OSNH","name":"Osnabrück Hbf","coordinate":{"lat":52.272851,"lng":8.061781},"countryCode":"D"},{"uicCode":"8013552","stationCode":"HANN","name":"Hannover Hbf","coordinate":{"lat":52.3770401,"lng":9.7416759},"countryCode":"D"},{"uicCode":"8065969","stationCode":"BERHBL","name":"Berlin Hbf","coordinate":{"lat":52.52503,"lng":13.36946},"countryCode":"D"}],"direction":"BOTH"},"consequence":{"section":{"stations":[{"uicCode":"8400058","stationCode":"ASD","name":"Amsterdam Centraal","coordinate":{"lat":52.3788871765137,"lng":4.90027761459351},"countryCode":"NL"},{"uicCode":"8400060","stationCode":"ASDM","name":"Amsterdam Muiderpoort","coordinate":{"lat":52.3605537414551,"lng":4.93111133575439},"countryCode":"NL"},{"uicCode":"8400235","stationCode":"ASSP","name":"Amsterdam Science Park","coordinate":{"lat":52.35526,"lng":4.94651},"countryCode":"NL"},{"uicCode":"8400165","stationCode":"DMN","name":"Diemen","coordinate":{"lat":52.34515,"lng":4.967566},"countryCode":"NL"},{"uicCode":"8400685","stationCode":"WP","name":"Weesp","coordinate":{"lat":52.3127784729004,"lng":5.04305553436279},"countryCode":"NL"},{"uicCode":"8400452","stationCode":"NDB","name":"Naarden-Bussum","coordinate":{"lat":52.2802772521973,"lng":5.15694427490234},"countryCode":"NL"},{"uicCode":"8400145","stationCode":"BSMZ","name":"Bussum Zuid","coordinate":{"lat":52.2658348083496,"lng":5.16305541992188},"countryCode":"NL"},{"uicCode":"8400324","stationCode":"HVSM","name":"Hilversum Media Park","coordinate":{"lat":52.2380561828613,"lng":5.17388868331909},"countryCode":"NL"},{"uicCode":"8400322","stationCode":"HVS","name":"Hilversum","coordinate":{"lat":52.2258338928223,"lng":5.18194437026978},"countryCode":"NL"},{"uicCode":"8400086","stationCode":"BRN","name":"Baarn","coordinate":{"lat":52.2083320617676,"lng":5.28083324432373},"countryCode":"NL"},{"uicCode":"8400055","stationCode":"AMF","name":"Amersfoort Centraal","coordinate":{"lat":52.1538887023926,"lng":5.37055540084839},"countryCode":"NL"},{"uicCode":"8400490","stationCode":"HVL","name":"Hoevelaken","coordinate":{"lat":52.16652,"lng":5.45718},"countryCode":"NL"},{"uicCode":"8400066","stationCode":"APD","name":"Apeldoorn","coordinate":{"lat":52.2091674804687,"lng":5.97027778625488},"countryCode":"NL"},{"uicCode":"8400229","stationCode":"APDO","name":"Apeldoorn Osseveld","coordinate":{"lat":52.2152786254883,"lng":6.00444459915161},"countryCode":"NL"},{"uicCode":"8400599","stationCode":"TWL","name":"Twello","coordinate":{"lat":52.2377777099609,"lng":6.09861087799072},"countryCode":"NL"},{"uicCode":"8400173","stationCode":"DV","name":"Deventer","coordinate":{"lat":52.2574996948242,"lng":6.16055536270142},"countryCode":"NL"},{"uicCode":"8400185","stationCode":"DVC","name":"Deventer Colmschate","coordinate":{"lat":52.2502784729004,"lng":6.21444463729858},"countryCode":"NL"},{"uicCode":"8400328","stationCode":"HON","name":"Holten","coordinate":{"lat":52.2838897705078,"lng":6.42027759552002},"countryCode":"NL"},{"uicCode":"8400538","stationCode":"RSN","name":"Rijssen","coordinate":{"lat":52.3122215270996,"lng":6.52027797698975},"countryCode":"NL"},{"uicCode":"8400691","stationCode":"WDN","name":"Wierden","coordinate":{"lat":52.3613891601562,"lng":6.59166669845581},"countryCode":"NL"},{"uicCode":"8400051","stationCode":"AML","name":"Almelo","coordinate":{"lat":52.3580551147461,"lng":6.65388870239258},"countryCode":"NL"},{"uicCode":"8400520","stationCode":"AMRI","name":"Almelo de Riet","coordinate":{"lat":52.3419456481934,"lng":6.66666650772095},"countryCode":"NL"},{"uicCode":"8400124","stationCode":"BN","name":"Borne","coordinate":{"lat":52.2988891601562,"lng":6.74805545806885},"countryCode":"NL"},{"uicCode":"8400316","stationCode":"HGL","name":"Hengelo","coordinate":{"lat":52.2616653442383,"lng":6.79388904571533},"countryCode":"NL"},{"uicCode":"8400312","stationCode":"HGLO","name":"Hengelo Oost","coordinate":{"lat":52.2688903808594,"lng":6.81944465637207},"countryCode":"NL"},{"uicCode":"8400483","stationCode":"ODZ","name":"Oldenzaal","coordinate":{"lat":52.3063888549805,"lng":6.93472242355347},"countryCode":"NL"},{"uicCode":"8021156","stationCode":"BH","name":"Bad Bentheim","coordinate":{"lat":52.309685595156,"lng":7.15853691101074},"countryCode":"D"}],"direction":"ONE_WAY"},"description":"aangepaste internationale dienstregeling","level":"LESS_TRAINS"},"sectionType":"NEIGHBORING_COUNTRY"}],"timespans":[{"start":"2023-06-10T04:00:00+0200","end":"2023-06-12T02:00:00+0200","period":"Zaterdag 10-06-2023 04:00 uur t/m maandag 12-06-2023 02:00 uur.","situation":{"label":"Door werkzaamheden: tussen Amsterdam Centraal en Bad Bentheim is de internationale dienstregeling aangepast."},"cause":{"label":"werkzaamheden"},"additionalTravelTime":{"label":"De extra reistijd kan oplopen tot 30 minuten.","shortLabel":"Extra reistijd tot 30 min.","maximumDurationInMinutes":30},"alternativeTransport":{"label":"maak gebruik van het vervangende vervoer","shortLabel":"gebruik het vervangende vervoer"},"advices":["Dit kan gevolgen hebben voor uw reis. Plan uw reis in de (Internationale) app."]}],"alternativeTransportTimespans":[{"start":"2023-06-10T04:00:00+0200","end":"2023-06-12T02:00:00+0200","alternativeTransport":{"location":[{"station":{"uicCode":"8400173","stationCode":"DV","name":"Deventer","coordinate":{"lat":52.2574996948242,"lng":6.16055536270142},"countryCode":"NL"},"description":"vanaf de Stationsstraat"}],"label":"Er rijden snelbussen tussen Deventer en Bad Bentheim.","shortLabel":"Er rijden snelbussen Deventer - Bad Bentheim"}},{"start":"2023-06-10T04:00:00+0200","end":"2023-06-12T02:00:00+0200","alternativeTransport":{"location":[{"station":{"uicCode":"8400316","stationCode":"HGL","name":"Hengelo","coordinate":{"lat":52.2616653442383,"lng":6.79388904571533},"countryCode":"NL"},"description":"vanaf de voorzijde van het station"}],"label":"Er rijden taxibusjes tussen Hengelo en Bad Bentheim.","shortLabel":"Er rijden taxibusjes Hengelo - Bad Bentheim"}}]},{"id":"7003543","type":"MAINTENANCE","registrationTime":"2023-05-15T16:41:01+0200","releaseTime":"2023-05-15T16:41:01+0200","local":false,"title":"Amsterdam - Utrecht; Breukelen - Gouda.","titleSections":[[{"type":"STATION","value":"Breukelen"},{"type":"ICON","value":"MAINTENANCE"},{"type":"STATION","value":"Woerden"},{"type":"STATION","value":"Gouda"}],[{"type":"STATION","value":"Amsterdam C."},{"type":"ICON","value":"MAINTENANCE"},{"type":"STATION","value":"Utrecht C."}]],"isActive":false,"start":"2023-06-10T05:50:00+0200","end":"2023-06-12T01:40:00+0200","period":"Zaterdag 10-06-2023 05:50 uur t/m maandag 12-06-2023 01:40 uur.","impact":{"value":2},"summaryAdditionalTravelTime":{"label":"De extra reistijd ligt tussen 15 en 30 minuten.","shortLabel":"Extra reistijd: 15-30 min.","minimumDurationInMinutes":15,"maximumDurationInMinutes":30},"publicationSections":[{"section":{"stations":[{"uicCode":"8400133","stationCode":"BKL","name":"Breukelen","coordinate":{"lat":52.17149,"lng":4.9906},"countryCode":"NL"},{"uicCode":"8400702","stationCode":"WD","name":"Woerden","coordinate":{"lat":52.0849990844727,"lng":4.89361095428467},"countryCode":"NL"},{"uicCode":"8400257","stationCode":"GDG","name":"Gouda Goverwelle","coordinate":{"lat":52.0149993896484,"lng":4.7408332824707},"countryCode":"NL"},{"uicCode":"8400258","stationCode":"GD","name":"Gouda","coordinate":{"lat":52.0175018310547,"lng":4.70444440841675},"countryCode":"NL"}],"direction":"BOTH"},"consequence":{"section":{"stations":[{"uicCode":"8400133","stationCode":"BKL","name":"Breukelen","coordinate":{"lat":52.17149,"lng":4.9906},"countryCode":"NL"},{"uicCode":"8400702","stationCode":"WD","name":"Woerden","coordinate":{"lat":52.0849990844727,"lng":4.89361095428467},"countryCode":"NL"}],"direction":"ONE_WAY"},"description":"geen treinen","level":"LESS_TRAINS"},"sectionType":"NL"},{"section":{"stations":[{"uicCode":"8400058","stationCode":"ASD","name":"Amsterdam Centraal","coordinate":{"lat":52.3788871765137,"lng":4.90027761459351},"countryCode":"NL"},{"uicCode":"8400060","stationCode":"ASDM","name":"Amsterdam Muiderpoort","coordinate":{"lat":52.3605537414551,"lng":4.93111133575439},"countryCode":"NL"},{"uicCode":"8400057","stationCode":"ASA","name":"Amsterdam Amstel","coordinate":{"lat":52.3466682434082,"lng":4.91777801513672},"countryCode":"NL"},{"uicCode":"8400194","stationCode":"DVD","name":"Duivendrecht","coordinate":{"lat":52.3233337402344,"lng":4.93638896942139},"countryCode":"NL"},{"uicCode":"8400074","stationCode":"ASB","name":"Amsterdam Bijlmer ArenA","coordinate":{"lat":52.3122215270996,"lng":4.94694423675537},"countryCode":"NL"},{"uicCode":"8400231","stationCode":"ASHD","name":"Amsterdam Holendrecht","coordinate":{"lat":52.29844,"lng":4.95972},"countryCode":"NL"},{"uicCode":"8400047","stationCode":"AC","name":"Abcoude","coordinate":{"lat":52.2785,"lng":4.977},"countryCode":"NL"},{"uicCode":"8400133","stationCode":"BKL","name":"Breukelen","coordinate":{"lat":52.17149,"lng":4.9906},"countryCode":"NL"},{"uicCode":"8400419","stationCode":"MAS","name":"Maarssen","coordinate":{"lat":52.1352767944336,"lng":5.03361129760742},"countryCode":"NL"},{"uicCode":"8400613","stationCode":"UTZL","name":"Utrecht Zuilen","coordinate":{"lat":52.103055,"lng":5.09},"countryCode":"NL"},{"uicCode":"8400621","stationCode":"UT","name":"Utrecht Centraal","coordinate":{"lat":52.0888900756836,"lng":5.11027765274048},"countryCode":"NL"}],"direction":"BOTH"},"consequence":{"section":{"stations":[{"uicCode":"8400058","stationCode":"ASD","name":"Amsterdam Centraal","coordinate":{"lat":52.3788871765137,"lng":4.90027761459351},"countryCode":"NL"},{"uicCode":"8400060","stationCode":"ASDM","name":"Amsterdam Muiderpoort","coordinate":{"lat":52.3605537414551,"lng":4.93111133575439},"countryCode":"NL"},{"uicCode":"8400057","stationCode":"ASA","name":"Amsterdam Amstel","coordinate":{"lat":52.3466682434082,"lng":4.91777801513672},"countryCode":"NL"},{"uicCode":"8400194","stationCode":"DVD","name":"Duivendrecht","coordinate":{"lat":52.3233337402344,"lng":4.93638896942139},"countryCode":"NL"},{"uicCode":"8400074","stationCode":"ASB","name":"Amsterdam Bijlmer ArenA","coordinate":{"lat":52.3122215270996,"lng":4.94694423675537},"countryCode":"NL"},{"uicCode":"8400231","stationCode":"ASHD","name":"Amsterdam Holendrecht","coordinate":{"lat":52.29844,"lng":4.95972},"countryCode":"NL"},{"uicCode":"8400047","stationCode":"AC","name":"Abcoude","coordinate":{"lat":52.2785,"lng":4.977},"countryCode":"NL"},{"uicCode":"8400133","stationCode":"BKL","name":"Breukelen","coordinate":{"lat":52.17149,"lng":4.9906},"countryCode":"NL"},{"uicCode":"8400419","stationCode":"MAS","name":"Maarssen","coordinate":{"lat":52.1352767944336,"lng":5.03361129760742},"countryCode":"NL"},{"uicCode":"8400613","stationCode":"UTZL","name":"Utrecht Zuilen","coordinate":{"lat":52.103055,"lng":5.09},"countryCode":"NL"},{"uicCode":"8400621","stationCode":"UT","name":"Utrecht Centraal","coordinate":{"lat":52.0888900756836,"lng":5.11027765274048},"countryCode":"NL"}],"direction":"ONE_WAY"},"description":"dienstregeling aangepast","level":"LESS_TRAINS"},"sectionType":"NL"}],"timespans":[{"start":"2023-06-10T05:50:00+0200","end":"2023-06-12T01:40:00+0200","period":"Zaterdag 10-06-2023 05:50 uur t/m maandag 12-06-2023 01:40 uur.","situation":{"label":"Door werkzaamheden: tussen Breukelen en Woerden rijden er geen treinen en tussen Amsterdam Centraal en Utrecht Centraal is de dienstregeling aangepast."},"cause":{"label":"werkzaamheden"},"additionalTravelTime":{"label":"De extra reistijd ligt tussen 15 en 30 minuten.","shortLabel":"Extra reistijd: 15-30 min.","minimumDurationInMinutes":15,"maximumDurationInMinutes":30},"advices":["Tussen Breukelen en Woerden kan ook via Utrecht C."]}],"alternativeTransportTimespans":[]},{"id":"7003546","type":"MAINTENANCE","registrationTime":"2023-05-15T16:37:35+0200","releaseTime":"2023-05-15T16:37:35+0200","local":false,"title":"Schiphol - Zaandam.","titleSections":[[{"type":"STATION","value":"Schiphol Airport"},{"type":"ICON","value":"MAINTENANCE"},{"type":"STATION","value":"Zaandam"}]],"isActive":false,"start":"2023-06-10T06:00:00+0200","end":"2023-06-12T01:00:00+0200","period":"Zaterdag 10-06-2023 06:00 uur t/m maandag 12-06-2023 01:00 uur.","impact":{"value":2},"summaryAdditionalTravelTime":{"label":"De extra reistijd is ongeveer 15 minuten.","shortLabel":"Extra reistijd 15 min.","minimumDurationInMinutes":15,"maximumDurationInMinutes":15},"publicationSections":[{"section":{"stations":[{"uicCode":"8400561","stationCode":"SHL","name":"Schiphol Airport","coordinate":{"lat":52.3094444274902,"lng":4.76194429397583},"countryCode":"NL"},{"uicCode":"8400079","stationCode":"ASDL","name":"Amsterdam Lelylaan","coordinate":{"lat":52.3577766418457,"lng":4.83388900756836},"countryCode":"NL"},{"uicCode":"8400059","stationCode":"ASS","name":"Amsterdam Sloterdijk","coordinate":{"lat":52.3888893127441,"lng":4.83777761459351},"countryCode":"NL"},{"uicCode":"8400731","stationCode":"ZD","name":"Zaandam","coordinate":{"lat":52.4388885498047,"lng":4.81361103057861},"countryCode":"NL"}],"direction":"BOTH"},"consequence":{"section":{"stations":[{"uicCode":"8400561","stationCode":"SHL","name":"Schiphol Airport","coordinate":{"lat":52.3094444274902,"lng":4.76194429397583},"countryCode":"NL"},{"uicCode":"8400079","stationCode":"ASDL","name":"Amsterdam Lelylaan","coordinate":{"lat":52.3577766418457,"lng":4.83388900756836},"countryCode":"NL"},{"uicCode":"8400059","stationCode":"ASS","name":"Amsterdam Sloterdijk","coordinate":{"lat":52.3888893127441,"lng":4.83777761459351},"countryCode":"NL"},{"uicCode":"8400731","stationCode":"ZD","name":"Zaandam","coordinate":{"lat":52.4388885498047,"lng":4.81361103057861},"countryCode":"NL"}],"direction":"ONE_WAY"},"description":"dienstregeling aangepast","level":"LESS_TRAINS"},"sectionType":"NL"}],"timespans":[{"start":"2023-06-10T06:00:00+0200","end":"2023-06-12T01:00:00+0200","period":"Zaterdag 10-06-2023 06:00 uur t/m maandag 12-06-2023 01:00 uur.","situation":{"label":"Door werkzaamheden: tussen Schiphol Airport en Zaandam is de dienstregeling aangepast."},"cause":{"label":"werkzaamheden"},"additionalTravelTime":{"label":"De extra reistijd is ongeveer 15 minuten.","shortLabel":"Extra reistijd 15 min.","minimumDurationInMinutes":15,"maximumDurationInMinutes":15},"advices":[]}],"alternativeTransportTimespans":[]},{"id":"7003556","type":"MAINTENANCE","registrationTime":"2023-05-19T14:55:03+0200","releaseTime":"2023-05-19T14:55:03+0200","local":false,"title":"Amsterdam - Utrecht; Amsterdam - Gouda.","titleSections":[[{"type":"STATION","value":"Amsterdam C."},{"type":"STATION","value":"Bijlmer ArenA"},{"type":"ICON","value":"MAINTENANCE"},{"type":"STATION","value":"Maarssen"},{"type":"STATION","value":"Utrecht C."}],[{"type":"STATION","value":"Amsterdam C."},{"type":"STATION","value":"Bijlmer ArenA"},{"type":"ICON","value":"MAINTENANCE"},{"type":"STATION","value":"Woerden"},{"type":"STATION","value":"Gouda"}]],"isActive":false,"start":"2023-06-10T22:45:00+0200","end":"2023-06-11T00:50:00+0200","period":"Zaterdag 10-06-2023 22:45 uur t/m zondag 11-06-2023 00:50 uur.","impact":{"value":3},"summaryAdditionalTravelTime":{"label":"De extra reistijd is ongeveer 30 minuten.","shortLabel":"Extra reistijd 30 min.","minimumDurationInMinutes":30,"maximumDurationInMinutes":30},"publicationSections":[{"section":{"stations":[{"uicCode":"8400058","stationCode":"ASD","name":"Amsterdam Centraal","coordinate":{"lat":52.3788871765137,"lng":4.90027761459351},"countryCode":"NL"},{"uicCode":"8400060","stationCode":"ASDM","name":"Amsterdam Muiderpoort","coordinate":{"lat":52.3605537414551,"lng":4.93111133575439},"countryCode":"NL"},{"uicCode":"8400057","stationCode":"ASA","name":"Amsterdam Amstel","coordinate":{"lat":52.3466682434082,"lng":4.91777801513672},"countryCode":"NL"},{"uicCode":"8400194","stationCode":"DVD","name":"Duivendrecht","coordinate":{"lat":52.3233337402344,"lng":4.93638896942139},"countryCode":"NL"},{"uicCode":"8400074","stationCode":"ASB","name":"Amsterdam Bijlmer ArenA","coordinate":{"lat":52.3122215270996,"lng":4.94694423675537},"countryCode":"NL"},{"uicCode":"8400231","stationCode":"ASHD","name":"Amsterdam Holendrecht","coordinate":{"lat":52.29844,"lng":4.95972},"countryCode":"NL"},{"uicCode":"8400047","stationCode":"AC","name":"Abcoude","coordinate":{"lat":52.2785,"lng":4.977},"countryCode":"NL"},{"uicCode":"8400133","stationCode":"BKL","name":"Breukelen","coordinate":{"lat":52.17149,"lng":4.9906},"countryCode":"NL"},{"uicCode":"8400419","stationCode":"MAS","name":"Maarssen","coordinate":{"lat":52.1352767944336,"lng":5.03361129760742},"countryCode":"NL"},{"uicCode":"8400613","stationCode":"UTZL","name":"Utrecht Zuilen","coordinate":{"lat":52.103055,"lng":5.09},