[{"id":"6027258","isActive":true,"topic":"disruption_6027258_nl","title":"Roosendaal-Vlissingen","type":"DISRUPTION","registrationTime":"2023-12-03T19:27:01+0100","releaseTime":"2023-12-03T19:27:01+0100","local":false,"titleSections":[[{"type":"STATION","value":"Roosendaal"},{"type":"ICON","value":"DISRUPTION"},{"type":"STATION","value":"Vlissingen"}]],"start":"2023-11-28T14:34:01+0100","end":"2023-12-05T05:00:00+0100","phase":{"id":"2","label":"Impact bekend"},"impact":{"value":2},"expectedDuration":{"description":"Dit duurt ten minste tot dinsdag 5 december 05:00 uur.","endTime":"2023-12-05T05:00:00+0100"},"publicationSections":[{"section":{"stations":[{"coordinate":{"lat":51.5402793884277,"lng":4.45833349227905},"countryCode":"NL","name":"Roosendaal","stationCode":"RSD","uicCode":"8400526"},{"coordinate":{"lat":51.4938888549805,"lng":4.29611110687256},"countryCode":"NL","name":"Bergen op Zoom","stationCode":"BGN","uicCode":"8400108"},{"coordinate":{"lat":51.422779083252,"lng":4.16111087799072},"countryCode":"NL","name":"Rilland-Bath","stationCode":"RB","uicCode":"8400521"},{"coordinate":{"lat":51.4333343505859,"lng":4.11694431304932},"countryCode":"NL","name":"Krabbendijke","stationCode":"KBD","uicCode":"8400367"},{"coordinate":{"lat":51.4650001525879,"lng":4.03722238540649},"countryCode":"NL","name":"Kruiningen-Yerseke","stationCode":"KRG","uicCode":"8400370"},{"coordinate":{"lat":51.4808349609375,"lng":3.95611119270325},"countryCode":"NL","name":"Kapelle-Biezelinge","stationCode":"BZL","uicCode":"8400354"},{"coordinate":{"lat":51.4980545043945,"lng":3.89055562019348},"countryCode":"NL","name":"Goes","stationCode":"GS","uicCode":"8400253"},{"coordinate":{"lat":51.5016670227051,"lng":3.66916656494141},"countryCode":"NL","name":"Arnemuiden","stationCode":"ARN","uicCode":"8400069"},{"coordinate":{"lat":51.4947204589844,"lng":3.61722230911255},"countryCode":"NL","name":"Middelburg","stationCode":"MDB","uicCode":"8400436"},{"coordinate":{"lat":51.4647216796875,"lng":3.59527778625488},"countryCode":"NL","name":"Vlissingen Souburg","stationCode":"VSS","uicCode":"8400653"},{"coordinate":{"lat":51.4458351135254,"lng":3.59527778625488},"countryCode":"NL","name":"Vlissingen","stationCode":"VS","uicCode":"8400652"}],"direction":"BOTH"},"consequence":{"section":{"stations":[{"coordinate":{"lat":51.5402793884277,"lng":4.45833349227905},"countryCode":"NL","name":"Roosendaal","stationCode":"RSD","uicCode":"8400526"},{"coordinate":{"lat":51.4938888549805,"lng":4.29611110687256},"countryCode":"NL","name":"Bergen op Zoom","stationCode":"BGN","uicCode":"8400108"},{"coordinate":{"lat":51.422779083252,"lng":4.16111087799072},"countryCode":"NL","name":"Rilland-Bath","stationCode":"RB","uicCode":"8400521"},{"coordinate":{"lat":51.4333343505859,"lng":4.11694431304932},"countryCode":"NL","name":"Krabbendijke","stationCode":"KBD","uicCode":"8400367"},{"coordinate":{"lat":51.4650001525879,"lng":4.03722238540649},"countryCode":"NL","name":"Kruiningen-Yerseke","stationCode":"KRG","uicCode":"8400370"},{"coordinate":{"lat":51.4808349609375,"lng":3.95611119270325},"countryCode":"NL","name":"Kapelle-Biezelinge","stationCode":"BZL","uicCode":"8400354"},{"coordinate":{"lat":51.4980545043945,"lng":3.89055562019348},"countryCode":"NL","name":"Goes","stationCode":"GS","uicCode":"8400253"},{"coordinate":{"lat":51.5016670227051,"lng":3.66916656494141},"countryCode":"NL","name":"Arnemuiden","stationCode":"ARN","uicCode":"8400069"},{"coordinate":{"lat":51.4947204589844,"lng":3.61722230911255},"countryCode":"NL","name":"Middelburg","stationCode":"MDB","uicCode":"8400436"},{"coordinate":{"lat":51.4647216796875,"lng":3.59527778625488},"countryCode":"NL","name":"Vlissingen Souburg","stationCode":"VSS","uicCode":"8400653"},{"coordinate":{"lat":51.4458351135254,"lng":3.59527778625488},"countryCode":"NL","name":"Vlissingen","stationCode":"VS","uicCode":"8400652"}],"direction":"ONE_WAY"},"description":"veel minder treinen","level":"LESS_TRAINS"},"sectionType":"NL"}],"timespans":[{"start":"2023-11-28T14:34:01+0100","end":"2023-12-05T05:00:00+0100","situation":{"label":"Tussen Roosendaal en Vlissingen rijden er veel minder treinen door een defect spoor."},"cause":{"label":"Defect spoor"},"additionalTravelTime":{"label":"De extra reistijd kan oplopen tot 60 minuten.","shortLabel":"Extra reistijd tot 60 min.","maximumDurationInMinutes":60},"advices":["De reisplanner wordt per dag bijgewerkt."]}],"alternativeTransportTimespans":[],"summaryAdditionalTravelTime":{"label":"De extra reistijd kan oplopen tot 60 minuten.","shortLabel":"Extra reistijd tot 60 min.","maximumDurationInMinutes":60}},{"id":"7004222","isActive":true,"title":"Utrecht - Spoorwegmuseum.","type":"MAINTENANCE","registrationTime":"2023-11-30T11:12:01+0100","releaseTime":"2023-11-30T11:12:01+0100","local":false,"titleSections":[[{"type":"STATION","value":"Utrecht C."},{"type":"ICON","value":"MAINTENANCE"},{"type":"STATION","value":"Maliebaan"}]],"start":"2023-11-18T08:00:00+0100","end":"2023-12-09T18:00:00+0100","period":"Zaterdag 18-11-2023 08:00 uur t/m zaterdag 09-12-2023 18:00 uur.","impact":{"value":3},"publicationSections":[{"section":{"stations":[{"coordinate":{"lat":52.0888900756836,"lng":5.11027765274048},"countryCode":"NL","name":"Utrecht Centraal","stationCode":"UT","uicCode":"8400621"},{"coordinate":{"lat":52.1100006103516,"lng":5.12472200393677},"countryCode":"NL","name":"Utrecht Overvecht","stationCode":"UTO","uicCode":"8400620"},{"coordinate":{"lat":52.1300010681152,"lng":5.20388889312744},"countryCode":"NL","name":"Bilthoven","stationCode":"BHV","uicCode":"8400114"},{"coordinate":{"lat":52.087776184082,"lng":5.13138866424561},"countryCode":"NL","name":"Utrecht Maliebaan","stationCode":"UTM","uicCode":"8400624"}],"direction":"BOTH"},"consequence":{"section":{"stations":[{"coordinate":{"lat":52.0888900756836,"lng":5.11027765274048},"countryCode":"NL","name":"Utrecht Centraal","stationCode":"UT","uicCode":"8400621"},{"coordinate":{"lat":52.1100006103516,"lng":5.12472200393677},"countryCode":"NL","name":"Utrecht Overvecht","stationCode":"UTO","uicCode":"8400620"},{"coordinate":{"lat":52.1300010681152,"lng":5.20388889312744},"countryCode":"NL","name":"Bilthoven","stationCode":"BHV","uicCode":"8400114"},{"coordinate":{"lat":52.087776184082,"lng":5.13138866424561},"countryCode":"NL","name":"Utrecht Maliebaan","stationCode":"UTM","uicCode":"8400624"}],"direction":"ONE_WAY"},"description":"geen treinen","level":"LESS_TRAINS"},"sectionType":"NL"}],"timespans":[{"start":"2023-11-18T08:00:00+0100","end":"2023-12-09T18:00:00+0100","period":"Zaterdag 18-11-2023 08:00 uur t/m zaterdag 09-12-2023 18:00 uur.","situation":{"label":"Door een defect spoor: tussen Utrecht Centraal en Utrecht Maliebaan rijden er geen treinen."},"cause":{"label":"defect spoor"},"advices":["U kunt gebruikmaken van U-OV buslijn 8."]}],"alternativeTransportTimespans":[]},{"id":"7004221","isActive":true,"title":"Deventer - Almelo.","type":"MAINTENANCE","registrationTime":"2023-11-27T15:56:50+0100","releaseTime":"2023-11-27T15:56:50+0100","local":false,"titleSections":[[{"type":"STATION","value":"Deventer"},{"type":"STATION","value":"Wierden"},{"type":"ICON","value":"MAINTENANCE"},{"type":"STATION","value":"Almelo"}]],"start":"2023-11-22T08:30:00+0100","end":"2023-12-08T17:00:00+0100","period":"Woensdag 22-11-2023 08:30 uur t/m vrijdag 08-12-2023 17:00 uur.","impact":{"value":2},"publicationSections":[{"section":{"stations":[{"coordinate":{"lat":52.2574996948242,"lng":6.16055536270142},"countryCode":"NL","name":"Deventer","stationCode":"DV","uicCode":"8400173"},{"coordinate":{"lat":52.2502784729004,"lng":6.21444463729858},"countryCode":"NL","name":"Deventer Colmschate","stationCode":"DVC","uicCode":"8400185"},{"coordinate":{"lat":52.2838897705078,"lng":6.42027759552002},"countryCode":"NL","name":"Holten","stationCode":"HON","uicCode":"8400328"},{"coordinate":{"lat":52.3122215270996,"lng":6.52027797698975},"countryCode":"NL","name":"Rijssen","stationCode":"RSN","uicCode":"8400538"},{"coordinate":{"lat":52.3613891601562,"lng":6.59166669845581},"countryCode":"NL","name":"Wierden","stationCode":"WDN","uicCode":"8400691"},{"coordinate":{"lat":52.3580551147461,"lng":6.65388870239258},"countryCode":"NL","name":"Almelo","stationCode":"AML","uicCode":"8400051"}],"direction":"ONE_WAY"},"consequence":{"section":{"stations":[{"coordinate":{"lat":52.3613891601562,"lng":6.59166669845581},"countryCode":"NL","name":"Wierden","stationCode":"WDN","uicCode":"8400691"},{"coordinate":{"lat":52.3580551147461,"lng":6.65388870239258},"countryCode":"NL","name":"Almelo","stationCode":"AML","uicCode":"8400051"}],"direction":"ONE_WAY"},"description":"dienstregeling aangepast","level":"LESS_TRAINS"},"sectionType":"NL"}],"timespans":[{"start":"2023-11-22T08:30:00+0100","end":"2023-12-08T17:00:00+0100","period":"Woensdag 22-11-2023 08:30 uur t/m vrijdag 08-12-2023 17:00 uur.","situation":{"label":"Door gepland onderhoud: van Almelo naar Wierden is de dienstregeling aangepast."},"cause":{"label":"gepland onderhoud"},"additionalTravelTime":{"label":"U heeft geen langere reistijd.","shortLabel":"Geen extra reistijd"},"advices":["Van maandag t/m vrijdag vertrekken Sprinters van Almelo, vertrek 08.53 en 16.53 uur naar Apeldoorn, 8 minuten eerder uit Almelo."]}],"alternativeTransportTimespans":[],"summaryAdditionalTravelTime":{"label":"U heeft geen langere reistijd.","shortLabel":"Geen extra reistijd"}},{"id":"7004105","isActive":true,"title":"Rotterdam Centraal.","type":"MAINTENANCE","registrationTime":"2023-11-28T14:09:28+0100","releaseTime":"2023-11-28T14:09:28+0100","local":false,"titleSections":[[{"type":"STATION","value":"Rotterdam C."}]],"start":"2023-12-02T00:30:00+0100","end":"2023-12-04T05:00:00+0100","period":"Zaterdag 02-12-2023 00:30 uur t/m maandag 04-12-2023 05:00 uur.","impact":{"value":5},"publicationSections":[{"section":{"stations":[{"coordinate":{"lat":51.9249992370605,"lng":4.46888875961304},"countryCode":"NL","name":"Rotterdam Centraal","stationCode":"RTD","uicCode":"8400530"},{"coordinate":{"lat":51.9202766418457,"lng":4.48888874053955},"countryCode":"NL","name":"Rotterdam Blaak","stationCode":"RTB","uicCode":"8400529"},{"coordinate":{"lat":51.9044456481934,"lng":4.51027774810791},"countryCode":"NL","name":"Rotterdam Zuid","stationCode":"RTZ","uicCode":"8400533"},{"coordinate":{"lat":51.8800010681152,"lng":4.53138875961304},"countryCode":"NL","name":"Rotterdam Lombardijen","stationCode":"RLB","uicCode":"8400542"},{"coordinate":{"lat":51.606388092041,"lng":4.72083330154419},"countryCode":"NL","name":"Breda-Prinsenbeek","stationCode":"BDPB","uicCode":"8400132"},{"coordinate":{"lat":51.5955543518066,"lng":4.78000020980835},"countryCode":"NL","name":"Breda","stationCode":"BD","uicCode":"8400131"}],"direction":"BOTH"},"consequence":{"section":{"stations":[{"coordinate":{"lat":51.9249992370605,"lng":4.46888875961304},"countryCode":"NL","name":"Rotterdam Centraal","stationCode":"RTD","uicCode":"8400530"}],"direction":"ONE_WAY"},"description":"vervangend vervoer","level":"LESS_TRAINS"},"sectionType":"HSL"},{"section":{"stations":[{"coordinate":{"lat":51.9249992370605,"lng":4.46888875961304},"countryCode":"NL","name":"Rotterdam Centraal","stationCode":"RTD","uicCode":"8400530"},{"coordinate":{"lat":51.9202766418457,"lng":4.48888874053955},"countryCode":"NL","name":"Rotterdam Blaak","stationCode":"RTB","uicCode":"8400529"},{"coordinate":{"lat":51.9044456481934,"lng":4.51027774810791},"countryCode":"NL","name":"Rotterdam Zuid","stationCode":"RTZ","uicCode":"8400533"},{"coordinate":{"lat":51.8800010681152,"lng":4.53138875961304},"countryCode":"NL","name":"Rotterdam Lombardijen","stationCode":"RLB","uicCode":"8400542"},{"coordinate":{"lat":51.8547210693359,"lng":4.5533332824707},"countryCode":"NL","name":"Barendrecht","stationCode":"BRD","uicCode":"8400090"},{"coordinate":{"lat":51.814998626709,"lng":4.64166688919067},"countryCode":"NL","name":"Zwijndrecht","stationCode":"ZWD","uicCode":"8400752"},{"coordinate":{"lat":51.8072204589844,"lng":4.66833353042603},"countryCode":"NL","name":"Dordrecht","stationCode":"DDR","uicCode":"8400180"}],"direction":"BOTH"},"consequence":{"section":{"stations":[{"coordinate":{"lat":51.9249992370605,"lng":4.46888875961304},"countryCode":"NL","name":"Rotterdam Centraal","stationCode":"RTD","uicCode":"8400530"}],"direction":"ONE_WAY"},"description":"vervangend vervoer","level":"LESS_TRAINS"},"sectionType":"NL"},{"section":{"stations":[{"coordinate":{"lat":52.3094444274902,"lng":4.76194429397583},"countryCode":"NL","name":"Schiphol Airport","stationCode":"SHL","uicCode":"8400561"},{"coordinate":{"lat":52.2933349609375,"lng":4.70055532455444},"countryCode":"NL","name":"Hoofddorp","stationCode":"HFD","uicCode":"8400332"},{"coordinate":{"lat":51.9249992370605,"lng":4.46888875961304},"countryCode":"NL","name":"Rotterdam Centraal","stationCode":"RTD","uicCode":"8400530"}],"direction":"BOTH"},"consequence":{"section":{"stations":[{"coordinate":{"lat":51.9249992370605,"lng":4.46888875961304},"countryCode":"NL","name":"Rotterdam Centraal","stationCode":"RTD","uicCode":"8400530"}],"direction":"ONE_WAY"},"description":"vervangend vervoer","level":"LESS_TRAINS"},"sectionType":"HSL"},{"section":{"stations":[{"coordinate":{"lat":51.9249992370605,"lng":4.46888875961304},"countryCode":"NL","name":"Rotterdam Centraal","stationCode":"RTD","uicCode":"8400530"},{"coordinate":{"lat":51.9422225952148,"lng":4.48166656494141},"countryCode":"NL","name":"Rotterdam Noord","stationCode":"RTN","uicCode":"8400531"},{"coordinate":{"lat":51.9519462585449,"lng":4.55361127853394},"countryCode":"NL","name":"Rotterdam Alexander","stationCode":"RTA","uicCode":"8400507"},{"coordinate":{"lat":51.9541664123535,"lng":4.58416652679443},"countryCode":"NL","name":"Capelle Schollevaar","stationCode":"CPS","uicCode":"8400147"},{"coordinate":{"lat":51.9652786254883,"lng":4.61694431304932},"countryCode":"NL","name":"Nieuwerkerk a/d IJssel","stationCode":"NWK","uicCode":"8400455"},{"coordinate":{"lat":52.0175018310547,"lng":4.70444440841675},"countryCode":"NL","name":"Gouda","stationCode":"GD","uicCode":"8400258"}],"direction":"BOTH"},"consequence":{"section":{"stations":[{"coordinate":{"lat":51.9249992370605,"lng":4.46888875961304},"countryCode":"NL","name":"Rotterdam Centraal","stationCode":"RTD","uicCode":"8400530"}],"direction":"ONE_WAY"},"description":"vervangend vervoer","level":"LESS_TRAINS"},"sectionType":"NL"},{"section":{"stations":[{"coordinate":{"lat":52.0697212219238,"lng":4.32250022888184},"countryCode":"NL","name":"Den Haag HS","stationCode":"GV","uicCode":"8400280"},{"coordinate":{"lat":52.0538902282715,"lng":4.3086109161377},"countryCode":"NL","name":"Den Haag Moerwijk","stationCode":"GVMW","uicCode":"8400279"},{"coordinate":{"lat":52.039722442627,"lng":4.31916666030884},"countryCode":"NL","name":"Rijswijk","stationCode":"RSW","uicCode":"8400505"},{"coordinate":{"lat":52.0066680908203,"lng":4.35638904571533},"countryCode":"NL","name":"Delft","stationCode":"DT","uicCode":"8400170"},{"coordinate":{"lat":51.9908332824707,"lng":4.36472225189209},"countryCode":"NL","name":"Delft Campus","stationCode":"DTCP","uicCode":"8400166"},{"coordinate":{"lat":51.9212438128032,"lng":4.4089937210083},"countryCode":"NL","name":"Schiedam Centrum","stationCode":"SDM","uicCode":"8400553"},{"coordinate":{"lat":51.9249992370605,"lng":4.46888875961304},"countryCode":"NL","name":"Rotterdam Centraal","stationCode":"RTD","uicCode":"8400530"}],"direction":"BOTH"},"consequence":{"section":{"stations":[{"coordinate":{"lat":51.9249992370605,"lng":4.46888875961304},"countryCode":"NL","name":"Rotterdam Centraal","stationCode":"RTD","uicCode":"8400530"}],"direction":"ONE_WAY"},"description":"vervangend vervoer","level":"LESS_TRAINS"},"sectionType":"NL"}],"timespans":[{"start":"2023-12-02T00:30:00+0100","end":"2023-12-04T05:00:00+0100","period":"Zaterdag 02-12-2023 00:30 uur t/m maandag 04-12-2023 05:00 uur.","situation":{"label":"Door werkzaamheden: van, via en naar Rotterdam Centraal rijdt er vervangend vervoer."},"cause":{"label":"werkzaamheden"},"additionalTravelTime":{"label":"De extra reistijd is ongeveer 45 minuten.","shortLabel":"extra reistijd 45 min.","minimumDurationInMinutes":45,"maximumDurationInMinutes":45},"alternativeTransport":{"label":"maak gebruik van het vervangende vervoer","shortLabel":"gebruik het vervangende vervoer"},"advices":["Uw NS-vervoerbewijs is geldig in metro tussen Schiedam C, Beurs, CS, Blaak, Capelsebrug en Alexander.","tussen Amsterdam C. en Breda/Roosendaal reist u via 's-Hertogenbosch","tussen Den Haag C. en Tilburg/Eindhoven C. reist u via Utrecht C. en 's-Hertogenbosch"]}],"alternativeTransportTimespans":[{"start":"2023-12-02T00:30:00+0100","end":"2023-12-02T02:50:00+0100","alternativeTransport":{"location":[{"station":{"coordinate":{"lat":51.9249992370605,"lng":4.46888875961304},"countryCode":"NL","name":"Rotterdam Centraal","stationCode":"RTD","uicCode":"8400530"},"description":"vanaf de Conradstraat aan de centrumzijde"},{"station":{"coordinate":{"lat":51.8072204589844,"lng":4.66833353042603},"countryCode":"NL","name":"Dordrecht","stationCode":"DDR","uicCode":"8400180"},"description":"Burgemeester de Raadtsingel"}],"label":"Er rijden snelbussen tussen Rotterdam Centraal en Dordrecht.","shortLabel":"er rijden snelbussen Rotterdam C. - Dordrecht"}},{"start":"2023-12-02T00:30:00+0100","end":"2023-12-02T01:40:00+0100","alternativeTransport":{"location":[],"label":"Er rijden snelbussen tussen Rotterdam Centraal, Rotterdam Alexander en Gouda.","shortLabel":"er rijden snelbussen Rotterdam C. - Alexander - Gouda"}},{"start":"2023-12-02T00:30:00+0100","end":"2023-12-02T01:40:00+0100","alternativeTransport":{"location":[{"station":{"coordinate":{"lat":52.0175018310547,"lng":4.70444440841675},"countryCode":"NL","name":"Gouda","stationCode":"GD","uicCode":"8400258"},"description":"vanaf de Bloemendaalzijde"},{"station":{"coordinate":{"lat":51.9652786254883,"lng":4.61694431304932},"countryCode":"NL","name":"Nieuwerkerk a/d IJssel","stationCode":"NWK","uicCode":"8400455"},"description":"vanaf de Kerklaan"},{"station":{"coordinate":{"lat":51.9541664123535,"lng":4.58416652679443},"countryCode":"NL","name":"Capelle Schollevaar","stationCode":"CPS","uicCode":"8400147"},"description":"vanaf het Stationsplein"},{"station":{"coordinate":{"lat":51.9519462585449,"lng":4.55361127853394},"countryCode":"NL","name":"Rotterdam Alexander","stationCode":"RTA","uicCode":"8400507"},"description":"vanaf de Prins Alexanderlaan"},{"station":{"coordinate":{"lat":51.9422225952148,"lng":4.48166656494141},"countryCode":"NL","name":"Rotterdam Noord","stationCode":"RTN","uicCode":"8400531"},"description":"vanaf de Bergweg onder het viaduct"}],"label":"Er rijden stopbussen van Gouda, Nieuwerkerk a/d IJssel, Capelle Schollevaar, Rotterdam Alexander, Rotterdam Noord naar Rotterdam Centraal.","shortLabel":"er rijden stopbussen Gouda -> Nieuwerkerk -> Schollevaar -> Alexander -> Rotterdam Noord -> Rotterdam C."}},{"start":"2023-12-02T00:35:00+0100","end":"2023-12-02T02:05:00+0100","alternativeTransport":{"location":[{"station":{"coordinate":{"lat":51.9249992370605,"lng":4.46888875961304},"countryCode":"NL","name":"Rotterdam Centraal","stationCode":"RTD","uicCode":"8400530"},"description":"vanaf de Conradstraat aan de centrumzijde"},{"station":{"coordinate":{"lat":51.9044456481934,"lng":4.51027774810791},"countryCode":"NL","name":"Rotterdam Zuid","stationCode":"RTZ","uicCode":"8400533"},"description":"vanaf de Rosestraat"},{"station":{"coordinate":{"lat":51.8800010681152,"lng":4.53138875961304},"countryCode":"NL","name":"Rotterdam Lombardijen","stationCode":"RLB","uicCode":"8400542"},"description":"vanaf de bushalte"},{"station":{"coordinate":{"lat":51.8547210693359,"lng":4.5533332824707},"countryCode":"NL","name":"Barendrecht","stationCode":"BRD","uicCode":"8400090"},"description":"vanaf de achterzijde van het station"},{"station":{"coordinate":{"lat":51.814998626709,"lng":4.64166688919067},"countryCode":"NL","name":"Zwijndrecht","stationCode":"ZWD","uicCode":"8400752"},"description":"vanaf het Stationsplein"},{"station":{"coordinate":{"lat":51.8072204589844,"lng":4.66833353042603},"countryCode":"NL","name":"Dordrecht","stationCode":"DDR","uicCode":"8400180"},"description":"Burgemeester de Raadtsingel"}],"label":"Er rijden stopbussen tussen Rotterdam Centraal, Rotterdam Zuid, Rotterdam Lombardijen, Barendrecht, Zwijndrecht en Dordrecht.","shortLabel":"er rijden stopbussen Rotterdam C. - Rotterdam Zuid - Lombardijen - Barendrecht - Zwijndrecht - Dordrecht"}},{"start":"2023-12-02T01:10:00+0100","end":"2023-12-02T06:00:00+0100","alternativeTransport":{"location":[{"station":{"coordinate":{"lat":51.9249992370605,"lng":4.46888875961304},"countryCode":"NL","name":"Rotterdam Centraal","stationCode":"RTD","uicCode":"8400530"},"description":"vanaf de Conradstraat aan de centrumzijde"},{"station":{"coordinate":{"lat":51.9212438128032,"lng":4.4089937210083},"countryCode":"NL","name":"Schiedam Centrum","stationCode":"SDM","uicCode":"8400553"},"description":"vanaf de Horvathweg"}],"label":"Er rijden snelbussen tussen Rotterdam Centraal en Schiedam Centrum.","shortLabel":"er rijden snelbussen Rotterdam C. - Schiedam C."}},{"start":"2023-12-02T05:00:00+0100","end":"2023-12-03T01:00:00+0100","alternativeTransport":{"location":[{"station":{"coordinate":{"lat":51.9422225952148,"lng":4.48166656494141},"countryCode":"NL","name":"Rotterdam Noord","stationCode":"RTN","uicCode":"8400531"},"description":"vanaf de Bergweg onder het viaduct"},{"station":{"coordinate":{"lat":51.9519462585449,"lng":4.55361127853394},"countryCode":"NL","name":"Rotterdam Alexander","stationCode":"RTA","uicCode":"8400507"},"description":"vanaf de Prins Alexanderlaan"}],"label":"Er rijden stopbussen tussen Rotterdam Noord en Rotterdam Alexander.","shortLabel":"er rijden stopbussen Rotterdam Noord - Alexander"}},{"start":"2023-12-02T05:00:00+0100","end":"2023-12-03T01:00:00+0100","alternativeTransport":{"location":[{"station":{"coordinate":{"lat":51.9212438128032,"lng":4.4089937210083},"countryCode":"NL","name":"Schiedam Centrum","stationCode":"SDM","uicCode":"8400553"},"description":"vanaf de Horvathweg"},{"station":{"coordinate":{"lat":51.8800010681152,"lng":4.53138875961304},"countryCode":"NL","name":"Rotterdam Lombardijen","stationCode":"RLB","uicCode":"8400542"},"description":"vanaf de bushalte"}],"label":"Er rijden snelbussen tussen Schiedam Centrum en Rotterdam Lombardijen.","shortLabel":"er rijden snelbussen Schiedam C. - Lombardijen"}},{"start":"2023-12-02T05:00:00+0100","end":"2023-12-03T01:00:00+0100","alternativeTransport":{"location":[{"station":{"coordinate":{"lat":51.8800010681152,"lng":4.53138875961304},"countryCode":"NL","name":"Rotterdam Lombardijen","stationCode":"RLB","uicCode":"8400542"},"description":"vanaf de bushalte"}],"label":"Er rijden snelbussen tussen Capelsebrug en Rotterdam Lombardijen.","shortLabel":"er rijden snelbussen Capelsebrug - Lombardijen"}},{"start":"2023-12-02T05:00:00+0100","end":"2023-12-03T01:00:00+0100","alternativeTransport":{"location":[{"station":{"coordinate":{"lat":51.8800010681152,"lng":4.53138875961304},"countryCode":"NL","name":"Rotterdam Lombardijen","stationCode":"RLB","uicCode":"8400542"},"description":"vanaf de bushalte"},{"station":{"coordinate":{"lat":51.9044456481934,"lng":4.51027774810791},"countryCode":"NL","name":"Rotterdam Zuid","stationCode":"RTZ","uicCode":"8400533"},"description":"vanaf de Rosestraat"}],"label":"Er rijden stopbussen tussen Rotterdam Lombardijen en Rotterdam Zuid.","shortLabel":"er rijden stopbussen Lombardijen - Rotterdam Zuid"}},{"start":"2023-12-02T05:00:00+0100","end":"2023-12-03T01:00:00+0100","alternativeTransport":{"location":[],"label":"Maak gebruik van de Rotterdamse metro tussen Schiedam Centrum, Rotterdam Beurs, Rotterdam Blaak, Capelsebrug en Rotterdam Alexander.","shortLabel":"gebruik de Rotterdamse metro Schiedam C. - Rotterdam Beurs - Blaak - Capelsebrug - Alexander"}},{"start":"2023-12-02T05:00:00+0100","end":"2023-12-03T01:00:00+0100","alternativeTransport":{"location":[],"label":"Maak gebruik van de Rotterdamse metro tussen Rotterdam Centraal en Rotterdam Beurs.","shortLabel":"gebruik de Rotterdamse metro Rotterdam C. - Rotterdam Beurs"}},{"start":"2023-12-03T00:30:00+0100","end":"2023-12-03T06:00:00+0100","alternativeTransport":{"location":[{"station":{"coordinate":{"lat":51.9249992370605,"lng":4.46888875961304},"countryCode":"NL","name":"Rotterdam Centraal","stationCode":"RTD","uicCode":"8400530"},"description":"vanaf de Conradstraat aan de centrumzijde"},{"station":{"coordinate":{"lat":51.9212438128032,"lng":4.4089937210083},"countryCode":"NL","name":"Schiedam Centrum","stationCode":"SDM","uicCode":"8400553"},"description":"vanaf de Horvathweg"}],"label":"Er rijden snelbussen tussen Rotterdam Centraal en Schiedam Centrum.","shortLabel":"er rijden snelbussen Rotterdam C. - Schiedam C."}},{"start":"2023-12-03T01:30:00+0100","end":"2023-12-03T02:45:00+0100","alternativeTransport":{"location":[{"station":{"coordinate":{"lat":51.8072204589844,"lng":4.66833353042603},"countryCode":"NL","name":"Dordrecht","stationCode":"DDR","uicCode":"8400180"},"description":"Burgemeester de Raadtsingel"}],"label":"Er rijden snelbussen van Dordrecht naar Rotterdam Centraal.","shortLabel":"er rijden snelbussen Dordrecht -> Rotterdam C."}},{"start":"2023-12-03T05:00:00+0100","end":"2023-12-04T01:00:00+0100","alternativeTransport":{"location":[],"label":"Maak gebruik van de Rotterdamse metro tussen Rotterdam Centraal en Rotterdam Beurs.","shortLabel":"gebruik de Rotterdamse metro Rotterdam C. - Rotterdam Beurs"}},{"start":"2023-12-03T05:00:00+0100","end":"2023-12-04T01:00:00+0100","alternativeTransport":{"location":[],"label":"Maak gebruik van de Rotterdamse metro tussen Schiedam Centrum, Rotterdam Beurs, Rotterdam Blaak, Capelsebrug en Rotterdam Alexander.","shortLabel":"gebruik de Rotterdamse metro Schiedam C. - Rotterdam Beurs - Blaak - Capelsebrug - Alexander"}},{"start":"2023-12-03T05:00:00+0100","end":"2023-12-04T01:00:00+0100","alternativeTransport":{"location":[{"station":{"coordinate":{"lat":51.8800010681152,"lng":4.53138875961304},"countryCode":"NL","name":"Rotterdam Lombardijen","stationCode":"RLB","uicCode":"8400542"},"description":"vanaf de bushalte"}],"label":"Er rijden snelbussen tussen Capelsebrug en Rotterdam Lombardijen.","shortLabel":"er rijden snelbussen Capelsebrug - Lombardijen"}},{"start":"2023-12-03T05:00:00+0100","end":"2023-12-04T01:00:00+0100","alternativeTransport":{"location":[{"station":{"coordinate":{"lat":51.9044456481934,"lng":4.51027774810791},"countryCode":"NL","name":"Rotterdam Zuid","stationCode":"RTZ","uicCode":"8400533"},"description":"vanaf de Rosestraat"},{"station":{"coordinate":{"lat":51.8800010681152,"lng":4.53138875961304},"countryCode":"NL","name":"Rotterdam Lombardijen","stationCode":"RLB","uicCode":"8400542"},"description":"vanaf de bushalte"}],"label":"Er rijden stopbussen tussen Rotterdam Zuid en Rotterdam Lombardijen.","shortLabel":"er rijden stopbussen Rotterdam Zuid - Lombardijen"}},{"start":"2023-12-03T05:00:00+0100","end":"2023-12-04T01:00:00+0100","alternativeTransport":{"location":[{"station":{"coordinate":{"lat":51.9422225952148,"lng":4.48166656494141},"countryCode":"NL","name":"Rotterdam Noord","stationCode":"RTN","uicCode":"8400531"},"description":"vanaf de Bergweg onder het viaduct"},{"station":{"coordinate":{"lat":51.9519462585449,"lng":4.55361127853394},"countryCode":"NL","name":"Rotterdam Alexander","stationCode":"RTA","uicCode":"8400507"},"description":"vanaf de Prins Alexanderlaan"}],"label":"Er rijden stopbussen tussen Rotterdam Noord en Rotterdam Alexander.","shortLabel":"er rijden stopbussen Rotterdam Noord - Alexander"}},{"start":"2023-12-03T05:30:00+0100","end":"2023-12-03T10:00:00+0100","alternativeTransport":{"location":[{"station":{"coordinate":{"lat":51.9212438128032,"lng":4.4089937210083},"countryCode":"NL","name":"Schiedam Centrum","stationCode":"SDM","uicCode":"8400553"},"description":"vanaf de Horvathweg"},{"station":{"coordinate":{"lat":51.8800010681152,"lng":4.53138875961304},"countryCode":"NL","name":"Rotterdam Lombardijen","stationCode":"RLB","uicCode":"8400542"},"description":"vanaf de bushalte"}],"label":"Er rijden snelbussen tussen Schiedam Centrum en Rotterdam Lombardijen.","shortLabel":"er rijden snelbussen Schiedam C. - Lombardijen"}},{"start":"2023-12-03T10:00:00+0100","end":"2023-12-03T15:30:00+0100","alternativeTransport":{"location":[{"station":{"coordinate":{"lat":51.9212438128032,"lng":4.4089937210083},"countryCode":"NL","name":"Schiedam Centrum","stationCode":"SDM","uicCode":"8400553"},"description":"vanaf de Horvathweg"},{"station":{"coordinate":{"lat":51.8547210693359,"lng":4.5533332824707},"countryCode":"NL","name":"Barendrecht","stationCode":"BRD","uicCode":"8400090"},"description":"vanaf de achterzijde van het station"}],"label":"Er rijden snelbussen tussen Schiedam Centrum en Barendrecht.","shortLabel":"er rijden snelbussen Schiedam C. - Barendrecht"}},{"start":"2023-12-03T15:30:00+0100","end":"2023-12-04T01:00:00+0100","alternativeTransport":{"location":[{"station":{"coordinate":{"lat":51.9212438128032,"lng":4.4089937210083},"countryCode":"NL","name":"Schiedam Centrum","stationCode":"SDM","uicCode":"8400553"},"description":"vanaf de Horvathweg"},{"station":{"coordinate":{"lat":51.8800010681152,"lng":4.53138875961304},"countryCode":"NL","name":"Rotterdam Lombardijen","stationCode":"RLB","uicCode":"8400542"},"description":"vanaf de bushalte"}],"label":"Er rijden snelbussen tussen Schiedam Centrum en Rotterdam Lombardijen.","shortLabel":"er rijden snelbussen Schiedam C. - Lombardijen"}},{"start":"2023-12-04T00:30:00+0100","end":"2023-12-04T05:00:00+0100","alternativeTransport":{"location":[{"station":{"coordinate":{"lat":51.9249992370605,"lng":4.46888875961304},"countryCode":"NL","name":"Rotterdam Centraal","stationCode":"RTD","uicCode":"8400530"},"description":"vanaf de Conradstraat aan de centrumzijde"},{"station":{"coordinate":{"lat":51.9212438128032,"lng":4.4089937210083},"countryCode":"NL","name":"Schiedam Centrum","stationCode":"SDM","uicCode":"8400553"},"description":"vanaf de Horvathweg"}],"label":"Er rijden snelbussen tussen Rotterdam Centraal en Schiedam Centrum.","shortLabel":"er rijden snelbussen Rotterdam C. - Schiedam C."}}],"summaryAdditionalTravelTime":{"label":"De extra reistijd is ongeveer 45 minuten.","shortLabel":"extra reistijd 45 min.","minimumDurationInMinutes":45,"maximumDurationInMinutes":45}},{"id":"7004225","isActive":false,"title":"Amersfoort - Zwolle.","type":"MAINTENANCE","registrationTime":"2023-11-21T15:51:03+0100","releaseTime":"2023-11-21T15:51:03+0100","local":false,"titleSections":[[{"type":"STATION","value":"Amersfoort C."},{"type":"STATION","value":"Putten"},{"type":"ICON","value":"MAINTENANCE"},{"type":"STATION","value":"Zwolle"}]],"start":"2023-12-04T23:15:00+0100","end":"2023-12-05T05:30:00+0100","period":"Maandag 04-12-2023 23:15 uur t/m dinsdag 05-12-2023 05:30 uur.","impact":{"value":3},"publicationSections":[{"section":{"stations":[{"coordinate":{"lat":52.1538887023926,"lng":5.37055540084839},"countryCode":"NL","name":"Amersfoort Centraal","stationCode":"AMF","uicCode":"8400055"},{"coordinate":{"lat":52.1748221374512,"lng":5.40388870239258},"countryCode":"NL","name":"Amersfoort Schothorst","stationCode":"AMFS","uicCode":"8400054"},{"coordinate":{"lat":52.1927795410156,"lng":5.43388891220093},"countryCode":"NL","name":"Amersfoort Vathorst","stationCode":"AVAT","uicCode":"8400228"},{"coordinate":{"lat":52.2222213745117,"lng":5.49388885498047},"countryCode":"NL","name":"Nijkerk","stationCode":"NKK","uicCode":"8400469"},{"coordinate":{"lat":52.2649993896484,"lng":5.57527780532837},"countryCode":"NL","name":"Putten","stationCode":"PT","uicCode":"8400509"},{"coordinate":{"lat":52.3016662597656,"lng":5.61472225189209},"countryCode":"NL","name":"Ermelo","stationCode":"EML","uicCode":"8400216"},{"coordinate":{"lat":52.3375015258789,"lng":5.61972236633301},"countryCode":"NL","name":"Harderwijk","stationCode":"HD","uicCode":"8400294"},{"coordinate":{"lat":52.3708343505859,"lng":5.78527784347534},"countryCode":"NL","name":"Nunspeet","stationCode":"NS","uicCode":"8400466"},{"coordinate":{"lat":52.4091682,"lng":5.893611},"countryCode":"NL","name":"'t Harde","stationCode":"HDE","uicCode":"8400388"},{"coordinate":{"lat":52.4541664123535,"lng":6.00250005722046},"countryCode":"NL","name":"Wezep","stationCode":"WZ","uicCode":"8400690"},{"coordinate":{"lat":52.5047225952148,"lng":6.09194421768188},"countryCode":"NL","name":"Zwolle","stationCode":"ZL","uicCode":"8400747"}],"direction":"BOTH"},"consequence":{"section":{"stations":[{"coordinate":{"lat":52.2649993896484,"lng":5.57527780532837},"countryCode":"NL","name":"Putten","stationCode":"PT","uicCode":"8400509"},{"coordinate":{"lat":52.3016662597656,"lng":5.61472225189209},"countryCode":"NL","name":"Ermelo","stationCode":"EML","uicCode":"8400216"},{"coordinate":{"lat":52.3375015258789,"lng":5.61972236633301},"countryCode":"NL","name":"Harderwijk","stationCode":"HD","uicCode":"8400294"},{"coordinate":{"lat":52.3708343505859,"lng":5.78527784347534},"countryCode":"NL","name":"Nunspeet","stationCode":"NS","uicCode":"8400466"},{"coordinate":{"lat":52.4091682,"lng":5.893611},"countryCode":"NL","name":"'t Harde","stationCode":"HDE","uicCode":"8400388"},{"coordinate":{"lat":52.4541664123535,"lng":6.00250005722046},"countryCode":"NL","name":"Wezep","stationCode":"WZ","uicCode":"8400690"},{"coordinate":{"lat":52.5047225952148,"lng":6.09194421768188},"countryCode":"NL","name":"Zwolle","stationCode":"ZL","uicCode":"8400747"}],"direction":"ONE_WAY"},"description":"rijden bussen","level":"LESS_TRAINS"},"sectionType":"NL"}],"timespans":[{"start":"2023-12-04T23:15:00+0100","end":"2023-12-05T05:30:00+0100","period":"Maandag 04-12-2023 23:15 uur t/m dinsdag 05-12-2023 05:30 uur.","situation":{"label":"Door werkzaamheden: tussen Putten en Zwolle rijden er bussen."},"cause":{"label":"werkzaamheden"},"additionalTravelTime":{"label":"De extra reistijd is ongeveer 45 minuten.","shortLabel":"extra reistijd 45 min.","minimumDurationInMinutes":45,"maximumDurationInMinutes":45},"alternativeTransport":{"label":"er rijden stop- en snelbussen","shortLabel":"er rijden stop- en snelbussen"},"advices":[]}],"alternativeTransportTimespans":[{"start":"2023-12-04T23:15:00+0100","end":"2023-12-05T00:00:00+0100","alternativeTransport":{"location":[{"station":{"coordinate":{"lat":52.5047225952148,"lng":6.09194421768188},"countryCode":"NL","name":"Zwolle","stationCode":"ZL","uicCode":"8400747"},"description":"vanaf de Hanzelaan, aan de zuidzijde van het station"}],"label":"Er rijden snelbussen van Zwolle naar Amersfoort Centraal.","shortLabel":"er rijden snelbussen Zwolle -> Amersfoort C."}},{"start":"2023-12-04T23:30:00+0100","end":"2023-12-05T01:15:00+0100","alternativeTransport":{"location":[{"station":{"coordinate":{"lat":52.2649993896484,"lng":5.57527780532837},"countryCode":"NL","name":"Putten","stationCode":"PT","uicCode":"8400509"},"description":"vanaf de bushalte"},{"station":{"coordinate":{"lat":52.3016662597656,"lng":5.61472225189209},"countryCode":"NL","name":"Ermelo","stationCode":"EML","uicCode":"8400216"},"description":"vanaf de bushalte"},{"station":{"coordinate":{"lat":52.3375015258789,"lng":5.61972236633301},"countryCode":"NL","name":"Harderwijk","stationCode":"HD","uicCode":"8400294"},"description":"vanaf het busstation"},{"station":{"coordinate":{"lat":52.3708343505859,"lng":5.78527784347534},"countryCode":"NL","name":"Nunspeet","stationCode":"NS","uicCode":"8400466"},"description":"vanaf het P+R-terrein Nunspeet Natuurtransferium"},{"station":{"coordinate":{"lat":52.4091682,"lng":5.893611},"countryCode":"NL","name":"'t Harde","stationCode":"HDE","uicCode":"8400388"},"description":"vanaf de achterzijde van het station"},{"station":{"coordinate":{"lat":52.4541664123535,"lng":6.00250005722046},"countryCode":"NL","name":"Wezep","stationCode":"WZ","uicCode":"8400690"},"description":"vanaf het busstation"},{"station":{"coordinate":{"lat":52.5047225952148,"lng":6.09194421768188},"countryCode":"NL","name":"Zwolle","stationCode":"ZL","uicCode":"8400747"},"description":"vanaf de Hanzelaan, aan de zuidzijde van het station"}],"label":"Er rijden stopbussen tussen Putten, Ermelo, Harderwijk, Nunspeet, 't Harde, Wezep en Zwolle.","shortLabel":"er rijden stopbussen Putten - Ermelo - Harderwijk - Nunspeet - 't Harde - Wezep - Zwolle"}},{"start":"2023-12-05T00:00:00+0100","end":"2023-12-05T00:45:00+0100","alternativeTransport":{"location":[{"station":{"coordinate":{"lat":52.1538887023926,"lng":5.37055540084839},"countryCode":"NL","name":"Amersfoort Centraal","stationCode":"AMF","uicCode":"8400055"},"description":"vanaf het busstation, centrumzijde"}],"label":"Er rijden snelbussen van Amersfoort Centraal naar Zwolle.","shortLabel":"er rijden snelbussen Amersfoort C. -> Zwolle"}},{"start":"2023-12-05T04:50:00+0100","end":"2023-12-05T05:30:00+0100","alternativeTransport":{"location":[{"station":{"coordinate":{"lat":52.5047225952148,"lng":6.09194421768188},"countryCode":"NL","name":"Zwolle","stationCode":"ZL","uicCode":"8400747"},"description":"vanaf de Hanzelaan, aan de zuidzijde van het station"},{"station":{"coordinate":{"lat":52.4541664123535,"lng":6.00250005722046},"countryCode":"NL","name":"Wezep","stationCode":"WZ","uicCode":"8400690"},"description":"vanaf het busstation"},{"station":{"coordinate":{"lat":52.4091682,"lng":5.893611},"countryCode":"NL","name":"'t Harde","stationCode":"HDE","uicCode":"8400388"},"description":"vanaf de achterzijde van het station"}],"label":"Er rijden stopbussen van Zwolle, Wezep, 't Harde naar Nunspeet.","shortLabel":"er rijden stopbussen Zwolle -> Wezep -> 't Harde -> Nunspeet"}}],"summaryAdditionalTravelTime":{"label":"De extra reistijd is ongeveer 45 minuten.","shortLabel":"extra reistijd 45 min.","minimumDurationInMinutes":45,"maximumDurationInMinutes":45}},{"id":"7004197","isActive":false,"title":"Groningen - Eemshaven.","type":"MAINTENANCE","registrationTime":"2023-11-20T09:28:34+0100","releaseTime":"2023-11-20T09:28:34+0100","local":false,"titleSections":[[{"type":"STATION","value":"Groningen"},{"type":"STATION","value":"Baflo"},{"type":"ICON","value":"MAINTENANCE"},{"type":"STATION","value":"Roodeschool"},{"type":"STATION","value":"Eemshaven"}],[{"type":"STATION","value":"Groningen"},{"type":"STATION","value":"Sauwerd"},{"type":"ICON","value":"MAINTENANCE"},{"type":"STATION","value":"Roodeschool"},{"type":"STATION","value":"Eemshaven"}]],"start":"2023-12-08T23:35:00+0100","end":"2023-12-18T02:00:00+0100","period":"Vrijdag 08-12-2023 23:35 uur t/m maandag 18-12-2023 02:00 uur.","impact":{"value":4},"publicationSections":[{"section":{"stations":[{"coordinate":{"lat":53.2105560302734,"lng":6.56472206115723},"countryCode":"NL","name":"Groningen","stationCode":"GN","uicCode":"8400263"},{"coordinate":{"lat":53.2301469,"lng":6.5563172},"countryCode":"NL","name":"Groningen Noord","stationCode":"GNN","uicCode":"8400264"},{"coordinate":{"lat":53.29113,"lng":6.5404},"countryCode":"NL","name":"Sauwerd","stationCode":"SWD","uicCode":"8400547"},{"coordinate":{"lat":53.3300994,"lng":6.5202905},"countryCode":"NL","name":"Winsum","stationCode":"WSM","uicCode":"8400697"},{"coordinate":{"lat":53.3608969,"lng":6.5185581},"countryCode":"NL","name":"Baflo","stationCode":"BF","uicCode":"8400089"},{"coordinate":{"lat":53.3908431,"lng":6.5671364},"countryCode":"NL","name":"Warffum","stationCode":"WFM","uicCode":"8400679"},{"coordinate":{"lat":53.4014742,"lng":6.6093776},"countryCode":"NL","name":"Usquert","stationCode":"UST","uicCode":"8400619"},{"coordinate":{"lat":53.4099568,"lng":6.6748869},"countryCode":"NL","name":"Uithuizen","stationCode":"UHZ","uicCode":"8400617"},{"coordinate":{"lat":53.4145845,"lng":6.7202975},"countryCode":"NL","name":"Uithuizermeeden","stationCode":"UHM","uicCode":"8400618"},{"coordinate":{"lat":53.421262,"lng":6.7587},"countryCode":"NL","name":"Roodeschool","stationCode":"RD","uicCode":"8400525"},{"coordinate":{"lat":53.458419,"lng":6.832},"countryCode":"NL","name":"Eemshaven","stationCode":"EEM","uicCode":"8400202"}],"direction":"BOTH"},"consequence":{"section":{"stations":[{"coordinate":{"lat":53.3608969,"lng":6.5185581},"countryCode":"NL","name":"Baflo","stationCode":"BF","uicCode":"8400089"},{"coordinate":{"lat":53.3908431,"lng":6.5671364},"countryCode":"NL","name":"Warffum","stationCode":"WFM","uicCode":"8400679"},{"coordinate":{"lat":53.4014742,"lng":6.6093776},"countryCode":"NL","name":"Usquert","stationCode":"UST","uicCode":"8400619"},{"coordinate":{"lat":53.4099568,"lng":6.6748869},"countryCode":"NL","name":"Uithuizen","stationCode":"UHZ","uicCode":"8400617"},{"coordinate":{"lat":53.4145845,"lng":6.7202975},"countryCode":"NL","name":"Uithuizermeeden","stationCode":"UHM","uicCode":"8400618"},{"coordinate":{"lat":53.421262,"lng":6.7587},"countryCode":"NL","name":"Roodeschool","stationCode":"RD","uicCode":"8400525"}],"direction":"ONE_WAY"},"description":"rijden bussen","level":"LESS_TRAINS"},"sectionType":"NL"},{"section":{"stations":[{"coordinate":{"lat":53.2105560302734,"lng":6.56472206115723},"countryCode":"NL","name":"Groningen","stationCode":"GN","uicCode":"8400263"},{"coordinate":{"lat":53.2301469,"lng":6.5563172},"countryCode":"NL","name":"Groningen Noord","stationCode":"GNN","uicCode":"8400264"},{"coordinate":{"lat":53.29113,"lng":6.5404},"countryCode":"NL","name":"Sauwerd","stationCode":"SWD","uicCode":"8400547"},{"coordinate":{"lat":53.3300994,"lng":6.5202905},"countryCode":"NL","name":"Winsum","stationCode":"WSM","uicCode":"8400697"},{"coordinate":{"lat":53.3608969,"lng":6.5185581},"countryCode":"NL","name":"Baflo","stationCode":"BF","uicCode":"8400089"},{"coordinate":{"lat":53.3908431,"lng":6.5671364},"countryCode":"NL","name":"Warffum","stationCode":"WFM","uicCode":"8400679"},{"coordinate":{"lat":53.4014742,"lng":6.6093776},"countryCode":"NL","name":"Usquert","stationCode":"UST","uicCode":"8400619"},{"coordinate":{"lat":53.4099568,"lng":6.6748869},"countryCode":"NL","name":"Uithuizen","stationCode":"UHZ","uicCode":"8400617"},{"coordinate":{"lat":53.4145845,"lng":6.7202975},"countryCode":"NL","name":"Uithuizermeeden","stationCode":"UHM","uicCode":"8400618"},{"coordinate":{"lat":53.421262,"lng":6.7587},"countryCode":"NL","name":"Roodeschool","stationCode":"RD","uicCode":"8400525"},{"coordinate":{"lat":53.458419,"lng":6.832},"countryCode":"NL","name":"Eemshaven","stationCode":"EEM","uicCode":"8400202"}],"direction":"BOTH"},"consequence":{"section":{"stations":[{"coordinate":{"lat":53.29113,"lng":6.5404},"countryCode":"NL","name":"Sauwerd","stationCode":"SWD","uicCode":"8400547"},{"coordinate":{"lat":53.3300994,"lng":6.5202905},"countryCode":"NL","name":"Winsum","stationCode":"WSM","uicCode":"8400697"},{"coordinate":{"lat":53.3608969,"lng":6.5185581},"countryCode":"NL","name":"Baflo","stationCode":"BF","uicCode":"8400089"},{"coordinate":{"lat":53.3908431,"lng":6.5671364},"countryCode":"NL","name":"Warffum","stationCode":"WFM","uicCode":"8400679"},{"coordinate":{"lat":53.4014742,"lng":6.6093776},"countryCode":"NL","name":"Usquert","stationCode":"UST","uicCode":"8400619"},{"coordinate":{"lat":53.4099568,"lng":6.6748869},"countryCode":"NL","name":"Uithuizen","stationCode":"UHZ","uicCode":"8400617"},{"coordinate":{"lat":53.4145845,"lng":6.7202975},"countryCode":"NL","name":"Uithuizermeeden","stationCode":"UHM","uicCode":"8400618"},{"coordinate":{"lat":53.421262,"lng":6.7587},"countryCode":"NL","name":"Roodeschool","stationCode":"RD","uicCode":"8400525"}],"direction":"ONE_WAY"},"description":"rijden bussen","level":"LESS_TRAINS"},"sectionType":"NL"}],"timespans":[{"start":"2023-12-08T23:35:00+0100","end":"2023-12-15T02:00:00+0100","period":"Vrijdag 08-12-2023 23:35 uur t/m vrijdag 15-12-2023 02:00 uur.","situation":{"label":"Door werkzaamheden: tussen Baflo en Roodeschool rijden er bussen."},"cause":{"label":"werkzaamheden"},"additionalTravelTime":{"label":"De extra reistijd kan oplopen tot 45 minuten.","shortLabel":"extra reistijd tot 45 min.","maximumDurationInMinutes":45},"advices":[]},{"start":"2023-12-15T02:01:00+0100","end":"2023-12-18T02:00:00+0100","period":"Vrijdag 15-12-2023 02:01 uur t/m maandag 18-12-2023 02:00 uur.","situation":{"label":"Door werkzaamheden: tussen Sauwerd en Roodeschool rijden er bussen."},"cause":{"label":"werkzaamheden"},"additionalTravelTime":{"label":"De extra reistijd kan oplopen tot 45 minuten.","shortLabel":"extra reistijd tot 45 min.","maximumDurationInMinutes":45},"advices":[]}],"alternativeTransportTimespans":[],"summaryAdditionalTravelTime":{"label":"De extra reistijd kan oplopen tot 45 minuten.","shortLabel":"extra reistijd tot 45 min.","maximumDurationInMinutes":45}},{"id":"7004198","isActive":false,"title":"Groningen - Delfzijl.","type":"MAINTENANCE","registrationTime":"2023-11-20T09:28:27+0100","releaseTime":"2023-11-20T09:28:27+0100","local":false,"titleSections":[[{"type":"STATION","value":"Groningen"},{"type":"STATION","value":"Stedum"},{"type":"ICON","value":"MAINTENANCE"},{"type":"STATION","value":"Delfzijl"}]],"start":"2023-12-09T00:10:00+0100","end":"2023-12-18T02:00:00+0100","period":"Zaterdag 09-12-2023 00:10 uur t/m maandag 18-12-2023 02:00 uur.","impact":{"value":4},"publicationSections":[{"section":{"stations":[{"coordinate":{"lat":53.2105560302734,"lng":6.56472206115723},"countryCode":"NL","name":"Groningen","stationCode":"GN","uicCode":"8400263"},{"coordinate":{"lat":53.2301469,"lng":6.5563172},"countryCode":"NL","name":"Groningen Noord","stationCode":"GNN","uicCode":"8400264"},{"coordinate":{"lat":53.29113,"lng":6.5404},"countryCode":"NL","name":"Sauwerd","stationCode":"SWD","uicCode":"8400547"},{"coordinate":{"lat":53.3068857,"lng":6.593054},"countryCode":"NL","name":"Bedum","stationCode":"BDM","uicCode":"8400094"},{"coordinate":{"lat":53.3262092,"lng":6.6875551},"countryCode":"NL","name":"Stedum","stationCode":"STM","uicCode":"8400576"},{"coordinate":{"lat":53.3347145,"lng":6.7472625},"countryCode":"NL","name":"Loppersum","stationCode":"LP","uicCode":"8400403"},{"coordinate":{"lat":53.3258135,"lng":6.8619577},"countryCode":"NL","name":"Appingedam","stationCode":"APG","uicCode":"8400067"},{"coordinate":{"lat":53.3320834,"lng":6.9069092},"countryCode":"NL","name":"Delfzijl West","stationCode":"DZW","uicCode":"8400175"},{"coordinate":{"lat":53.3336625,"lng":6.9240797},"countryCode":"NL","name":"Delfzijl","stationCode":"DZ","uicCode":"8400171"}],"direction":"BOTH"},"consequence":{"section":{"stations":[{"coordinate":{"lat":53.3262092,"lng":6.6875551},"countryCode":"NL","name":"Stedum","stationCode":"STM","uicCode":"8400576"},{"coordinate":{"lat":53.3347145,"lng":6.7472625},"countryCode":"NL","name":"Loppersum","stationCode":"LP","uicCode":"8400403"},{"coordinate":{"lat":53.3258135,"lng":6.8619577},"countryCode":"NL","name":"Appingedam","stationCode":"APG","uicCode":"8400067"},{"coordinate":{"lat":53.3320834,"lng":6.9069092},"countryCode":"NL","name":"Delfzijl West","stationCode":"DZW","uicCode":"8400175"},{"coordinate":{"lat":53.3336625,"lng":6.9240797},"countryCode":"NL","name":"Delfzijl","stationCode":"DZ","uicCode":"8400171"}],"direction":"ONE_WAY"},"description":"rijden bussen","level":"LESS_TRAINS"},"sectionType":"NL"}],"timespans":[{"start":"2023-12-09T00:10:00+0100","end":"2023-12-18T02:00:00+0100","period":"Zaterdag 09-12-2023 00:10 uur t/m maandag 18-12-2023 02:00 uur.","situation":{"label":"Door werkzaamheden: tussen Stedum en Delfzijl rijden er bussen."},"cause":{"label":"werkzaamheden"},"additionalTravelTime":{"label":"De extra reistijd kan oplopen tot 45 minuten.","shortLabel":"extra reistijd tot 45 min.","maximumDurationInMinutes":45},"advices":[]}],"alternativeTransportTimespans":[],"summaryAdditionalTravelTime":{"label":"De extra reistijd kan oplopen tot 45 minuten.","shortLabel":"extra reistijd tot 45 min.","maximumDurationInMinutes":45}},{"id":"7004207","isActive":false,"title":"Amsterdam - Schiphol - Leiden; Hoofddorp - Schiphol - Almere Oostvaarders.","type":"MAINTENANCE","registrationTime":"2023-11-14T14:26:10+0100","releaseTime":"2023-11-14T14:26:10+0100","local":false,"titleSections":[[{"type":"STATION","value":"Amsterdam C."},{"type":"STATION","value":"Sloterdijk"},{"type":"ICON","value":"MAINTENANCE"},{"type":"STATION","value":"Schiphol Airport"},{"type":"STATION","value":"Leiden C."}],[{"type":"STATION","value":"Hoofddorp"},{"type":"STATION","value":"Schiphol Airport"},{"type":"ICON","value":"MAINTENANCE"},{"type":"STATION","value":"RAI"},{"type":"STATION","value":"Oostvaarders"}]],"start":"2023-12-09T00:15:00+0100","end":"2023-12-11T05:00:00+0100","period":"Zaterdag 09-12-2023 00:15 uur t/m maandag 11-12-2023 05:00 uur.","impact":{"value":5},"publicationSections":[{"section":{"stations":[{"coordinate":{"lat":52.3788871765137,"lng":4.90027761459351},"countryCode":"NL","name":"Amsterdam Centraal","stationCode":"ASD","uicCode":"8400058"},{"coordinate":{"lat":52.3888893127441,"lng":4.83777761459351},"countryCode":"NL","name":"Amsterdam Sloterdijk","stationCode":"ASS","uicCode":"8400059"},{"coordinate":{"lat":52.3577766418457,"lng":4.83388900756836},"countryCode":"NL","name":"Amsterdam Lelylaan","stationCode":"ASDL","uicCode":"8400079"},{"coordinate":{"lat":52.3094444274902,"lng":4.76194429397583},"countryCode":"NL","name":"Schiphol Airport","stationCode":"SHL","uicCode":"8400561"},{"coordinate":{"lat":52.2933349609375,"lng":4.70055532455444},"countryCode":"NL","name":"Hoofddorp","stationCode":"HFD","uicCode":"8400332"},{"coordinate":{"lat":52.2588882446289,"lng":4.64555549621582},"countryCode":"NL","name":"Nieuw Vennep","stationCode":"NVP","uicCode":"8400460"},{"coordinate":{"lat":52.215278,"lng":4.517222},"countryCode":"NL","name":"Sassenheim","stationCode":"SSH","uicCode":"8400603"},{"coordinate":{"lat":52.1661109924316,"lng":4.48166656494141},"countryCode":"NL","name":"Leiden Centraal","stationCode":"LEDN","uicCode":"8400390"}],"direction":"BOTH"},"consequence":{"section":{"stations":[{"coordinate":{"lat":52.3888893127441,"lng":4.83777761459351},"countryCode":"NL","name":"Amsterdam Sloterdijk","stationCode":"ASS","uicCode":"8400059"},{"coordinate":{"lat":52.3577766418457,"lng":4.83388900756836},"countryCode":"NL","name":"Amsterdam Lelylaan","stationCode":"ASDL","uicCode":"8400079"},{"coordinate":{"lat":52.3094444274902,"lng":4.76194429397583},"countryCode":"NL","name":"Schiphol Airport","stationCode":"SHL","uicCode":"8400561"}],"direction":"ONE_WAY"},"description":"vervangend vervoer","level":"LESS_TRAINS"},"sectionType":"NL"},{"section":{"stations":[{"coordinate":{"lat":52.2933349609375,"lng":4.70055532455444},"countryCode":"NL","name":"Hoofddorp","stationCode":"HFD","uicCode":"8400332"},{"coordinate":{"lat":52.3094444274902,"lng":4.76194429397583},"countryCode":"NL","name":"Schiphol Airport","stationCode":"SHL","uicCode":"8400561"},{"coordinate":{"lat":52.338889,"lng":4.872356},"countryCode":"NL","name":"Amsterdam Zuid","stationCode":"ASDZ","uicCode":"8400061"},{"coordinate":{"lat":52.3372230529785,"lng":4.89027786254883},"countryCode":"NL","name":"Amsterdam RAI","stationCode":"RAI","uicCode":"8400056"},{"coordinate":{"lat":52.3233337402344,"lng":4.93638896942139},"countryCode":"NL","name":"Duivendrecht","stationCode":"DVD","uicCode":"8400194"},{"coordinate":{"lat":52.3302764892578,"lng":4.95583343505859},"countryCode":"NL","name":"Diemen Zuid","stationCode":"DMNZ","uicCode":"8400163"},{"coordinate":{"lat":52.3127784729004,"lng":5.04305553436279},"countryCode":"NL","name":"Weesp","stationCode":"WP","uicCode":"8400685"},{"coordinate":{"lat":52.342778,"lng":5.151944},"countryCode":"NL","name":"Almere Poort","stationCode":"AMPO","uicCode":"8400450"},{"coordinate":{"lat":52.3675003051758,"lng":5.19027757644653},"countryCode":"NL","name":"Almere Muziekwijk","stationCode":"ALMM","uicCode":"8400082"},{"coordinate":{"lat":52.37503,"lng":5.21764},"countryCode":"NL","name":"Almere Centrum","stationCode":"ALM","uicCode":"8400080"},{"coordinate":{"lat":52.3766670227051,"lng":5.24472236633301},"countryCode":"NL","name":"Almere Parkwijk","stationCode":"ALMP","uicCode":"8400104"},{"coordinate":{"lat":52.3941650390625,"lng":5.2780556678772},"countryCode":"NL","name":"Almere Buiten","stationCode":"ALMB","uicCode":"8400081"},{"coordinate":{"lat":52.4033317565918,"lng":5.30055570602417},"countryCode":"NL","name":"Almere Oostvaarders","stationCode":"ALMO","uicCode":"8400226"}],"direction":"BOTH"},"consequence":{"section":{"stations":[{"coordinate":{"lat":52.3094444274902,"lng":4.76194429397583},"countryCode":"NL","name":"Schiphol Airport","stationCode":"SHL","uicCode":"8400561"},{"coordinate":{"lat":52.338889,"lng":4.872356},"countryCode":"NL","name":"Amsterdam Zuid","stationCode":"ASDZ","uicCode":"8400061"},{"coordinate":{"lat":52.3372230529785,"lng":4.89027786254883},"countryCode":"NL","name":"Amsterdam RAI","stationCode":"RAI","uicCode":"8400056"}],"direction":"ONE_WAY"},"description":"vervangend vervoer","level":"LESS_TRAINS"},"sectionType":"NL"}],"timespans":[{"start":"2023-12-09T00:15:00+0100","end":"2023-12-11T05:00:00+0100","period":"Zaterdag 09-12-2023 00:15 uur t/m maandag 11-12-2023 05:00 uur.","situation":{"label":"Door werkzaamheden: tussen Amsterdam Sloterdijk en Schiphol Airport rijdt er vervangend vervoer en tussen Schiphol Airport en Amsterdam RAI rijdt er vervangend vervoer."},"cause":{"label":"werkzaamheden"},"additionalTravelTime":{"label":"De extra reistijd is ongeveer 30 minuten.","shortLabel":"extra reistijd 30 min.","minimumDurationInMinutes":30,"maximumDurationInMinutes":30},"alternativeTransport":{"label":"maak gebruik van het vervangende vervoer","shortLabel":"gebruik het vervangende vervoer"},"advices":["Uw NS-vervoerbewijs is geldig in de metrolijnen 50, 51 en 52 tussen Amsterdam Centraal, Zuid, RAI en Sloterdijk.","tussen Amsterdam C. en Leiden C. reist u via Haarlem","tussen Utrecht C. en Schiphol Airport reist u via Leiden C.","tussen Zwolle en Den Haag C. reist u via Utrecht C."]}],"alternativeTransportTimespans":[{"start":"2023-12-09T00:15:00+0100","end":"2023-12-09T01:40:00+0100","alternativeTransport":{"location":[{"station":{"coordinate":{"lat":52.3094444274902,"lng":4.76194429397583},"countryCode":"NL","name":"Schiphol Airport","stationCode":"SHL","uicCode":"8400561"},"description":"vanaf de voorzijde van het station"},{"station":{"coordinate":{"lat":52.338889,"lng":4.872356},"countryCode":"NL","name":"Amsterdam Zuid","stationCode":"ASDZ","uicCode":"8400061"},"description":"vanaf de Strawinskylaan uitgang Zuidplein"},{"station":{"coordinate":{"lat":52.3372230529785,"lng":4.89027786254883},"countryCode":"NL","name":"Amsterdam RAI","stationCode":"RAI","uicCode":"8400056"},"description":"vanaf de voorzijde van het station"}],"label":"Er rijden stopbussen tussen Schiphol Airport, Amsterdam Zuid en Amsterdam RAI.","shortLabel":"er rijden stopbussen Schiphol Airport - Amsterdam Zuid - RAI"}},{"start":"2023-12-09T01:25:00+0100","end":"2023-12-09T02:10:00+0100","alternativeTransport":{"location":[{"station":{"coordinate":{"lat":52.3094444274902,"lng":4.76194429397583},"countryCode":"NL","name":"Schiphol Airport","stationCode":"SHL","uicCode":"8400561"},"description":"vanaf de voorzijde van het station"},{"station":{"coordinate":{"lat":52.338889,"lng":4.872356},"countryCode":"NL","name":"Amsterdam Zuid","stationCode":"ASDZ","uicCode":"8400061"},"description":"vanaf de Strawinskylaan uitgang Zuidplein"},{"station":{"coordinate":{"lat":52.3577766418457,"lng":4.83388900756836},"countryCode":"NL","name":"Amsterdam Lelylaan","stationCode":"ASDL","uicCode":"8400079"},"description":"vanaf het busstation"},{"station":{"coordinate":{"lat":52.3888893127441,"lng":4.83777761459351},"countryCode":"NL","name":"Amsterdam Sloterdijk","stationCode":"ASS","uicCode":"8400059"},"description":"vanaf de voorzijde van het station"}],"label":"Er rijden stopbussen van Schiphol Airport, Amsterdam Zuid, Amsterdam Lelylaan naar Amsterdam Sloterdijk.","shortLabel":"er rijden stopbussen Schiphol Airport -> Amsterdam Zuid -> Lelylaan -> Sloterdijk"}},{"start":"2023-12-09T02:00:00+0100","end":"2023-12-09T06:15:00+0100","alternativeTransport":{"location":[{"station":{"coordinate":{"lat":52.3888893127441,"lng":4.83777761459351},"countryCode":"NL","name":"Amsterdam Sloterdijk","stationCode":"ASS","uicCode":"8400059"},"description":"vanaf de voorzijde van het station"},{"station":{"coordinate":{"lat":52.3577766418457,"lng":4.83388900756836},"countryCode":"NL","name":"Amsterdam Lelylaan","stationCode":"ASDL","uicCode":"8400079"},"description":"vanaf het busstation"},{"station":{"coordinate":{"lat":52.3094444274902,"lng":4.76194429397583},"countryCode":"NL","name":"Schiphol Airport","stationCode":"SHL","uicCode":"8400561"},"description":"vanaf de voorzijde van het station"}],"label":"Er rijden stopbussen tussen Amsterdam Sloterdijk, Amsterdam Lelylaan en Schiphol Airport.","shortLabel":"er rijden stopbussen Sloterdijk - Lelylaan - Schiphol Airport"}},{"start":"2023-12-09T05:00:00+0100","end":"2023-12-10T01:00:00+0100","alternativeTransport":{"location":[{"station":{"coordinate":{"lat":52.338889,"lng":4.872356},"countryCode":"NL","name":"Amsterdam Zuid","stationCode":"ASDZ","uicCode":"8400061"},"description":"vanaf de Strawinskylaan uitgang Zuidplein"},{"station":{"coordinate":{"lat":52.3094444274902,"lng":4.76194429397583},"countryCode":"NL","name":"Schiphol Airport","stationCode":"SHL","uicCode":"8400561"},"description":"vanaf de voorzijde van het station"}],"label":"Er rijden snelbussen tussen Amsterdam Zuid en Schiphol Airport.","shortLabel":"er rijden snelbussen Amsterdam Zuid - Schiphol Airport"}},{"start":"2023-12-09T05:00:00+0100","end":"2023-12-10T01:00:00+0100","alternativeTransport":{"location":[],"label":"Maak gebruik van de Amsterdamse metro tussen Amsterdam Sloterdijk, Amsterdam Lelylaan, Amsterdam Zuid en Amsterdam RAI.","shortLabel":"gebruik de Amsterdamse metro Sloterdijk - Lelylaan - Amsterdam Zuid - RAI"}},{"start":"2023-12-09T05:00:00+0100","end":"2023-12-10T01:00:00+0100","alternativeTransport":{"location":[],"label":"Maak gebruik van de Amsterdamse metro tussen Amsterdam Centraal en Amsterdam Zuid.","shortLabel":"gebruik de Amsterdamse metro Amsterdam C. - Amsterdam Zuid"}},{"start":"2023-12-10T01:00:00+0100","end":"2023-12-10T07:15:00+0100","alternativeTransport":{"location":[{"station":{"coordinate":{"lat":52.3888893127441,"lng":4.83777761459351},"countryCode":"NL","name":"Amsterdam Sloterdijk","stationCode":"ASS","uicCode":"8400059"},"description":"vanaf de voorzijde van het station"},{"station":{"coordinate":{"lat":52.3577766418457,"lng":4.83388900756836},"countryCode":"NL","name":"Amsterdam Lelylaan","stationCode":"ASDL","uicCode":"8400079"},"description":"vanaf het busstation"},{"station":{"coordinate":{"lat":52.3094444274902,"lng":4.76194429397583},"countryCode":"NL","name":"Schiphol Airport","stationCode":"SHL","uicCode":"8400561"},"description":"vanaf de voorzijde van het station"}],"label":"Er rijden stopbussen tussen Amsterdam Sloterdijk, Amsterdam Lelylaan en Schiphol Airport.","shortLabel":"er rijden stopbussen Sloterdijk - Lelylaan - Schiphol Airport"}},{"start":"2023-12-10T05:00:00+0100","end":"2023-12-11T01:00:00+0100","alternativeTransport":{"location":[{"station":{"coordinate":{"lat":52.3094444274902,"lng":4.76194429397583},"countryCode":"NL","name":"Schiphol Airport","stationCode":"SHL","uicCode":"8400561"},"description":"vanaf de voorzijde van het station"},{"station":{"coordinate":{"lat":52.338889,"lng":4.872356},"countryCode":"NL","name":"Amsterdam Zuid","stationCode":"ASDZ","uicCode":"8400061"},"description":"vanaf de Strawinskylaan uitgang Zuidplein"}],"label":"Er rijden snelbussen tussen Schiphol Airport en Amsterdam Zuid.","shortLabel":"er rijden snelbussen Schiphol Airport - Amsterdam Zuid"}},{"start":"2023-12-10T05:00:00+0100","end":"2023-12-11T01:00:00+0100","alternativeTransport":{"location":[],"label":"Maak gebruik van de Amsterdamse metro tussen Amsterdam Sloterdijk, Amsterdam Lelylaan, Amsterdam Zuid en Amsterdam RAI.","shortLabel":"gebruik de Amsterdamse metro Sloterdijk - Lelylaan - Amsterdam Zuid - RAI"}},{"start":"2023-12-10T05:00:00+0100","end":"2023-12-11T01:00:00+0100","alternativeTransport":{"location":[],"label":"Maak gebruik van de Amsterdamse metro tussen Amsterdam Zuid en Amsterdam Centraal.","shortLabel":"gebruik de Amsterdamse metro Amsterdam Zuid - Amsterdam C."}},{"start":"2023-12-10T07:00:00+0100","end":"2023-12-10T23:00:00+0100","alternativeTransport":{"location":[{"station":{"coordinate":{"lat":52.3094444274902,"lng":4.76194429397583},"countryCode":"NL","name":"Schiphol Airport","stationCode":"SHL","uicCode":"8400561"},"description":"vanaf de voorzijde van het station"},{"station":{"coordinate":{"lat":52.29844,"lng":4.95972},"countryCode":"NL","name":"Amsterdam Holendrecht","stationCode":"ASHD","uicCode":"8400231"},"description":"vanaf de voorzijde van het station"}],"label":"Er rijden snelbussen tussen Schiphol Airport en Amsterdam Holendrecht.","shortLabel":"er rijden snelbussen Schiphol Airport - Holendrecht"}},{"start":"2023-12-11T01:00:00+0100","end":"2023-12-11T05:00:00+0100","alternativeTransport":{"location":[{"station":{"coordinate":{"lat":52.3888893127441,"lng":4.83777761459351},"countryCode":"NL","name":"Amsterdam Sloterdijk","stationCode":"ASS","uicCode":"8400059"},"description":"vanaf de voorzijde van het station"},{"station":{"coordinate":{"lat":52.3577766418457,"lng":4.83388900756836},"countryCode":"NL","name":"Amsterdam Lelylaan","stationCode":"ASDL","uicCode":"8400079"},"description":"vanaf het busstation"},{"station":{"coordinate":{"lat":52.3094444274902,"lng":4.76194429397583},"countryCode":"NL","name":"Schiphol Airport","stationCode":"SHL","uicCode":"8400561"},"description":"vanaf de voorzijde van het station"}],"label":"Er rijden stopbussen tussen Amsterdam Sloterdijk, Amsterdam Lelylaan en Schiphol Airport.","shortLabel":"er rijden stopbussen Sloterdijk - Lelylaan - Schiphol Airport"}}],"summaryAdditionalTravelTime":{"label":"De extra reistijd is ongeveer 30 minuten.","shortLabel":"extra reistijd 30 min.","minimumDurationInMinutes":30,"maximumDurationInMinutes":30}},{"id":"7004217","isActive":false,"title":"Amsterdam - Schiphol - Leiden.","type":"MAINTENANCE","registrationTime":"2023-11-14T15:00:47+0100","releaseTime":"2023-11-14T15:00:47+0100","local":false,"titleSections":[[{"type":"STATION","value":"Amsterdam C."},{"type":"STATION","value":"Schiphol Airport"},{"type":"ICON","value":"MAINTENANCE"},{"type":"STATION","value":"Leiden C."}]],"start":"2023-12-09T01:30:00+0100","end":"2023-12-09T06:00:00+0100","period":"Zaterdag 09-12-2023 01:30 uur t/m zaterdag 09-12-2023 06:00 uur.","impact":{"value":3},"publicationSections":[{"section":{"stations":[{"coordinate":{"lat":52.3788871765137,"lng":4.90027761459351},"countryCode":"NL","name":"Amsterdam Centraal","stationCode":"ASD","uicCode":"8400058"},{"coordinate":{"lat":52.3888893127441,"lng":4.83777761459351},"countryCode":"NL","name":"Amsterdam Sloterdijk","stationCode":"ASS","uicCode":"8400059"},{"coordinate":{"lat":52.3577766418457,"lng":4.83388900756836},"countryCode":"NL","name":"Amsterdam Lelylaan","stationCode":"ASDL","uicCode":"8400079"},{"coordinate":{"lat":52.3094444274902,"lng":4.76194429397583},"countryCode":"NL","name":"Schiphol Airport","stationCode":"SHL","uicCode":"8400561"},{"coordinate":{"lat":52.2933349609375,"lng":4.70055532455444},"countryCode":"NL","name":"Hoofddorp","stationCode":"HFD","uicCode":"8400332"},{"coordinate":{"lat":52.2588882446289,"lng":4.64555549621582},"countryCode":"NL","name":"Nieuw Vennep","stationCode":"NVP","uicCode":"8400460"},{"coordinate":{"lat":52.215278,"lng":4.517222},"countryCode":"NL","name":"Sassenheim","stationCode":"SSH","uicCode":"8400603"},{"coordinate":{"lat":52.1661109924316,"lng":4.48166656494141},"countryCode":"NL","name":"Leiden Centraal","stationCode":"LEDN","uicCode":"8400390"}],"direction":"BOTH"},"consequence":{"section":{"stations":[{"coordinate":{"lat":52.3094444274902,"lng":4.76194429397583},"countryCode":"NL","name":"Schiphol Airport","stationCode":"SHL","uicCode":"8400561"},{"coordinate":{"lat":52.2933349609375,"lng":4.70055532455444},"countryCode":"NL","name":"Hoofddorp","stationCode":"HFD","uicCode":"8400332"},{"coordinate":{"lat":52.2588882446289,"lng":4.64555549621582},"countryCode":"NL","name":"Nieuw Vennep","stationCode":"NVP","uicCode":"8400460"},{"coordinate":{"lat":52.215278,"lng":4.517222},"countryCode":"NL","name":"Sassenheim","stationCode":"SSH","uicCode":"8400603"},{"coordinate":{"lat":52.1661109924316,"lng":4.48166656494141},"countryCode":"NL","name":"Leiden Centraal","stationCode":"LEDN","uicCode":"8400390"}],"direction":"ONE_WAY"},"description":"rijden bussen","level":"LESS_TRAINS"},"sectionType":"NL"}],"timespans":[{"start":"2023-12-09T01:30:00+0100","end":"2023-12-09T06:00:00+0100","period":"Zaterdag 09-12-2023 01:30 uur t/m zaterdag 09-12-2023 06:00 uur.","situation":{"label":"Door werkzaamheden: tussen Schiphol Airport en Leiden Centraal rijden er bussen."},"cause":{"label":"werkzaamheden"},"additionalTravelTime":{"label":"De extra reistijd is ongeveer 30 minuten.","shortLabel":"extra reistijd 30 min.","minimumDurationInMinutes":30,"maximumDurationInMinutes":30},"alternativeTransport":{"label":"er rijden snelbussen","shortLabel":"er rijden snelbussen"},"advices":[]}],"alternativeTransportTimespans":[{"start":"2023-12-09T01:30:00+0100","end":"2023-12-09T06:00:00+0100","alternativeTransport":{"location":[{"station":{"coordinate":{"lat":52.3094444274902,"lng":4.76194429397583},"countryCode":"NL","name":"Schiphol Airport","stationCode":"SHL","uicCode":"8400561"},"description":"vanaf de voorzijde van het station"},{"station":{"coordinate":{"lat":52.1661109924316,"lng":4.48166656494141},"countryCode":"NL","name":"Leiden Centraal","stationCode":"LEDN","uicCode":"8400390"},"description":"vanaf het stadsbusstation"}],"label":"Er rijden snelbussen tussen Schiphol Airport en Leiden Centraal.","shortLabel":"er rijden snelbussen Schiphol Airport - Leiden C."}}],"summaryAdditionalTravelTime":{"label":"De extra reistijd is ongeveer 30 minuten.","shortLabel":"extra reistijd 30 min.","minimumDurationInMinutes":30,"maximumDurationInMinutes":30}},{"id":"7004204","isActive":false,"title":"Alkmaar - Den Helder; Alkmaar - Hoorn.","type":"MAINTENANCE","registrationTime":"2023-11-19T14:15:16+0100","releaseTime":"2023-11-19T14:15:16+0100","local":false,"titleSections":[[{"type":"STATION","value":"Alkmaar"},{"type":"ICON","value":"MAINTENANCE"},{"type":"STATION","value":"Schagen"},{"type":"STATION","value":"Den Helder"}],[{"type":"STATION","value":"Alkmaar"},{"type":"ICON","value":"MAINTENANCE"},{"type":"STATION","value":"Hoorn"}]],"start":"2023-12-09T01:50:00+0100","end":"2023-12-18T02:00:00+0100","period":"Zaterdag 09-12-2023 01:50 uur t/m maandag 18-12-2023 02:00 uur.","impact":{"value":4},"publicationSections":[{"section":{"stations":[{"coordinate":{"lat":52.6377792358398,"lng":4.73972225189209},"countryCode":"NL","name":"Alkmaar","stationCode":"AMR","uicCode":"8400050"},{"coordinate":{"lat":52.6438903808594,"lng":4.76416683197022},"countryCode":"NL","name":"Alkmaar Noord","stationCode":"AMRN","uicCode":"8400052"},{"coordinate":{"lat":52.6697235107422,"lng":4.82277774810791},"countryCode":"NL","name":"Heerhugowaard","stationCode":"HWD","uicCode":"8400306"},{"coordinate":{"lat":52.7844429016113,"lng":4.80527782440186},"countryCode":"NL","name":"Schagen","stationCode":"SGN","uicCode":"8400549"},{"coordinate":{"lat":52.8672218322754,"lng":4.81111097335815},"countryCode":"NL","name":"Anna Paulowna","stationCode":"ANA","uicCode":"8400065"},{"coordinate":{"lat":52.9324989318848,"lng":4.76416683197022},"countryCode":"NL","name":"Den Helder Zuid","stationCode":"HDRZ","uicCode":"8400303"},{"coordinate":{"lat":52.9552764892578,"lng":4.76111125946045},"countryCode":"NL","name":"Den Helder","stationCode":"HDR","uicCode":"8400311"}],"direction":"BOTH"},"consequence":{"section":{"stations":[{"coordinate":{"lat":52.6377792358398,"lng":4.73972225189209},"countryCode":"NL","name":"Alkmaar","stationCode":"AMR","uicCode":"8400050"},{"coordinate":{"lat":52.6438903808594,"lng":4.76416683197022},"countryCode":"NL","name":"Alkmaar Noord","stationCode":"AMRN","uicCode":"8400052"},{"coordinate":{"lat":52.6697235107422,"lng":4.82277774810791},"countryCode":"NL","name":"Heerhugowaard","stationCode":"HWD","uicCode":"8400306"},{"coordinate":{"lat":52.7844429016113,"lng":4.80527782440186},"countryCode":"NL","name":"Schagen","stationCode":"SGN","uicCode":"8400549"}],"direction":"ONE_WAY"},"description":"rijden bussen","level":"LESS_TRAINS"},"sectionType":"NL"},{"section":{"stations":[{"coordinate":{"lat":52.6377792358398,"lng":4.73972225189209},"countryCode":"NL","name":"Alkmaar","stationCode":"AMR","uicCode":"8400050"},{"coordinate":{"lat":52.6438903808594,"lng":4.76416683197022},"countryCode":"NL","name":"Alkmaar Noord","stationCode":"AMRN","uicCode":"8400052"},{"coordinate":{"lat":52.6697235107422,"lng":4.82277774810791},"countryCode":"NL","name":"Heerhugowaard","stationCode":"HWD","uicCode":"8400306"},{"coordinate":{"lat":52.6780548095703,"lng":4.90722227096558},"countryCode":"NL","name":"Obdam","stationCode":"OBD","uicCode":"8400480"},{"coordinate":{"lat":52.6447219848633,"lng":5.05555534362793},"countryCode":"NL","name":"Hoorn","stationCode":"HN","uicCode":"8400337"}],"direction":"BOTH"},"consequence":{"section":{"stations":[{"coordinate":{"lat":52.6377792358398,"lng":4.73972225189209},"countryCode":"NL","name":"Alkmaar","stationCode":"AMR","uicCode":"8400050"},{"coordinate":{"lat":52.6438903808594,"lng":4.76416683197022},"countryCode":"NL","name":"Alkmaar Noord","stationCode":"AMRN","uicCode":"8400052"},{"coordinate":{"lat":52.6697235107422,"lng":4.82277774810791},"countryCode":"NL","name":"Heerhugowaard","stationCode":"HWD","uicCode":"8400306"},{"coordinate":{"lat":52.6780548095703,"lng":4.90722227096558},"countryCode":"NL","name":"Obdam","stationCode":"OBD","uicCode":"8400480"},{"coordinate":{"lat":52.6447219848633,"lng":5.05555534362793},"countryCode":"NL","name":"Hoorn","stationCode":"HN","uicCode":"8400337"}],"direction":"ONE_WAY"},"description":"rijden bussen","level":"LESS_TRAINS"},"sectionType":"NL"}],"timespans":[{"start":"2023-12-09T01:50:00+0100","end":"2023-12-18T02:00:00+0100","period":"Zaterdag 09-12-2023 01:50 uur t/m maandag 18-12-2023 02:00 uur.","situation":{"label":"Door werkzaamheden: tussen Alkmaar en Schagen rijden er bussen en tussen Alkmaar en Hoorn rijden er bussen."},"cause":{"label":"werkzaamheden"},"additionalTravelTime":{"label":"De extra reistijd is ongeveer 30 minuten.","shortLabel":"extra reistijd 30 min.","minimumDurationInMinutes":30,"maximumDurationInMinutes":30},"alternativeTransport":{"label":"er rijden stop- en snelbussen","shortLabel":"er rijden stop- en snelbussen"},"advices":["tussen Alkmaar en Hoorn reist u via Zaandam"]}],"alternativeTransportTimespans":[{"start":"2023-12-09T04:00:00+0100","end":"2023-12-18T02:00:00+0100","alternativeTransport":{"location":[{"station":{"coordinate":{"lat":52.6377792358398,"lng":4.73972225189209},"countryCode":"NL","name":"Alkmaar","stationCode":"AMR","uicCode":"8400050"},"description":"vanaf de achterzijde van het station"},{"station":{"coordinate":{"lat":52.6697235107422,"lng":4.82277774810791},"countryCode":"NL","name":"Heerhugowaard","stationCode":"HWD","uicCode":"8400306"},"description":"vanaf het busstation"},{"station":{"coordinate":{"lat":52.7844429016113,"lng":4.80527782440186},"countryCode":"NL","name":"Schagen","stationCode":"SGN","uicCode":"8400549"},"description":"vanaf het Stationsplein"}],"label":"Er rijden snelbussen tussen Alkmaar, Heerhugowaard en Schagen.","shortLabel":"er rijden snelbussen Alkmaar - Heerhugowaard - Schagen"}},{"start":"2023-12-09T04:00:00+0100","end":"2023-12-18T02:00:00+0100","alternativeTransport":{"location":[{"station":{"coordinate":{"lat":52.6377792358398,"lng":4.73972225189209},"countryCode":"NL","name":"Alkmaar","stationCode":"AMR","uicCode":"8400050"},"description":"vanaf de achterzijde van het station"},{"station":{"coordinate":{"lat":52.6438903808594,"lng":4.76416683197022},"countryCode":"NL","name":"Alkmaar Noord","stationCode":"AMRN","uicCode":"8400052"},"description":"vanaf het busstation"},{"station":{"coordinate":{"lat":52.6697235107422,"lng":4.82277774810791},"countryCode":"NL","name":"Heerhugowaard","stationCode":"HWD","uicCode":"8400306"},"description":"vanaf het busstation"},{"station":{"coordinate":{"lat":52.6780548095703,"lng":4.90722227096558},"countryCode":"NL","name":"Obdam","stationCode":"OBD","uicCode":"8400480"},"description":"vanaf de voorzijde van het station"},{"station":{"coordinate":{"lat":52.6447219848633,"lng":5.05555534362793},"countryCode":"NL","name":"Hoorn","stationCode":"HN","uicCode":"8400337"},"description":"vanaf de voorzijde van het station"}],"label":"Er rijden stopbussen tussen Alkmaar, Alkmaar Noord, Heerhugowaard, Obdam en Hoorn.","shortLabel":"er rijden stopbussen Alkmaar - Alkmaar Noord - Heerhugowaard - Obdam - Hoorn"}}],"summaryAdditionalTravelTime":{"label":"De extra reistijd is ongeveer 30 minuten.","shortLabel":"extra reistijd 30 min.","minimumDurationInMinutes":30,"maximumDurationInMinutes":30}},{"id":"7004223","isActive":false,"title":"Gouda - Den Haag.","type":"MAINTENANCE","registrationTime":"2023-11-19T13:39:11+0100","releaseTime":"2023-11-19T13:39:11+0100","local":false,"titleSections":[[{"type":"STATION","value":"Gouda"},{"type":"STATION","value":"Voorburg"},{"type":"ICON","value":"MAINTENANCE"},{"type":"STATION","value":"Den Haag C."}]],"start":"2023-12-09T04:00:00+0100","end":"2023-12-10T02:00:00+0100","period":"Zaterdag 09-12-2023 04:00 uur t/m zondag 10-12-2023 02:00 uur.","impact":{"value":3},"publicationSections":[{"section":{"stations":[{"coordinate":{"lat":52.0175018310547,"lng":4.70444440841675},"countryCode":"NL","name":"Gouda","stationCode":"GD","uicCode":"8400258"},{"coordinate":{"lat":52.042222,"lng":4.517222},"countryCode":"NL","name":"Lansingerland-Zoetermeer","stationCode":"LLZM","uicCode":"8400135"},{"coordinate":{"lat":52.0463905334473,"lng":4.49277782440186},"countryCode":"NL","name":"Zoetermeer Oost","stationCode":"ZTMO","uicCode":"8400740"},{"coordinate":{"lat":52.0475006103516,"lng":4.47722244262695},"countryCode":"NL","name":"Zoetermeer","stationCode":"ZTM","uicCode":"8400741"},{"coordinate":{"lat":52.0552787780762,"lng":4.39222240447998},"countryCode":"NL","name":"Den Haag Ypenburg","stationCode":"YPB","uicCode":"8400379"},{"coordinate":{"lat":52.0666656494141,"lng":4.3594446182251},"countryCode":"NL","name":"Voorburg","stationCode":"VB","uicCode":"8400658"},{"coordinate":{"lat":52.0802764892578,"lng":4.32499980926514},"countryCode":"NL","name":"Den Haag Centraal","stationCode":"GVC","uicCode":"8400282"}],"direction":"BOTH"},"consequence":{"section":{"stations":[{"coordinate":{"lat":52.0666656494141,"lng":4.3594446182251},"countryCode":"NL","name":"Voorburg","stationCode":"VB","uicCode":"8400658"},{"coordinate":{"lat":52.0802764892578,"lng":4.32499980926514},"countryCode":"NL","name":"Den Haag Centraal","stationCode":"GVC","uicCode":"8400282"}],"direction":"ONE_WAY"},"description":"rijden bussen","level":"LESS_TRAINS"},"sectionType":"NL"}],"timespans":[{"start":"2023-12-09T04:00:00+0100","end":"2023-12-10T02:00:00+0100","period":"Zaterdag 09-12-2023 04:00 uur t/m zondag 10-12-2023 02:00 uur.","situation":{"label":"Door werkzaamheden: tussen Voorburg en Den Haag Centraal rijden er bussen."},"cause":{"label":"werkzaamheden"},"additionalTravelTime":{"label":"De extra reistijd is ongeveer 15 minuten.","shortLabel":"extra reistijd 15 min.","minimumDurationInMinutes":15,"maximumDurationInMinutes":15},"advices":["Sprinters blijven rijden in een aangepaste dienstregeling en stoppen niet in Voorburg.","tussen Gouda en Den Haag C. reist u via Rotterdam C.","tussen Voorburg en Gouda reist u via Den Haag C."]}],"alternativeTransportTimespans":[],"summaryAdditionalTravelTime":{"label":"De extra reistijd is ongeveer 15 minuten.","shortLabel":"extra reistijd 15 min.","minimumDurationInMinutes":15,"maximumDurationInMinutes":15}},{"id":"7004189","isActive":false,"title":"Amsterdam - Brussel - London (HSL).","type":"MAINTENANCE","registrationTime":"2023-11-20T20:33:21+0100","releaseTime":"2023-11-20T20:33:21+0100","local":false,"titleSections":[[{"type":"STATION","value":"Amsterdam C."},{"type":"ICON","value":"MAINTENANCE"},{"type":"STATION","value":"London St. P Int"}]],"start":"2023-12-09T06:00:00+0100","end":"2023-12-09T19:30:00+0100","period":"Zaterdag 09-12-2023 06:00 uur t/m zaterdag 09-12-2023 19:30 uur.","impact":{"value":2},"publicationSections":[{"section":{"stations":[{"coordinate":{"lat":52.3788871765137,"lng":4.90027761459351},"countryCode":"NL","name":"Amsterdam Centraal","stationCode":"ASD","uicCode":"8400058"},{"coordinate":{"lat":52.3888893127441,"lng":4.83777761459351},"countryCode":"NL","name":"Amsterdam Sloterdijk","stationCode":"ASS","uicCode":"8400059"},{"coordinate":{"lat":52.3577766418457,"lng":4.83388900756836},"countryCode":"NL","name":"Amsterdam Lelylaan","stationCode":"ASDL","uicCode":"8400079"},{"coordinate":{"lat":52.3094444274902,"lng":4.76194429397583},"countryCode":"NL","name":"Schiphol Airport","stationCode":"SHL","uicCode":"8400561"},{"coordinate":{"lat":52.2933349609375,"lng":4.70055532455444},"countryCode":"NL","name":"Hoofddorp","stationCode":"HFD","uicCode":"8400332"},{"coordinate":{"lat":51.9249992370605,"lng":4.46888875961304},"countryCode":"NL","name":"Rotterdam Centraal","stationCode":"RTD","uicCode":"8400530"},{"coordinate":{"lat":51.9202766418457,"lng":4.48888874053955},"countryCode":"NL","name":"Rotterdam Blaak","stationCode":"RTB","uicCode":"8400529"},{"coordinate":{"lat":51.9044456481934,"lng":4.51027774810791},"countryCode":"NL","name":"Rotterdam Zuid","stationCode":"RTZ","uicCode":"8400533"},{"coordinate":{"lat":51.8800010681152,"lng":4.53138875961304},"countryCode":"NL","name":"Rotterdam Lombardijen","stationCode":"RLB","uicCode":"8400542"},{"coordinate":{"lat":51.606388092041,"lng":4.72083330154419},"countryCode":"NL","name":"Breda-Prinsenbeek","stationCode":"BDPB","uicCode":"8400132"},{"coordinate":{"lat":51.5955543518066,"lng":4.78000020980835},"countryCode":"NL","name":"Breda","stationCode":"BD","uicCode":"8400131"},{"coordinate":{"lat":51.358088,"lng":4.633977},"countryCode":"B","name":"Noorderkempen","stationCode":"NDKP","uicCode":"8821105"},{"coordinate":{"lat":51.2449375,"lng":4.4251543},"countryCode":"B","name":"Antwerpen-Luchtbal","stationCode":"ATWLB","uicCode":"8821063"},{"coordinate":{"lat":51.21686,"lng":4.421242},"countryCode":"B","name":"Antwerpen-Centraal","stationCode":"ATW","uicCode":"8821006"},{"coordinate":{"lat":51.198914,"lng":4.4332},"countryCode":"B","name":"Antwerpen-Berchem","stationCode":"BERCH","uicCode":"8821121"},{"coordinate":{"lat":51.01758,"lng":4.48313},"countryCode":"B","name":"Mechelen","stationCode":"MECH","uicCode":"8822004"},{"coordinate":{"lat":50.859658,"lng":4.360854},"countryCode":"B","name":"Brussel-Noord","stationCode":"BRUSN","uicCode":"8812005"},{"coordinate":{"lat":50.845175,"lng":4.357131},"countryCode":"B","name":"Brussel-Centraal","stationCode":"BRUSC","uicCode":"8813003"},{"coordinate":{"lat":50.836782,"lng":4.336922},"countryCode":"B","name":"Brussel-Zuid Midi","stationCode":"BRUSZ","uicCode":"8814001"},{"coordinate":{"lat":50.639444,"lng":3.074722},"countryCode":"F","name":"Lille Europe","stationCode":"LILLEE","uicCode":"8722326"},{"coordinate":{"lat":51.531437,"lng":-0.126136},"countryCode":"GB","name":"London St. Pancras Int.","stationCode":"STP","uicCode":"7015400"}],"direction":"ONE_WAY"},"consequence":{"section":{"stations":[{"coordinate":{"lat":52.3788871765137,"lng":4.90027761459351},"countryCode":"NL","name":"Amsterdam Centraal","stationCode":"ASD","uicCode":"8400058"},{"coordinate":{"lat":52.3888893127441,"lng":4.83777761459351},"countryCode":"NL","name":"Amsterdam Sloterdijk","stationCode":"ASS","uicCode":"8400059"},{"coordinate":{"lat":52.3577766418457,"lng":4.83388900756836},"countryCode":"NL","name":"Amsterdam Lelylaan","stationCode":"ASDL","uicCode":"8400079"},{"coordinate":{"lat":52.3094444274902,"lng":4.76194429397583},"countryCode":"NL","name":"Schiphol Airport","stationCode":"SHL","uicCode":"8400561"},{"coordinate":{"lat":52.2933349609375,"lng":4.70055532455444},"countryCode":"NL","name":"Hoofddorp","stationCode":"HFD","uicCode":"8400332"},{"coordinate":{"lat":51.9249992370605,"lng":4.46888875961304},"countryCode":"NL","name":"Rotterdam Centraal","stationCode":"RTD","uicCode":"8400530"},{"coordinate":{"lat":51.9202766418457,"lng":4.48888874053955},"countryCode":"NL","name":"Rotterdam Blaak","stationCode":"RTB","uicCode":"8400529"},{"coordinate":{"lat":51.9044456481934,"lng":4.51027774810791},"countryCode":"NL","name":"Rotterdam Zuid","stationCode":"RTZ","uicCode":"8400533"},{"coordinate":{"lat":51.8800010681152,"lng":4.53138875961304},"countryCode":"NL","name":"Rotterdam Lombardijen","stationCode":"RLB","uicCode":"8400542"},{"coordinate":{"lat":51.606388092041,"lng":4.72083330154419},"countryCode":"NL","name":"Breda-Prinsenbeek","stationCode":"BDPB","uicCode":"8400132"},{"coordinate":{"lat":51.5955543518066,"lng":4.78000020980835},"countryCode":"NL","name":"Breda","stationCode":"BD","uicCode":"8400131"},{"coordinate":{"lat":51.358088,"lng":4.633977},"countryCode":"B","name":"Noorderkempen","stationCode":"NDKP","uicCode":"8821105"},{"coordinate":{"lat":51.2449375,"lng":4.4251543},"countryCode":"B","name":"Antwerpen-Luchtbal","stationCode":"ATWLB","uicCode":"8821063"},{"coordinate":{"lat":51.21686,"lng":4.421242},"countryCode":"B","name":"Antwerpen-Centraal","stationCode":"ATW","uicCode":"8821006"},{"coordinate":{"lat":51.198914,"lng":4.4332},"countryCode":"B","name":"Antwerpen-Berchem","stationCode":"BERCH","uicCode":"8821121"},{"coordinate":{"lat":51.01758,"lng":4.48313},"countryCode":"B","name":"Mechelen","stationCode":"MECH","uicCode":"8822004"},{"coordinate":{"lat":50.859658,"lng":4.360854},"countryCode":"B","name":"Brussel-Noord","stationCode":"BRUSN","uicCode":"8812005"},{"coordinate":{"lat":50.845175,"lng":4.357131},"countryCode":"B","name":"Brussel-Centraal","stationCode":"BRUSC","uicCode":"8813003"},{"coordinate":{"lat":50.836782,"lng":4.336922},"countryCode":"B","name":"Brussel-Zuid Midi","stationCode":"BRUSZ","uicCode":"8814001"},{"coordinate":{"lat":50.639444,"lng":3.074722},"countryCode":"F","name":"Lille Europe","stationCode":"LILLEE","uicCode":"8722326"},{"coordinate":{"lat":51.531437,"lng":-0.126136},"countryCode":"GB","name":"London St. Pancras Int.","stationCode":"STP","uicCode":"7015400"}],"direction":"ONE_WAY"},"description":"aangepaste internationale dienstregeling","level":"LESS_TRAINS"},"sectionType":"HSL"}],"timespans":[{"start":"2023-12-09T06:00:00+0100","end":"2023-12-09T19:30:00+0100","period":"Zaterdag 09-12-2023 06:00 uur t/m zaterdag 09-12-2023 19:30 uur.","situation":{"label":"Door werkzaamheden: van Amsterdam Centraal naar London St. Pancras Int. is de internationale dienstregeling aangepast."},"cause":{"label":"werkzaamheden"},"additionalTravelTime":{"label":"U heeft geen langere reistijd.","shortLabel":"Geen extra reistijd"},"advices":["Wijzigingen en eerder vertrek Eurostar naar London."]}],"alternativeTransportTimespans":[],"summaryAdditionalTravelTime":{"label":"U heeft geen langere reistijd.","shortLabel":"Geen extra reistijd"}},{"id":"7004184","isActive":false,"title":"Amsterdam - Brussel - Paris (HSL).","type":"MAINTENANCE","registrationTime":"2023-11-06T14:00:59+0100","releaseTime":"2023-11-06T14:00:59+0100","local":false,"titleSections":[[{"type":"STATION","value":"Amsterdam C."},{"type":"ICON","value":"MAINTENANCE"},{"type":"STATION","value":"Paris-Nord"}]],"start":"2023-12-09T06:00:00+0100","end":"2023-12-10T23:59:00+0100","period":"Zaterdag 09-12-2023 06:00 uur t/m zondag 10-12-2023 23:59 uur.","impact":{"value":2},"publicationSections":[{"section":{"stations":[{"coordinate":{"lat":52.3788871765137,"lng":4.90027761459351},"countryCode":"NL","name":"Amsterdam Centraal","stationCode":"ASD","uicCode":"8400058"},{"coordinate":{"lat":52.3888893127441,"lng":4.83777761459351},"countryCode":"NL","name":"Amsterdam Sloterdijk","stationCode":"ASS","uicCode":"8400059"},{"coordinate":{"lat":52.3577766418457,"lng":4.83388900756836},"countryCode":"NL","name":"Amsterdam Lelylaan","stationCode":"ASDL","uicCode":"8400079"},{"coordinate":{"lat":52.3094444274902,"lng":4.76194429397583},"countryCode":"NL","name":"Schiphol Airport","stationCode":"SHL","uicCode":"8400561"},{"coordinate":{"lat":52.2933349609375,"lng":4.70055532455444},"countryCode":"NL","name":"Hoofddorp","stationCode":"HFD","uicCode":"8400332"},{"coordinate":{"lat":51.9249992370605,"lng":4.46888875961304},"countryCode":"NL","name":"Rotterdam Centraal","stationCode":"RTD","uicCode":"8400530"},{"coordinate":{"lat":51.9202766418457,"lng":4.48888874053955},"countryCode":"NL","name":"Rotterdam Blaak","stationCode":"RTB","uicCode":"8400529"},{"coordinate":{"lat":51.9044456481934,"lng":4.51027774810791},"countryCode":"NL","name":"Rotterdam Zuid","stationCode":"RTZ","uicCode":"8400533"},{"coordinate":{"lat":51.8800010681152,"lng":4.53138875961304},"countryCode":"NL","name":"Rotterdam Lombardijen","stationCode":"RLB","uicCode":"8400542"},{"coordinate":{"lat":51.358088,"lng":4.633977},"countryCode":"B","name":"Noorderkempen","stationCode":"NDKP","uicCode":"8821105"},{"coordinate":{"lat":51.2449375,"lng":4.4251543},"countryCode":"B","name":"Antwerpen-Luchtbal","stationCode":"ATWLB","uicCode":"8821063"},{"coordinate":{"lat":51.21686,"lng":4.421242},"countryCode":"B","name":"Antwerpen-Centraal","stationCode":"ATW","uicCode":"8821006"},{"coordinate":{"lat":51.198914,"lng":4.4332},"countryCode":"B","name":"Antwerpen-Berchem","stationCode":"BERCH","uicCode":"8821121"},{"coordinate":{"lat":51.01758,"lng":4.48313},"countryCode":"B","name":"Mechelen","stationCode":"MECH","uicCode":"8822004"},{"coordinate":{"lat":50.859658,"lng":4.360854},"countryCode":"B","name":"Brussel-Noord","stationCode":"BRUSN","uicCode":"8812005"},{"coordinate":{"lat":50.845175,"lng":4.357131},"countryCode":"B","name":"Brussel-Centraal","stationCode":"BRUSC","uicCode":"8813003"},{"coordinate":{"lat":50.836782,"lng":4.336922},"countryCode":"B","name":"Brussel-Zuid Midi","stationCode":"BRUSZ","uicCode":"8814001"},{"coordinate":{"lat":48.87977,"lng":2.35575},"countryCode":"F","name":"Paris-Nord","stationCode":"PARIS","uicCode":"8727100"}],"direction":"BOTH"},"consequence":{"section":{"stations":[{"coordinate":{"lat":52.3788871765137,"lng":4.90027761459351},"countryCode":"NL","name":"Amsterdam Centraal","stationCode":"ASD","uicCode":"8400058"},{"coordinate":{"lat":52.3888893127441,"lng":4.83777761459351},"countryCode":"NL","name":"Amsterdam Sloterdijk","stationCode":"ASS","uicCode":"8400059"},{"coordinate":{"lat":52.3577766418457,"lng":4.83388900756836},"countryCode":"NL","name":"Amsterdam Lelylaan","stationCode":"ASDL","uicCode":"8400079"},{"coordinate":{"lat":52.3094444274902,"lng":4.76194429397583},"countryCode":"NL","name":"Schiphol Airport","stationCode":"SHL","uicCode":"8400561"},{"coordinate":{"lat":52.2933349609375,"lng":4.70055532455444},"countryCode":"NL","name":"Hoofddorp","stationCode":"HFD","uicCode":"8400332"},{"coordinate":{"lat":51.9249992370605,"lng":4.46888875961304},"countryCode":"NL","name":"Rotterdam Centraal","stationCode":"RTD","uicCode":"8400530"},{"coordinate":{"lat":51.9202766418457,"lng":4.48888874053955},"countryCode":"NL","name":"Rotterdam Blaak","stationCode":"RTB","uicCode":"8400529"},{"coordinate":{"lat":51.9044456481934,"lng":4.51027774810791},"countryCode":"NL","name":"Rotterdam Zuid","stationCode":"RTZ","uicCode":"8400533"},{"coordinate":{"lat":51.8800010681152,"lng":4.53138875961304},"countryCode":"NL","name":"Rotterdam Lombardijen","stationCode":"RLB","uicCode":"8400542"},{"coordinate":{"lat":51.358088,"lng":4.633977},"countryCode":"B","name":"Noorderkempen","stationCode":"NDKP","uicCode":"8821105"},{"coordinate":{"lat":51.2449375,"lng":4.4251543},"countryCode":"B","name":"Antwerpen-Luchtbal","stationCode":"ATWLB","uicCode":"8821063"},{"coordinate":{"lat":51.21686,"lng":4.421242},"countryCode":"B","name":"Antwerpen-Centraal","stationCode":"ATW","uicCode":"8821006"},{"coordinate":{"lat":51.198914,"lng":4.4332},"countryCode":"B","name":"Antwerpen-Berchem","stationCode":"BERCH","uicCode":"8821121"},{"coordinate":{"lat":51.01758,"lng":4.48313},"countryCode":"B","name":"Mechelen","stationCode":"MECH","uicCode":"8822004"},{"coordinate":{"lat":50.859658,"lng":4.360854},"countryCode":"B","name":"Brussel-Noord","stationCode":"BRUSN","uicCode":"8812005"},{"coordinate":{"lat":50.845175,"lng":4.357131},"countryCode":"B","name":"Brussel-Centraal","stationCode":"BRUSC","uicCode":"8813003"},{"coordinate":{"lat":50.836782,"lng":4.336922},"countryCode":"B","name":"Brussel-Zuid Midi","stationCode":"BRUSZ","uicCode":"8814001"},{"coordinate":{"lat":48.87977,"lng":2.35575},"countryCode":"F","name":"Paris-Nord","stationCode":"PARIS","uicCode":"8727100"}],"direction":"ONE_WAY"},"description":"aangepaste internationale dienstregeling","level":"LESS_TRAINS"},"sectionType":"HSL"}],"timespans":[{"start":"2023-12-09T06:00:00+0100","end":"2023-12-10T23:59:00+0100","period":"Zaterdag 09-12-2023 06:00 uur t/m zondag 10-12-2023 23:59 uur.","situation":{"label":"Door werkzaamheden: tussen Amsterdam Centraal en Paris-Nord is de internationale dienstregeling aangepast."},"cause":{"label":"werkzaamheden"},"additionalTravelTime":{"label":"U heeft geen langere reistijd.","shortLabel":"Geen extra reistijd"},"advices":["Eurostar naar Paris Nord vertrekken eerder uit Amsterdam C en stoppen niet in Schiphol Airport."]}],"alternativeTransportTimespans":[],"summaryAdditionalTravelTime":{"label":"U heeft geen langere reistijd.","shortLabel":"Geen extra reistijd"}},{"id":"7004238","isActive":false,"title":"Amsterdam - Rotterdam - Brussel (HSL).","type":"MAINTENANCE","registrationTime":"2023-11-28T10:29:20+0100","releaseTime":"2023-11-28T10:29:20+0100","local":false,"titleSections":[[{"type":"STATION","value":"Amsterdam C."},{"type":"ICON","value":"MAINTENANCE"},{"type":"STATION","value":"Rotterdam C."},{"type":"STATION","value":"Brussel-Z. Midi"}]],"start":"2023-12-09T06:00:00+0100","end":"2023-12-10T23:59:00+0100","period":"Zaterdag 09-12-2023 06:00 uur t/m zondag 10-12-2023 23:59 uur.","impact":{"value":2},"publicationSections":[{"section":{"stations":[{"coordinate":{"lat":52.3788871765137,"lng":4.90027761459351},"countryCode":"NL","name":"Amsterdam Centraal","stationCode":"ASD","uicCode":"8400058"},{"coordinate":{"lat":52.3888893127441,"lng":4.83777761459351},"countryCode":"NL","name":"Amsterdam Sloterdijk","stationCode":"ASS","uicCode":"8400059"},{"coordinate":{"lat":52.3577766418457,"lng":4.83388900756836},"countryCode":"NL","name":"Amsterdam Lelylaan","stationCode":"ASDL","uicCode":"8400079"},{"coordinate":{"lat":52.3094444274902,"lng":4.76194429397583},"countryCode":"NL","name":"Schiphol Airport","stationCode":"SHL","uicCode":"8400561"},{"coordinate":{"lat":52.2933349609375,"lng":4.70055532455444},"countryCode":"NL","name":"Hoofddorp","stationCode":"HFD","uicCode":"8400332"},{"coordinate":{"lat":51.9249992370605,"lng":4.46888875961304},"countryCode":"NL","name":"Rotterdam Centraal","stationCode":"RTD","uicCode":"8400530"},{"coordinate":{"lat":51.9202766418457,"lng":4.48888874053955},"countryCode":"NL","name":"Rotterdam Blaak","stationCode":"RTB","uicCode":"8400529"},{"coordinate":{"lat":51.9044456481934,"lng":4.51027774810791},"countryCode":"NL","name":"Rotterdam Zuid","stationCode":"RTZ","uicCode":"8400533"},{"coordinate":{"lat":51.8800010681152,"lng":4.53138875961304},"countryCode":"NL","name":"Rotterdam Lombardijen","stationCode":"RLB","uicCode":"8400542"},{"coordinate":{"lat":51.606388092041,"lng":4.72083330154419},"countryCode":"NL","name":"Breda-Prinsenbeek","stationCode":"BDPB","uicCode":"8400132"},{"coordinate":{"lat":51.5955543518066,"lng":4.78000020980835},"countryCode":"NL","name":"Breda","stationCode":"BD","uicCode":"8400131"},{"coordinate":{"lat":51.358088,"lng":4.633977},"countryCode":"B","name":"Noorderkempen","stationCode":"NDKP","uicCode":"8821105"},{"coordinate":{"lat":51.2449375,"lng":4.4251543},"countryCode":"B","name":"Antwerpen-Luchtbal","stationCode":"ATWLB","uicCode":"8821063"},{"coordinate":{"lat":51.21686,"lng":4.421242},"countryCode":"B","name":"Antwerpen-Centraal","stationCode":"ATW","uicCode":"8821006"},{"coordinate":{"lat":51.198914,"lng":4.4332},"countryCode":"B","name":"Antwerpen-Berchem","stationCode":"BERCH","uicCode":"8821121"},{"coordinate":{"lat":51.01758,"lng":4.48313},"countryCode":"B","name":"Mechelen","stationCode":"MECH","uicCode":"8822004"},{"coordinate":{"lat":50.859658,"lng":4.360854},"countryCode":"B","name":"Brussel-Noord","stationCode":"BRUSN","uicCode":"8812005"},{"coordinate":{"lat":50.845175,"lng":4.357131},"countryCode":"B","name":"Brussel-Centraal","stationCode":"BRUSC","uicCode":"8813003"},{"coordinate":{"lat":50.836782,"lng":4.336922},"countryCode":"B","name":"Brussel-Zuid Midi","stationCode":"BRUSZ","uicCode":"8814001"}],"direction":"BOTH"},"consequence":{"section":{"stations":[{"coordinate":{"lat":52.3788871765137,"lng":4.90027761459351},"countryCode":"NL","name":"Amsterdam Centraal","stationCode":"ASD","uicCode":"8400058"},{"coordinate":{"lat":52.3888893127441,"lng":4.83777761459351},"countryCode":"NL","name":"Amsterdam Sloterdijk","stationCode":"ASS","uicCode":"8400059"},{"coordinate":{"lat":52.3577766418457,"lng":4.83388900756836},"countryCode":"NL","name":"Amsterdam Lelylaan","stationCode":"ASDL","uicCode":"8400079"},{"coordinate":{"lat":52.3094444274902,"lng":4.76194429397583},"countryCode":"NL","name":"Schiphol Airport","stationCode":"SHL","uicCode":"8400561"},{"coordinate":{"lat":52.2933349609375,"lng":4.70055532455444},"countryCode":"NL","name":"Hoofddorp","stationCode":"HFD","uicCode":"8400332"},{"coordinate":{"lat":51.9249992370605,"lng":4.46888875961304},"countryCode":"NL","name":"Rotterdam Centraal","stationCode":"RTD","uicCode":"8400530"}],"direction":"ONE_WAY"},"description":"aangepaste internationale dienstregeling","level":"LESS_TRAINS"},"sectionType":"HSL"}],"timespans":[{"start":"2023-12-09T06:00:00+0100","end":"2023-12-10T23:59:00+0100","period":"Zaterdag 09-12-2023 06:00 uur t/m zondag 10-12-2023 23:59 uur.","situation":{"label":"Door werkzaamheden: tussen Amsterdam Centraal en Rotterdam Centraal is de internationale dienstregeling aangepast."},"cause":{"label":"werkzaamheden"},"additionalTravelTime":{"label":"U heeft geen langere reistijd.","shortLabel":"Geen extra reistijd"},"advices":["IC Brussel stopt niet in Schiphol Airport."]}],"alternativeTransportTimespans":[],"summaryAdditionalTravelTime":{"label":"U heeft geen langere reistijd.","shortLabel":"Geen extra reistijd"}},{"id":"7004177","isActive":false,"title":"Nijmegen - Venlo.","type":"MAINTENANCE","registrationTime":"2023-11-10T10:15:03+0100","releaseTime":"2023-11-10T10:15:03+0100","local":false,"titleSections":[[{"type":"STATION","value":"Nijmegen"},{"type":"STATION","value":"Venray"},{"type":"ICON","value":"MAINTENANCE"},{"type":"STATION","value":"Venlo"}]],"start":"2023-12-09T23:00:00+0100","end":"2023-12-10T02:00:00+0100","period":"Zaterdag 09-12-2023 23:00 uur t/m zondag 10-12-2023 02:00 uur.","impact":{"value":3},"publicationSections":[{"section":{"stations":[{"coordinate":{"lat":51.8436126708984,"lng":5.85222244262695},"countryCode":"NL","name":"Nijmegen","stationCode":"NM","uicCode":"8400470"},{"coordinate":{"lat":51.8269462585449,"lng":5.86749982833862},"countryCode":"NL","name":"Nijmegen Heyendaal","stationCode":"NMH","uicCode":"8400468"},{"coordinate":{"lat":51.766262,"lng":5.879133},"countryCode":"NL","name":"Mook-Molenhoek","stationCode":"MMLH","uicCode":"8400446"},{"coordinate":{"lat":51.7266825879048,"lng":5.87429523468017},"countryCode":"NL","name":"Cuijk","stationCode":"CK","uicCode":"8400155"},{"coordinate":{"lat":51.6445217676531,"lng":5.93903303146362},"countryCode":"NL","name":"Boxmeer","stationCode":"BMR","uicCode":"8400128"},{"coordinate":{"lat":51.59193,"lng":5.99714},"countryCode":"NL","name":"Vierlingsbeek","stationCode":"VLB","uicCode":"8400647"},{"coordinate":{"lat":51.526568099007,"lng":6.01417779922485},"countryCode":"NL","name":"Venray","stationCode":"VRY","uicCode":"8400646"},{"coordinate":{"lat":51.372501373291,"lng":6.15500020980835},"countryCode":"NL","name":"Blerick","stationCode":"BR","uicCode":"8400117"},{"coordinate":{"lat":51.3636093139648,"lng":6.17277765274048},"countryCode":"NL","name":"Venlo","stationCode":"VL","uicCode":"8400644"}],"direction":"BOTH"},"consequence":{"section":{"stations":[{"coordinate":{"lat":51.526568099007,"lng":6.01417779922485},"countryCode":"NL","name":"Venray","stationCode":"VRY","uicCode":"8400646"},{"coordinate":{"lat":51.372501373291,"lng":6.15500020980835},"countryCode":"NL","name":"Blerick","stationCode":"BR","uicCode":"8400117"},{"coordinate":{"lat":51.3636093139648,"lng":6.17277765274048},"countryCode":"NL","name":"Venlo","stationCode":"VL","uicCode":"8400644"}],"direction":"ONE_WAY"},"description":"rijden bussen","level":"LESS_TRAINS"},"sectionType":"NL"}],"timespans":[{"start":"2023-12-09T23:00:00+0100","end":"2023-12-10T02:00:00+0100","period":"Zaterdag 09-12-2023 23:00 uur t/m zondag 10-12-2023 02:00 uur.","situation":{"label":"Door werkzaamheden: tussen Venray en Venlo rijden er bussen."},"cause":{"label":"werkzaamheden"},"additionalTravelTime":{"label":"De extra reistijd kan oplopen tot 30 minuten.","shortLabel":"extra reistijd tot 30 min.","maximumDurationInMinutes":30},"alternativeTransport":{"label":"er rijden stopbussen","shortLabel":"er rijden stopbussen"},"advices":[]}],"alternativeTransportTimespans":[{"start":"2023-12-09T23:00:00+0100","end":"2023-12-10T02:00:00+0100","alternativeTransport":{"location":[{"station":{"coordinate":{"lat":51.526568099007,"lng":6.01417779922485},"countryCode":"NL","name":"Venray","stationCode":"VRY","uicCode":"8400646"},"description":"vanaf de voorzijde van het station"},{"station":{"coordinate":{"lat":51.372501373291,"lng":6.15500020980835},"countryCode":"NL","name":"Blerick","stationCode":"BR","uicCode":"8400117"},"description":"vanaf de bushalte, centrumzijde"},{"station":{"coordinate":{"lat":51.3636093139648,"lng":6.17277765274048},"countryCode":"NL","name":"Venlo","stationCode":"VL","uicCode":"8400644"},"description":"vanaf het busstation"}],"label":"Er rijden stopbussen tussen Venray, Blerick en Venlo.","shortLabel":"er rijden stopbussen Venray - Blerick - Venlo"}}],"summaryAdditionalTravelTime":{"label":"De extra reistijd kan oplopen tot 30 minuten.","shortLabel":"extra reistijd tot 30 min.","maximumDurationInMinutes":30}},{"id":"7004178","isActive":false,"title":"Nijmegen - Venlo.","type":"MAINTENANCE","registrationTime":"2023-11-10T10:15:18+0100","releaseTime":"2023-11-10T10:15:18+0100","local":false,"titleSections":[[{"type":"STATION","value":"Nijmegen"},{"type":"STATION","value":"Cuijk"},{"type":"ICON","value":"MAINTENANCE"},{"type":"STATION","value":"Venlo"}]],"start":"2023-12-10T04:00:00+0100","end":"2023-12-11T02:00:00+0100","period":"Zondag 10-12-2023 04:00 uur t/m maandag 11-12-2023 02:00 uur.","impact":{"value":3},"publicationSections":[{"section":{"stations":[{"coordinate":{"lat":51.8436126708984,"lng":5.85222244262695},"countryCode":"NL","name":"Nijmegen","stationCode":"NM","uicCode":"8400470"},{"coordinate":{"lat":51.8269462585449,"lng":5.86749982833862},"countryCode":"NL","name":"Nijmegen Heyendaal","stationCode":"NMH","uicCode":"8400468"},{"coordinate":{"lat":51.766262,"lng":5.879133},"countryCode":"NL","name":"Mook-Molenhoek","stationCode":"MMLH","uicCode":"8400446"},{"coordinate":{"lat":51.7266825879048,"lng":5.87429523468017},