[{"type":"DISRUPTION","id":"6061203","title":"Leiden - Den Haag.","isActive":true,"topic":"disruption_6061203_nl","local":false,"titleSections":[[{"type":"STATION","value":"Leiden C."},{"type":"ICON","value":"DISRUPTION"},{"type":"STATION","value":"Den Haag C."}]],"registrationTime":"2025-12-15T18:57:54+0100","releaseTime":"2025-12-15T18:57:54+0100","start":"2025-12-15T18:03:11+0100","end":"2025-12-15T19:45:00+0100","phase":{"id":"2","label":"Impact bekend"},"impact":{"value":2},"expectedDuration":{"description":"Dit duurt tot ongeveer 19:45 uur.","endTime":"2025-12-15T19:45:00+0100"},"publicationSections":[{"section":{"stations":[{"coordinate":{"lat":52.1661109924316,"lng":4.48166656494141},"countryCode":"NL","name":"Leiden Centraal","stationCode":"LEDN","uicCode":"8400390"},{"coordinate":{"lat":52.1472206115723,"lng":4.4563889503479},"countryCode":"NL","name":"De Vink","stationCode":"DVNK","uicCode":"8400188"},{"coordinate":{"lat":52.1252784729004,"lng":4.43249988555908},"countryCode":"NL","name":"Voorschoten","stationCode":"VST","uicCode":"8400659"},{"coordinate":{"lat":52.0905570983887,"lng":4.36944437026978},"countryCode":"NL","name":"Den Haag Mariahoeve","stationCode":"GVM","uicCode":"8400278"},{"coordinate":{"lat":52.0786094665527,"lng":4.34277772903442},"countryCode":"NL","name":"Den Haag Laan v NOI","stationCode":"LAA","uicCode":"8400380"},{"coordinate":{"lat":52.0802764892578,"lng":4.32499980926514},"countryCode":"NL","name":"Den Haag Centraal","stationCode":"GVC","uicCode":"8400282"}],"direction":"BOTH","operators":["NS"]},"consequence":{"section":{"stations":[{"coordinate":{"lat":52.1661109924316,"lng":4.48166656494141},"countryCode":"NL","name":"Leiden Centraal","stationCode":"LEDN","uicCode":"8400390"},{"coordinate":{"lat":52.1472206115723,"lng":4.4563889503479},"countryCode":"NL","name":"De Vink","stationCode":"DVNK","uicCode":"8400188"},{"coordinate":{"lat":52.1252784729004,"lng":4.43249988555908},"countryCode":"NL","name":"Voorschoten","stationCode":"VST","uicCode":"8400659"},{"coordinate":{"lat":52.0905570983887,"lng":4.36944437026978},"countryCode":"NL","name":"Den Haag Mariahoeve","stationCode":"GVM","uicCode":"8400278"},{"coordinate":{"lat":52.0786094665527,"lng":4.34277772903442},"countryCode":"NL","name":"Den Haag Laan v NOI","stationCode":"LAA","uicCode":"8400380"},{"coordinate":{"lat":52.0802764892578,"lng":4.32499980926514},"countryCode":"NL","name":"Den Haag Centraal","stationCode":"GVC","uicCode":"8400282"}],"direction":"BOTH","operators":["NS"]},"description":"minder Intercity's","level":"LESS_TRAINS"},"sectionType":"NL"}],"timespans":[{"start":"2025-12-15T18:03:11+0100","end":"2025-12-15T19:45:00+0100","period":"Maandag 15 december 18:03 uur t/m maandag 15 december 19:45 uur.","situation":{"label":"Door een persoon langs het spoor: tussen Leiden Centraal en Den Haag Centraal rijden er minder Intercity's."},"cause":{"label":"persoon langs het spoor","type":"OTHER"},"advices":[]}],"alternativeTransportTimespans":[]},{"type":"DISRUPTION","id":"6061205","title":"Haarlem - Leiden.","isActive":true,"topic":"disruption_6061205_nl","local":false,"titleSections":[[{"type":"STATION","value":"Haarlem"},{"type":"ICON","value":"DISRUPTION"},{"type":"STATION","value":"Leiden C."}]],"registrationTime":"2025-12-15T18:58:59+0100","releaseTime":"2025-12-15T18:58:59+0100","start":"2025-12-15T18:03:11+0100","end":"2025-12-15T19:45:00+0100","phase":{"id":"2","label":"Impact bekend"},"impact":{"value":3},"expectedDuration":{"description":"Dit duurt tot ongeveer 19:45 uur.","endTime":"2025-12-15T19:45:00+0100"},"publicationSections":[{"section":{"stations":[{"coordinate":{"lat":52.3877792358398,"lng":4.63833332061768},"countryCode":"NL","name":"Haarlem","stationCode":"HLM","uicCode":"8400285"},{"coordinate":{"lat":52.3591651916504,"lng":4.60666656494141},"countryCode":"NL","name":"Heemstede-Aerdenhout","stationCode":"HAD","uicCode":"8400302"},{"coordinate":{"lat":52.3025016784668,"lng":4.56555557250977},"countryCode":"NL","name":"Hillegom","stationCode":"HIL","uicCode":"8400329"},{"coordinate":{"lat":52.2244453430176,"lng":4.4844446182251},"countryCode":"NL","name":"Voorhout","stationCode":"VH","uicCode":"8400655"},{"coordinate":{"lat":52.1661109924316,"lng":4.48166656494141},"countryCode":"NL","name":"Leiden Centraal","stationCode":"LEDN","uicCode":"8400390"}],"direction":"BOTH","operators":["NS"]},"consequence":{"section":{"stations":[{"coordinate":{"lat":52.3877792358398,"lng":4.63833332061768},"countryCode":"NL","name":"Haarlem","stationCode":"HLM","uicCode":"8400285"},{"coordinate":{"lat":52.3591651916504,"lng":4.60666656494141},"countryCode":"NL","name":"Heemstede-Aerdenhout","stationCode":"HAD","uicCode":"8400302"},{"coordinate":{"lat":52.3025016784668,"lng":4.56555557250977},"countryCode":"NL","name":"Hillegom","stationCode":"HIL","uicCode":"8400329"},{"coordinate":{"lat":52.2244453430176,"lng":4.4844446182251},"countryCode":"NL","name":"Voorhout","stationCode":"VH","uicCode":"8400655"},{"coordinate":{"lat":52.1661109924316,"lng":4.48166656494141},"countryCode":"NL","name":"Leiden Centraal","stationCode":"LEDN","uicCode":"8400390"}],"direction":"BOTH","operators":["NS"]},"description":"veel minder treinen","level":"LESS_TRAINS"},"sectionType":"NL"}],"timespans":[{"start":"2025-12-15T18:03:11+0100","end":"2025-12-15T19:45:00+0100","period":"Maandag 15 december 18:03 uur t/m maandag 15 december 19:45 uur.","situation":{"label":"Door een persoon langs het spoor: tussen Haarlem en Leiden Centraal rijden er veel minder treinen."},"cause":{"label":"persoon langs het spoor","type":"OTHER"},"advices":[]}],"alternativeTransportTimespans":[]},{"type":"DISRUPTION","id":"6061204","title":"Amsterdam - Hilversum.","isActive":true,"topic":"disruption_6061204_nl","local":false,"titleSections":[[{"type":"STATION","value":"Amsterdam C."},{"type":"STATION","value":"Weesp"},{"type":"ICON","value":"DISRUPTION"},{"type":"STATION","value":"Naarden-Bussum"},{"type":"STATION","value":"Hilversum"}]],"registrationTime":"2025-12-15T19:00:31+0100","releaseTime":"2025-12-15T19:00:31+0100","start":"2025-12-15T18:33:52+0100","end":"2025-12-15T19:05:00+0100","phase":{"id":"4","label":"Storing voorbij"},"impact":{"value":2},"expectedDuration":{"description":"De treinen rijden weer normaal rond 19:05 uur.","endTime":"2025-12-15T19:05:00+0100"},"publicationSections":[{"section":{"stations":[{"coordinate":{"lat":52.3788871765137,"lng":4.90027761459351},"countryCode":"NL","name":"Amsterdam Centraal","stationCode":"ASD","uicCode":"8400058"},{"coordinate":{"lat":52.3605537414551,"lng":4.93111133575439},"countryCode":"NL","name":"Amsterdam Muiderpoort","stationCode":"ASDM","uicCode":"8400060"},{"coordinate":{"lat":52.35274,"lng":4.94855},"countryCode":"NL","name":"Amsterdam Science Park","stationCode":"ASSP","uicCode":"8400235"},{"coordinate":{"lat":52.34515,"lng":4.967566},"countryCode":"NL","name":"Diemen","stationCode":"DMN","uicCode":"8400165"},{"coordinate":{"lat":52.3127784729004,"lng":5.04305553436279},"countryCode":"NL","name":"Weesp","stationCode":"WP","uicCode":"8400685"},{"coordinate":{"lat":52.2802772521973,"lng":5.15694427490234},"countryCode":"NL","name":"Naarden-Bussum","stationCode":"NDB","uicCode":"8400452"},{"coordinate":{"lat":52.2658348083496,"lng":5.16305541992188},"countryCode":"NL","name":"Bussum Zuid","stationCode":"BSMZ","uicCode":"8400145"},{"coordinate":{"lat":52.2380561828613,"lng":5.17388868331909},"countryCode":"NL","name":"Hilversum Media Park","stationCode":"HVSM","uicCode":"8400324"},{"coordinate":{"lat":52.2258338928223,"lng":5.18194437026978},"countryCode":"NL","name":"Hilversum","stationCode":"HVS","uicCode":"8400322"}],"direction":"BOTH","operators":["NS"]},"consequence":{"section":{"stations":[{"coordinate":{"lat":52.3127784729004,"lng":5.04305553436279},"countryCode":"NL","name":"Weesp","stationCode":"WP","uicCode":"8400685"},{"coordinate":{"lat":52.2802772521973,"lng":5.15694427490234},"countryCode":"NL","name":"Naarden-Bussum","stationCode":"NDB","uicCode":"8400452"}],"direction":"BOTH","operators":["NS"]},"description":"beperkingen voorbij","level":"LESS_TRAINS"},"sectionType":"NL"}],"summaryAdditionalTravelTime":{"label":"De vertraging neemt af.","shortLabel":"Vertraging neemt af."},"timespans":[{"start":"2025-12-15T18:33:52+0100","end":"2025-12-15T19:05:00+0100","period":"Maandag 15 december 18:33 uur t/m maandag 15 december 19:05 uur.","situation":{"label":"Tussen Weesp en Naarden-Bussum zijn de beperkingen voorbij."},"cause":{"label":"gestrande trein","type":"OTHER"},"additionalTravelTime":{"label":"De vertraging neemt af.","shortLabel":"Vertraging neemt af."},"advices":[]}],"alternativeTransportTimespans":[]},{"type":"CALAMITY","id":"1bfd5a29-846f-4ba6-88cb-b334534f4207","title":"Dienstregeling 2026 op 14 december ingegaan","isActive":true,"topic":"disruption_1bfd5a29-846f-4ba6-88cb-b334534f4207_nl","description":"Op zondag 14 december is de nieuwe dienstregeling voor 2026 ingegaan. Er gaan vaker treinen rijden en er komen nieuwe rechtstreekse verbindingen. Ook gaan reizigers in de vroege ochtend en late avond erop vooruit. Check de Reisplanner om te zien of er veranderingen voor jou zijn.","url":"https://www.ns.nl/reisinformatie/calamiteiten/dienstregeling-2026-op-14-december-van-start.html","priority":"PRIO_3","lastUpdated":"2025-12-09T10:00:00+0100","bodyItems":[{"type":"TEXT","content":{"text":"<p>De&nbsp;nieuwe dienstregeling&nbsp;bevat ook de vakantiedienstregeling die we rijden in de kerstvakantie van&nbsp;2025&nbsp;en tijdens oud en nieuw. &nbsp;</p>\n\n<p>Plan je reis&nbsp;vooraf&nbsp;in de Reisplanner. Zet de optie ‘Meldingen’ aan om updates te ontvangen over je geplande reis. Klik <a href=\"https://www.ns.nl/reisinformatie/dienstregeling\">hier</a>&nbsp;voor&nbsp;uitgebreide informatie.&nbsp;&nbsp;</p>"}}],"buttons":{"position":["BOTTOM"],"items":[{"label":"Plan je reis","accessibilityLabel":"Plan je reis","url":"https://www.ns.nl/reisplanner/","type":"PLANNER"}]}},{"type":"MAINTENANCE","id":"7004492","title":"Groningen - Leer.","isActive":true,"local":false,"titleSections":[[{"type":"STATION","value":"Groningen"},{"type":"STATION","value":"Bad Nieuweschans"},{"type":"ICON","value":"MAINTENANCE"},{"type":"STATION","value":"Weener"},{"type":"STATION","value":"Leer (Ostfr.)"}]],"registrationTime":"2025-12-11T09:51:06+0100","start":"2024-02-01T04:00:00+0100","releaseTime":"2025-12-11T09:51:06+0100","end":"2026-06-30T23:58:00+0200","period":"Donderdag 1 februari 2024 4:00 uur t/m dinsdag 30 juni 2026 23:58 uur.","impact":{"value":3},"publicationSections":[{"section":{"stations":[{"coordinate":{"lat":53.2105560302734,"lng":6.56472206115723},"countryCode":"NL","name":"Groningen","stationCode":"GN","uicCode":"8400263"},{"coordinate":{"lat":53.20480027,"lng":6.5854178},"countryCode":"NL","name":"Groningen Europapark","stationCode":"GERP","uicCode":"8400238"},{"coordinate":{"lat":53.1617362,"lng":6.7220882},"countryCode":"NL","name":"Kropswolde","stationCode":"KW","uicCode":"8400369"},{"coordinate":{"lat":53.1607232,"lng":6.7402989},"countryCode":"NL","name":"Martenshoek","stationCode":"MTH","uicCode":"8400430"},{"coordinate":{"lat":53.1598181316756,"lng":6.77075386047363},"countryCode":"NL","name":"Hoogezand-Sappemeer","stationCode":"HGZ","uicCode":"8400331"},{"coordinate":{"lat":53.1596122800056,"lng":6.8679141998291},"countryCode":"NL","name":"Zuidbroek","stationCode":"ZB","uicCode":"8400742"},{"coordinate":{"lat":53.1655362,"lng":6.9777775},"countryCode":"NL","name":"Scheemda","stationCode":"SDA","uicCode":"8400551"},{"coordinate":{"lat":53.1392377,"lng":7.035101},"countryCode":"NL","name":"Winschoten","stationCode":"WS","uicCode":"8400696"},{"coordinate":{"lat":53.1844,"lng":7.19937},"countryCode":"NL","name":"Bad Nieuweschans","stationCode":"NSCH","uicCode":"8400457"},{"coordinate":{"lat":53.16311,"lng":7.3442},"countryCode":"D","name":"Weener","stationCode":"WR","uicCode":"8021239"},{"coordinate":{"lat":53.23165,"lng":7.465283},"countryCode":"D","name":"Leer (Ostfriesl)","stationCode":"LEER","uicCode":"8021091"}],"direction":"BOTH","operators":["Arriva"]},"consequence":{"section":{"stations":[{"coordinate":{"lat":53.1844,"lng":7.19937},"countryCode":"NL","name":"Bad Nieuweschans","stationCode":"NSCH","uicCode":"8400457"},{"coordinate":{"lat":53.16311,"lng":7.3442},"countryCode":"D","name":"Weener","stationCode":"WR","uicCode":"8021239"}],"direction":"BOTH","operators":["Arriva"]},"description":"er rijden bussen","level":"LESS_TRAINS"},"sectionType":"NEIGHBORING_COUNTRY"}],"summaryAdditionalTravelTime":{"label":"De extra reistijd kan oplopen tot 30 minuten.","shortLabel":"Extra reistijd tot 30 min.","maximumDurationInMinutes":30},"timespans":[{"start":"2024-02-01T04:00:00+0100","end":"2026-06-30T23:58:00+0200","period":"Donderdag 1 februari 2024 4:00 uur t/m dinsdag 30 juni 2026 23:58 uur.","situation":{"label":"Door een aangepaste dienstregeling: tussen Bad Nieuweschans en Weener rijden er bussen."},"cause":{"label":"aangepaste dienstregeling","type":"OTHER"},"additionalTravelTime":{"label":"De extra reistijd kan oplopen tot 30 minuten.","shortLabel":"Extra reistijd tot 30 min.","maximumDurationInMinutes":30},"alternativeTransport":{"label":"er rijden stop- en snelbussen","shortLabel":"er rijden stop- en snelbussen"},"advices":[]}],"alternativeTransportTimespans":[{"start":"2024-02-01T04:00:00+0100","end":"2026-06-30T23:58:00+0200","alternativeTransport":{"location":[{"station":{"coordinate":{"lat":53.1844,"lng":7.19937},"countryCode":"NL","name":"Bad Nieuweschans","stationCode":"NSCH","uicCode":"8400457"},"description":"vanaf de voorzijde van het station"},{"station":{"coordinate":{"lat":53.16311,"lng":7.3442},"countryCode":"D","name":"Weener","stationCode":"WR","uicCode":"8021239"},"description":"vanaf de voorzijde van het station"},{"station":{"coordinate":{"lat":53.23165,"lng":7.465283},"countryCode":"D","name":"Leer (Ostfriesl)","stationCode":"LEER","uicCode":"8021091"},"description":"vanaf het busstation"}],"label":"Er rijden stopbussen tussen Bad Nieuweschans, Weener en Leer (Ostfriesl).","shortLabel":"Er rijden stopbussen Bad Nieuweschans - Weener - Leer (Ostfr.)."}},{"start":"2025-12-14T04:00:00+0100","end":"2026-06-30T23:58:00+0200","alternativeTransport":{"location":[{"station":{"coordinate":{"lat":53.2105560302734,"lng":6.56472206115723},"countryCode":"NL","name":"Groningen","stationCode":"GN","uicCode":"8400263"},"description":"vanaf het busstation"},{"station":{"coordinate":{"lat":53.23165,"lng":7.465283},"countryCode":"D","name":"Leer (Ostfriesl)","stationCode":"LEER","uicCode":"8021091"},"description":"vanaf het busstation"}],"label":"Er rijden snelbussen tussen Groningen en Leer (Ostfriesl).","shortLabel":"Er rijden snelbussen Groningen - Leer (Ostfr.)."}},{"start":"2025-12-14T04:00:00+0100","end":"2026-06-30T23:58:00+0200","alternativeTransport":{"location":[{"station":{"coordinate":{"lat":53.1844,"lng":7.19937},"countryCode":"NL","name":"Bad Nieuweschans","stationCode":"NSCH","uicCode":"8400457"},"description":"vanaf de voorzijde van het station"},{"station":{"coordinate":{"lat":53.16311,"lng":7.3442},"countryCode":"D","name":"Weener","stationCode":"WR","uicCode":"8021239"},"description":"vanaf de voorzijde van het station"}],"label":"Er rijden stopbussen tussen Bad Nieuweschans en Weener.","shortLabel":"Er rijden stopbussen Bad Nieuweschans - Weener."}}]},{"type":"MAINTENANCE","id":"7007155","title":"'s-Hertogenbosch - Eindhoven.","isActive":false,"local":false,"titleSections":[[{"type":"STATION","value":"'s-Hertogenbosch"},{"type":"STATION","value":"Boxtel"},{"type":"ICON","value":"MAINTENANCE"},{"type":"STATION","value":"Eindhoven C."}]],"registrationTime":"2025-11-27T09:55:23+0100","start":"2025-12-18T01:15:00+0100","releaseTime":"2025-11-27T09:55:23+0100","end":"2025-12-22T02:00:00+0100","period":"Donderdag 18 december 1:15 uur t/m maandag 22 december 2:00 uur.","impact":{"value":4},"publicationSections":[{"section":{"stations":[{"coordinate":{"lat":51.69048,"lng":5.29362},"countryCode":"NL","name":"'s-Hertogenbosch","stationCode":"HT","uicCode":"8400319"},{"coordinate":{"lat":51.649963,"lng":5.292641},"countryCode":"NL","name":"Vught","stationCode":"VG","uicCode":"8400667"},{"coordinate":{"lat":51.58433,"lng":5.31912},"countryCode":"NL","name":"Boxtel","stationCode":"BTL","uicCode":"8400129"},{"coordinate":{"lat":51.5099983215332,"lng":5.38916683197022},"countryCode":"NL","name":"Best","stationCode":"BET","uicCode":"8400112"},{"coordinate":{"lat":51.4511108398438,"lng":5.45583343505859},"countryCode":"NL","name":"Eindhoven Strijp-S","stationCode":"EHS","uicCode":"8400196"},{"coordinate":{"lat":51.4433326721191,"lng":5.48138904571533},"countryCode":"NL","name":"Eindhoven Centraal","stationCode":"EHV","uicCode":"8400206"}],"direction":"BOTH","operators":["NS"]},"consequence":{"section":{"stations":[{"coordinate":{"lat":51.58433,"lng":5.31912},"countryCode":"NL","name":"Boxtel","stationCode":"BTL","uicCode":"8400129"},{"coordinate":{"lat":51.5099983215332,"lng":5.38916683197022},"countryCode":"NL","name":"Best","stationCode":"BET","uicCode":"8400112"},{"coordinate":{"lat":51.4511108398438,"lng":5.45583343505859},"countryCode":"NL","name":"Eindhoven Strijp-S","stationCode":"EHS","uicCode":"8400196"},{"coordinate":{"lat":51.4433326721191,"lng":5.48138904571533},"countryCode":"NL","name":"Eindhoven Centraal","stationCode":"EHV","uicCode":"8400206"}],"direction":"BOTH","operators":["NS"]},"description":"dienstregeling aangepast","level":"LESS_TRAINS"},"sectionType":"NL"}],"timespans":[{"start":"2025-12-18T01:15:00+0100","end":"2025-12-19T02:00:00+0100","period":"Donderdag 18 december 1:15 uur t/m vrijdag 19 december 2:00 uur.","situation":{"label":"Door werkzaamheden: tussen Boxtel en Eindhoven Centraal is de dienstregeling aangepast."},"cause":{"label":"werkzaamheden","type":"OTHER"},"advices":[]},{"start":"2025-12-19T02:01:00+0100","end":"2025-12-22T02:00:00+0100","period":"Vrijdag 19 december 2:01 uur t/m maandag 22 december 2:00 uur.","situation":{"label":"Door werkzaamheden: tussen Boxtel en Eindhoven Centraal is de dienstregeling aangepast."},"cause":{"label":"werkzaamheden","type":"OTHER"},"advices":[]}],"alternativeTransportTimespans":[]},{"type":"MAINTENANCE","id":"7007157","title":"Schiphol - Lelystad; Schiphol - Amersfoort.","isActive":false,"local":false,"titleSections":[[{"type":"STATION","value":"Schiphol Airport"},{"type":"ICON","value":"MAINTENANCE"},{"type":"STATION","value":"RAI"},{"type":"STATION","value":"Amersfoort C."}],[{"type":"STATION","value":"Schiphol Airport"},{"type":"ICON","value":"MAINTENANCE"},{"type":"STATION","value":"RAI"},{"type":"STATION","value":"Lelystad C."}]],"registrationTime":"2025-12-01T16:02:27+0100","start":"2025-12-20T01:00:00+0100","releaseTime":"2025-12-01T16:02:27+0100","end":"2025-12-22T03:00:00+0100","period":"Zaterdag 20 december 1:00 uur t/m maandag 22 december 3:00 uur.","impact":{"value":3},"publicationSections":[{"section":{"stations":[{"coordinate":{"lat":52.3094444274902,"lng":4.76194429397583},"countryCode":"NL","name":"Schiphol Airport","stationCode":"SHL","uicCode":"8400561"},{"coordinate":{"lat":52.338889,"lng":4.872356},"countryCode":"NL","name":"Amsterdam Zuid","stationCode":"ASDZ","uicCode":"8400061"},{"coordinate":{"lat":52.3372230529785,"lng":4.89027786254883},"countryCode":"NL","name":"Amsterdam RAI","stationCode":"RAI","uicCode":"8400056"},{"coordinate":{"lat":52.3233337402344,"lng":4.93638896942139},"countryCode":"NL","name":"Duivendrecht","stationCode":"DVD","uicCode":"8400194"},{"coordinate":{"lat":52.3302764892578,"lng":4.95583343505859},"countryCode":"NL","name":"Diemen Zuid","stationCode":"DMNZ","uicCode":"8400163"},{"coordinate":{"lat":52.3127784729004,"lng":5.04305553436279},"countryCode":"NL","name":"Weesp","stationCode":"WP","uicCode":"8400685"},{"coordinate":{"lat":52.2802772521973,"lng":5.15694427490234},"countryCode":"NL","name":"Naarden-Bussum","stationCode":"NDB","uicCode":"8400452"},{"coordinate":{"lat":52.2658348083496,"lng":5.16305541992188},"countryCode":"NL","name":"Bussum Zuid","stationCode":"BSMZ","uicCode":"8400145"},{"coordinate":{"lat":52.2380561828613,"lng":5.17388868331909},"countryCode":"NL","name":"Hilversum Media Park","stationCode":"HVSM","uicCode":"8400324"},{"coordinate":{"lat":52.2258338928223,"lng":5.18194437026978},"countryCode":"NL","name":"Hilversum","stationCode":"HVS","uicCode":"8400322"},{"coordinate":{"lat":52.2083320617676,"lng":5.28083324432373},"countryCode":"NL","name":"Baarn","stationCode":"BRN","uicCode":"8400086"},{"coordinate":{"lat":52.1538887023926,"lng":5.37055540084839},"countryCode":"NL","name":"Amersfoort Centraal","stationCode":"AMF","uicCode":"8400055"}],"direction":"BOTH","operators":["NS"]},"consequence":{"section":{"stations":[{"coordinate":{"lat":52.3094444274902,"lng":4.76194429397583},"countryCode":"NL","name":"Schiphol Airport","stationCode":"SHL","uicCode":"8400561"},{"coordinate":{"lat":52.338889,"lng":4.872356},"countryCode":"NL","name":"Amsterdam Zuid","stationCode":"ASDZ","uicCode":"8400061"},{"coordinate":{"lat":52.3372230529785,"lng":4.89027786254883},"countryCode":"NL","name":"Amsterdam RAI","stationCode":"RAI","uicCode":"8400056"}],"direction":"BOTH","operators":["NS"]},"description":"minder treinen","level":"LESS_TRAINS"},"sectionType":"NL"},{"section":{"stations":[{"coordinate":{"lat":52.3094444274902,"lng":4.76194429397583},"countryCode":"NL","name":"Schiphol Airport","stationCode":"SHL","uicCode":"8400561"},{"coordinate":{"lat":52.338889,"lng":4.872356},"countryCode":"NL","name":"Amsterdam Zuid","stationCode":"ASDZ","uicCode":"8400061"},{"coordinate":{"lat":52.3372230529785,"lng":4.89027786254883},"countryCode":"NL","name":"Amsterdam RAI","stationCode":"RAI","uicCode":"8400056"},{"coordinate":{"lat":52.3233337402344,"lng":4.93638896942139},"countryCode":"NL","name":"Duivendrecht","stationCode":"DVD","uicCode":"8400194"},{"coordinate":{"lat":52.3302764892578,"lng":4.95583343505859},"countryCode":"NL","name":"Diemen Zuid","stationCode":"DMNZ","uicCode":"8400163"},{"coordinate":{"lat":52.3127784729004,"lng":5.04305553436279},"countryCode":"NL","name":"Weesp","stationCode":"WP","uicCode":"8400685"},{"coordinate":{"lat":52.342778,"lng":5.151944},"countryCode":"NL","name":"Almere Poort","stationCode":"AMPO","uicCode":"8400450"},{"coordinate":{"lat":52.3675003051758,"lng":5.19027757644653},"countryCode":"NL","name":"Almere Muziekwijk","stationCode":"ALMM","uicCode":"8400082"},{"coordinate":{"lat":52.37503,"lng":5.21764},"countryCode":"NL","name":"Almere Centrum","stationCode":"ALM","uicCode":"8400080"},{"coordinate":{"lat":52.3766670227051,"lng":5.24472236633301},"countryCode":"NL","name":"Almere Parkwijk","stationCode":"ALMP","uicCode":"8400104"},{"coordinate":{"lat":52.3941650390625,"lng":5.2780556678772},"countryCode":"NL","name":"Almere Buiten","stationCode":"ALMB","uicCode":"8400081"},{"coordinate":{"lat":52.4033317565918,"lng":5.30055570602417},"countryCode":"NL","name":"Almere Oostvaarders","stationCode":"ALMO","uicCode":"8400226"},{"coordinate":{"lat":52.5077781677246,"lng":5.47277784347534},"countryCode":"NL","name":"Lelystad Centrum","stationCode":"LLS","uicCode":"8400394"}],"direction":"BOTH","operators":["NS"]},"consequence":{"section":{"stations":[{"coordinate":{"lat":52.3094444274902,"lng":4.76194429397583},"countryCode":"NL","name":"Schiphol Airport","stationCode":"SHL","uicCode":"8400561"},{"coordinate":{"lat":52.338889,"lng":4.872356},"countryCode":"NL","name":"Amsterdam Zuid","stationCode":"ASDZ","uicCode":"8400061"},{"coordinate":{"lat":52.3372230529785,"lng":4.89027786254883},"countryCode":"NL","name":"Amsterdam RAI","stationCode":"RAI","uicCode":"8400056"}],"direction":"BOTH","operators":["NS"]},"description":"minder treinen","level":"LESS_TRAINS"},"sectionType":"NL"}],"summaryAdditionalTravelTime":{"label":"De extra reistijd kan oplopen tot 15 minuten.","shortLabel":"Extra reistijd tot 15 min.","maximumDurationInMinutes":15},"timespans":[{"start":"2025-12-20T01:00:00+0100","end":"2025-12-22T03:00:00+0100","period":"Zaterdag 20 december 1:00 uur t/m maandag 22 december 3:00 uur.","situation":{"label":"Door werkzaamheden: tussen Schiphol Airport en Amsterdam RAI rijden er minder treinen."},"cause":{"label":"werkzaamheden","type":"OTHER"},"additionalTravelTime":{"label":"De extra reistijd kan oplopen tot 15 minuten.","shortLabel":"Extra reistijd tot 15 min.","maximumDurationInMinutes":15},"advices":["Houd rekening met extra reistijd en mogelijk extra overstappen."]}],"alternativeTransportTimespans":[]},{"type":"MAINTENANCE","id":"7007138","title":"Amsterdam Bijlmer ArenA - Schiphol - Leiden Centraal.","isActive":false,"local":false,"titleSections":[[{"type":"STATION","value":"Bijlmer ArenA"},{"type":"STATION","value":"Schiphol Airport"},{"type":"ICON","value":"MAINTENANCE"},{"type":"STATION","value":"Leiden C."}]],"registrationTime":"2025-11-11T11:49:18+0100","start":"2025-12-24T01:00:00+0100","releaseTime":"2025-11-11T11:49:30+0100","end":"2025-12-24T05:00:00+0100","period":"Woensdag 24 december 1:00 uur t/m woensdag 24 december 5:00 uur.","impact":{"value":3},"publicationSections":[{"section":{"stations":[{"coordinate":{"lat":52.3122215270996,"lng":4.94694423675537},"countryCode":"NL","name":"Amsterdam Bijlmer ArenA","stationCode":"ASB","uicCode":"8400074"},{"coordinate":{"lat":52.3372230529785,"lng":4.89027786254883},"countryCode":"NL","name":"Amsterdam RAI","stationCode":"RAI","uicCode":"8400056"},{"coordinate":{"lat":52.338889,"lng":4.872356},"countryCode":"NL","name":"Amsterdam Zuid","stationCode":"ASDZ","uicCode":"8400061"},{"coordinate":{"lat":52.3094444274902,"lng":4.76194429397583},"countryCode":"NL","name":"Schiphol Airport","stationCode":"SHL","uicCode":"8400561"},{"coordinate":{"lat":52.2933349609375,"lng":4.70055532455444},"countryCode":"NL","name":"Hoofddorp","stationCode":"HFD","uicCode":"8400332"},{"coordinate":{"lat":52.2588882446289,"lng":4.64555549621582},"countryCode":"NL","name":"Nieuw Vennep","stationCode":"NVP","uicCode":"8400460"},{"coordinate":{"lat":52.215278,"lng":4.517222},"countryCode":"NL","name":"Sassenheim","stationCode":"SSH","uicCode":"8400603"},{"coordinate":{"lat":52.1661109924316,"lng":4.48166656494141},"countryCode":"NL","name":"Leiden Centraal","stationCode":"LEDN","uicCode":"8400390"}],"direction":"BOTH","operators":["NS"]},"consequence":{"section":{"stations":[{"coordinate":{"lat":52.3094444274902,"lng":4.76194429397583},"countryCode":"NL","name":"Schiphol Airport","stationCode":"SHL","uicCode":"8400561"},{"coordinate":{"lat":52.2933349609375,"lng":4.70055532455444},"countryCode":"NL","name":"Hoofddorp","stationCode":"HFD","uicCode":"8400332"},{"coordinate":{"lat":52.2588882446289,"lng":4.64555549621582},"countryCode":"NL","name":"Nieuw Vennep","stationCode":"NVP","uicCode":"8400460"},{"coordinate":{"lat":52.215278,"lng":4.517222},"countryCode":"NL","name":"Sassenheim","stationCode":"SSH","uicCode":"8400603"},{"coordinate":{"lat":52.1661109924316,"lng":4.48166656494141},"countryCode":"NL","name":"Leiden Centraal","stationCode":"LEDN","uicCode":"8400390"}],"direction":"BOTH","operators":["NS"]},"description":"er rijden bussen","level":"LESS_TRAINS"},"sectionType":"NL"}],"summaryAdditionalTravelTime":{"label":"De extra reistijd is ongeveer 15 minuten.","shortLabel":"Extra reistijd 15 min.","minimumDurationInMinutes":15,"maximumDurationInMinutes":15},"timespans":[{"start":"2025-12-24T01:00:00+0100","end":"2025-12-24T05:00:00+0100","period":"Woensdag 24 december 1:00 uur t/m woensdag 24 december 5:00 uur.","situation":{"label":"Door werkzaamheden: tussen Schiphol Airport en Leiden Centraal rijden er bussen."},"cause":{"label":"werkzaamheden","type":"OTHER"},"additionalTravelTime":{"label":"De extra reistijd is ongeveer 15 minuten.","shortLabel":"Extra reistijd 15 min.","minimumDurationInMinutes":15,"maximumDurationInMinutes":15},"alternativeTransport":{"label":"er rijden snelbussen","shortLabel":"er rijden snelbussen"},"advices":[]}],"alternativeTransportTimespans":[{"start":"2025-12-24T01:00:00+0100","end":"2025-12-24T05:00:00+0100","alternativeTransport":{"location":[{"station":{"coordinate":{"lat":52.1661109924316,"lng":4.48166656494141},"countryCode":"NL","name":"Leiden Centraal","stationCode":"LEDN","uicCode":"8400390"},"description":"vanaf het stadsbusstation"},{"station":{"coordinate":{"lat":52.3094444274902,"lng":4.76194429397583},"countryCode":"NL","name":"Schiphol Airport","stationCode":"SHL","uicCode":"8400561"},"description":"vanaf de Halte F6, volg borden Touring coaches"}],"label":"Er rijden snelbussen tussen Leiden Centraal en Schiphol Airport.","shortLabel":"Er rijden snelbussen Leiden C. - Schiphol Airport."}}]},{"type":"MAINTENANCE","id":"7007109","title":"Amsterdam - Brussel - London.","isActive":false,"local":false,"titleSections":[[{"type":"STATION","value":"Amsterdam C."},{"type":"ICON","value":"MAINTENANCE"},{"type":"STATION","value":"London St. P Int"}]],"registrationTime":"2025-11-05T13:22:11+0100","start":"2025-12-25T04:00:00+0100","releaseTime":"2025-11-05T13:22:11+0100","end":"2025-12-25T23:59:00+0100","period":"Donderdag 25 december 4:00 uur t/m donderdag 25 december 23:59 uur.","impact":{"value":2},"publicationSections":[{"section":{"stations":[{"coordinate":{"lat":52.3788871765137,"lng":4.90027761459351},"countryCode":"NL","name":"Amsterdam Centraal","stationCode":"ASD","uicCode":"8400058"},{"coordinate":{"lat":52.3888893127441,"lng":4.83777761459351},"countryCode":"NL","name":"Amsterdam Sloterdijk","stationCode":"ASS","uicCode":"8400059"},{"coordinate":{"lat":52.3577766418457,"lng":4.83388900756836},"countryCode":"NL","name":"Amsterdam Lelylaan","stationCode":"ASDL","uicCode":"8400079"},{"coordinate":{"lat":52.3094444274902,"lng":4.76194429397583},"countryCode":"NL","name":"Schiphol Airport","stationCode":"SHL","uicCode":"8400561"},{"coordinate":{"lat":52.2933349609375,"lng":4.70055532455444},"countryCode":"NL","name":"Hoofddorp","stationCode":"HFD","uicCode":"8400332"},{"coordinate":{"lat":51.9249992370605,"lng":4.46888875961304},"countryCode":"NL","name":"Rotterdam Centraal","stationCode":"RTD","uicCode":"8400530"},{"coordinate":{"lat":51.9202766418457,"lng":4.48888874053955},"countryCode":"NL","name":"Rotterdam Blaak","stationCode":"RTB","uicCode":"8400529"},{"coordinate":{"lat":51.9044456481934,"lng":4.51027774810791},"countryCode":"NL","name":"Rotterdam Zuid","stationCode":"RTZ","uicCode":"8400533"},{"coordinate":{"lat":51.8800010681152,"lng":4.53138875961304},"countryCode":"NL","name":"Rotterdam Lombardijen","stationCode":"RLB","uicCode":"8400542"},{"coordinate":{"lat":51.606388092041,"lng":4.72083330154419},"countryCode":"NL","name":"Breda-Prinsenbeek","stationCode":"BDPB","uicCode":"8400132"},{"coordinate":{"lat":51.5955543518066,"lng":4.78000020980835},"countryCode":"NL","name":"Breda","stationCode":"BD","uicCode":"8400131"},{"coordinate":{"lat":51.358088,"lng":4.633977},"countryCode":"B","name":"Noorderkempen","stationCode":"NDKP","uicCode":"8821105"},{"coordinate":{"lat":51.2449375,"lng":4.4251543},"countryCode":"B","name":"Antwerpen-Luchtbal","stationCode":"ATWLB","uicCode":"8821063"},{"coordinate":{"lat":51.21686,"lng":4.421242},"countryCode":"B","name":"Antwerpen-Centraal","stationCode":"ATW","uicCode":"8821006"},{"coordinate":{"lat":51.198914,"lng":4.4332},"countryCode":"B","name":"Antwerpen-Berchem","stationCode":"BERCH","uicCode":"8821121"},{"coordinate":{"lat":51.01758,"lng":4.48313},"countryCode":"B","name":"Mechelen","stationCode":"MECH","uicCode":"8822004"},{"coordinate":{"lat":50.859658,"lng":4.360854},"countryCode":"B","name":"Brussel-Noord","stationCode":"BRUSN","uicCode":"8812005"},{"coordinate":{"lat":50.845175,"lng":4.357131},"countryCode":"B","name":"Brussel-Centraal","stationCode":"BRUSC","uicCode":"8813003"},{"coordinate":{"lat":50.836782,"lng":4.336922},"countryCode":"B","name":"Brussel-Zuid","stationCode":"BRUSZ","uicCode":"8814001"},{"coordinate":{"lat":50.639444,"lng":3.074722},"countryCode":"F","name":"Lille Europe","stationCode":"LILLEE","uicCode":"8722326"},{"coordinate":{"lat":51.531437,"lng":-0.126136},"countryCode":"GB","name":"London St. Pancras Int.","stationCode":"STP","uicCode":"7015400"}],"direction":"BOTH","operators":["NS Int"]},"consequence":{"section":{"stations":[{"coordinate":{"lat":52.3788871765137,"lng":4.90027761459351},"countryCode":"NL","name":"Amsterdam Centraal","stationCode":"ASD","uicCode":"8400058"},{"coordinate":{"lat":52.3888893127441,"lng":4.83777761459351},"countryCode":"NL","name":"Amsterdam Sloterdijk","stationCode":"ASS","uicCode":"8400059"},{"coordinate":{"lat":52.3577766418457,"lng":4.83388900756836},"countryCode":"NL","name":"Amsterdam Lelylaan","stationCode":"ASDL","uicCode":"8400079"},{"coordinate":{"lat":52.3094444274902,"lng":4.76194429397583},"countryCode":"NL","name":"Schiphol Airport","stationCode":"SHL","uicCode":"8400561"},{"coordinate":{"lat":52.2933349609375,"lng":4.70055532455444},"countryCode":"NL","name":"Hoofddorp","stationCode":"HFD","uicCode":"8400332"},{"coordinate":{"lat":51.9249992370605,"lng":4.46888875961304},"countryCode":"NL","name":"Rotterdam Centraal","stationCode":"RTD","uicCode":"8400530"},{"coordinate":{"lat":51.9202766418457,"lng":4.48888874053955},"countryCode":"NL","name":"Rotterdam Blaak","stationCode":"RTB","uicCode":"8400529"},{"coordinate":{"lat":51.9044456481934,"lng":4.51027774810791},"countryCode":"NL","name":"Rotterdam Zuid","stationCode":"RTZ","uicCode":"8400533"},{"coordinate":{"lat":51.8800010681152,"lng":4.53138875961304},"countryCode":"NL","name":"Rotterdam Lombardijen","stationCode":"RLB","uicCode":"8400542"},{"coordinate":{"lat":51.606388092041,"lng":4.72083330154419},"countryCode":"NL","name":"Breda-Prinsenbeek","stationCode":"BDPB","uicCode":"8400132"},{"coordinate":{"lat":51.5955543518066,"lng":4.78000020980835},"countryCode":"NL","name":"Breda","stationCode":"BD","uicCode":"8400131"},{"coordinate":{"lat":51.358088,"lng":4.633977},"countryCode":"B","name":"Noorderkempen","stationCode":"NDKP","uicCode":"8821105"},{"coordinate":{"lat":51.2449375,"lng":4.4251543},"countryCode":"B","name":"Antwerpen-Luchtbal","stationCode":"ATWLB","uicCode":"8821063"},{"coordinate":{"lat":51.21686,"lng":4.421242},"countryCode":"B","name":"Antwerpen-Centraal","stationCode":"ATW","uicCode":"8821006"},{"coordinate":{"lat":51.198914,"lng":4.4332},"countryCode":"B","name":"Antwerpen-Berchem","stationCode":"BERCH","uicCode":"8821121"},{"coordinate":{"lat":51.01758,"lng":4.48313},"countryCode":"B","name":"Mechelen","stationCode":"MECH","uicCode":"8822004"},{"coordinate":{"lat":50.859658,"lng":4.360854},"countryCode":"B","name":"Brussel-Noord","stationCode":"BRUSN","uicCode":"8812005"},{"coordinate":{"lat":50.845175,"lng":4.357131},"countryCode":"B","name":"Brussel-Centraal","stationCode":"BRUSC","uicCode":"8813003"},{"coordinate":{"lat":50.836782,"lng":4.336922},"countryCode":"B","name":"Brussel-Zuid","stationCode":"BRUSZ","uicCode":"8814001"},{"coordinate":{"lat":50.639444,"lng":3.074722},"countryCode":"F","name":"Lille Europe","stationCode":"LILLEE","uicCode":"8722326"},{"coordinate":{"lat":51.531437,"lng":-0.126136},"countryCode":"GB","name":"London St. Pancras Int.","stationCode":"STP","uicCode":"7015400"}],"direction":"BOTH","operators":["NS Int"]},"description":"aangepaste internationale dienstregeling","level":"LESS_TRAINS"},"sectionType":"HSL"}],"timespans":[{"start":"2025-12-25T04:00:00+0100","end":"2025-12-25T23:59:00+0100","period":"Donderdag 25 december 4:00 uur t/m donderdag 25 december 23:59 uur.","situation":{"label":"Door een aangepaste dienstregeling: tussen Amsterdam Centraal en London St. Pancras Int. is de internationale dienstregeling aangepast."},"cause":{"label":"aangepaste dienstregeling","type":"OTHER"},"advices":["Door een feestdag rijdt Eurostar van Amsterdam naar London niet. Kijk voor een alternatief in de internationale reisplanner."]}],"alternativeTransportTimespans":[]},{"type":"MAINTENANCE","id":"7007110","title":"Amsterdam - Brussel - London.","isActive":false,"local":false,"titleSections":[[{"type":"STATION","value":"Amsterdam C."},{"type":"ICON","value":"MAINTENANCE"},{"type":"STATION","value":"London St. P Int"}]],"registrationTime":"2025-12-15T16:57:52+0100","start":"2026-01-03T16:40:00+0100","releaseTime":"2025-12-15T16:57:52+0100","end":"2026-01-03T18:40:00+0100","period":"Zaterdag 3 januari 2026 16:40 uur t/m zaterdag 3 januari 2026 18:40 uur.","impact":{"value":2},"publicationSections":[{"section":{"stations":[{"coordinate":{"lat":52.3788871765137,"lng":4.90027761459351},"countryCode":"NL","name":"Amsterdam Centraal","stationCode":"ASD","uicCode":"8400058"},{"coordinate":{"lat":52.3888893127441,"lng":4.83777761459351},"countryCode":"NL","name":"Amsterdam Sloterdijk","stationCode":"ASS","uicCode":"8400059"},{"coordinate":{"lat":52.3577766418457,"lng":4.83388900756836},"countryCode":"NL","name":"Amsterdam Lelylaan","stationCode":"ASDL","uicCode":"8400079"},{"coordinate":{"lat":52.3094444274902,"lng":4.76194429397583},"countryCode":"NL","name":"Schiphol Airport","stationCode":"SHL","uicCode":"8400561"},{"coordinate":{"lat":52.2933349609375,"lng":4.70055532455444},"countryCode":"NL","name":"Hoofddorp","stationCode":"HFD","uicCode":"8400332"},{"coordinate":{"lat":51.9249992370605,"lng":4.46888875961304},"countryCode":"NL","name":"Rotterdam Centraal","stationCode":"RTD","uicCode":"8400530"},{"coordinate":{"lat":51.9202766418457,"lng":4.48888874053955},"countryCode":"NL","name":"Rotterdam Blaak","stationCode":"RTB","uicCode":"8400529"},{"coordinate":{"lat":51.9044456481934,"lng":4.51027774810791},"countryCode":"NL","name":"Rotterdam Zuid","stationCode":"RTZ","uicCode":"8400533"},{"coordinate":{"lat":51.8800010681152,"lng":4.53138875961304},"countryCode":"NL","name":"Rotterdam Lombardijen","stationCode":"RLB","uicCode":"8400542"},{"coordinate":{"lat":51.606388092041,"lng":4.72083330154419},"countryCode":"NL","name":"Breda-Prinsenbeek","stationCode":"BDPB","uicCode":"8400132"},{"coordinate":{"lat":51.5955543518066,"lng":4.78000020980835},"countryCode":"NL","name":"Breda","stationCode":"BD","uicCode":"8400131"},{"coordinate":{"lat":51.358088,"lng":4.633977},"countryCode":"B","name":"Noorderkempen","stationCode":"NDKP","uicCode":"8821105"},{"coordinate":{"lat":51.2449375,"lng":4.4251543},"countryCode":"B","name":"Antwerpen-Luchtbal","stationCode":"ATWLB","uicCode":"8821063"},{"coordinate":{"lat":51.21686,"lng":4.421242},"countryCode":"B","name":"Antwerpen-Centraal","stationCode":"ATW","uicCode":"8821006"},{"coordinate":{"lat":51.198914,"lng":4.4332},"countryCode":"B","name":"Antwerpen-Berchem","stationCode":"BERCH","uicCode":"8821121"},{"coordinate":{"lat":51.01758,"lng":4.48313},"countryCode":"B","name":"Mechelen","stationCode":"MECH","uicCode":"8822004"},{"coordinate":{"lat":50.859658,"lng":4.360854},"countryCode":"B","name":"Brussel-Noord","stationCode":"BRUSN","uicCode":"8812005"},{"coordinate":{"lat":50.845175,"lng":4.357131},"countryCode":"B","name":"Brussel-Centraal","stationCode":"BRUSC","uicCode":"8813003"},{"coordinate":{"lat":50.836782,"lng":4.336922},"countryCode":"B","name":"Brussel-Zuid","stationCode":"BRUSZ","uicCode":"8814001"},{"coordinate":{"lat":50.639444,"lng":3.074722},"countryCode":"F","name":"Lille Europe","stationCode":"LILLEE","uicCode":"8722326"},{"coordinate":{"lat":51.531437,"lng":-0.126136},"countryCode":"GB","name":"London St. Pancras Int.","stationCode":"STP","uicCode":"7015400"}],"direction":"BOTH","operators":["NS International"]},"consequence":{"section":{"stations":[{"coordinate":{"lat":52.3788871765137,"lng":4.90027761459351},"countryCode":"NL","name":"Amsterdam Centraal","stationCode":"ASD","uicCode":"8400058"},{"coordinate":{"lat":52.3888893127441,"lng":4.83777761459351},"countryCode":"NL","name":"Amsterdam Sloterdijk","stationCode":"ASS","uicCode":"8400059"},{"coordinate":{"lat":52.3577766418457,"lng":4.83388900756836},"countryCode":"NL","name":"Amsterdam Lelylaan","stationCode":"ASDL","uicCode":"8400079"},{"coordinate":{"lat":52.3094444274902,"lng":4.76194429397583},"countryCode":"NL","name":"Schiphol Airport","stationCode":"SHL","uicCode":"8400561"},{"coordinate":{"lat":52.2933349609375,"lng":4.70055532455444},"countryCode":"NL","name":"Hoofddorp","stationCode":"HFD","uicCode":"8400332"},{"coordinate":{"lat":51.9249992370605,"lng":4.46888875961304},"countryCode":"NL","name":"Rotterdam Centraal","stationCode":"RTD","uicCode":"8400530"},{"coordinate":{"lat":51.9202766418457,"lng":4.48888874053955},"countryCode":"NL","name":"Rotterdam Blaak","stationCode":"RTB","uicCode":"8400529"},{"coordinate":{"lat":51.9044456481934,"lng":4.51027774810791},"countryCode":"NL","name":"Rotterdam Zuid","stationCode":"RTZ","uicCode":"8400533"},{"coordinate":{"lat":51.8800010681152,"lng":4.53138875961304},"countryCode":"NL","name":"Rotterdam Lombardijen","stationCode":"RLB","uicCode":"8400542"},{"coordinate":{"lat":51.606388092041,"lng":4.72083330154419},"countryCode":"NL","name":"Breda-Prinsenbeek","stationCode":"BDPB","uicCode":"8400132"},{"coordinate":{"lat":51.5955543518066,"lng":4.78000020980835},"countryCode":"NL","name":"Breda","stationCode":"BD","uicCode":"8400131"},{"coordinate":{"lat":51.358088,"lng":4.633977},"countryCode":"B","name":"Noorderkempen","stationCode":"NDKP","uicCode":"8821105"},{"coordinate":{"lat":51.2449375,"lng":4.4251543},"countryCode":"B","name":"Antwerpen-Luchtbal","stationCode":"ATWLB","uicCode":"8821063"},{"coordinate":{"lat":51.21686,"lng":4.421242},"countryCode":"B","name":"Antwerpen-Centraal","stationCode":"ATW","uicCode":"8821006"},{"coordinate":{"lat":51.198914,"lng":4.4332},"countryCode":"B","name":"Antwerpen-Berchem","stationCode":"BERCH","uicCode":"8821121"},{"coordinate":{"lat":51.01758,"lng":4.48313},"countryCode":"B","name":"Mechelen","stationCode":"MECH","uicCode":"8822004"},{"coordinate":{"lat":50.859658,"lng":4.360854},"countryCode":"B","name":"Brussel-Noord","stationCode":"BRUSN","uicCode":"8812005"},{"coordinate":{"lat":50.845175,"lng":4.357131},"countryCode":"B","name":"Brussel-Centraal","stationCode":"BRUSC","uicCode":"8813003"},{"coordinate":{"lat":50.836782,"lng":4.336922},"countryCode":"B","name":"Brussel-Zuid","stationCode":"BRUSZ","uicCode":"8814001"},{"coordinate":{"lat":50.639444,"lng":3.074722},"countryCode":"F","name":"Lille Europe","stationCode":"LILLEE","uicCode":"8722326"},{"coordinate":{"lat":51.531437,"lng":-0.126136},"countryCode":"GB","name":"London St. Pancras Int.","stationCode":"STP","uicCode":"7015400"}],"direction":"BOTH","operators":["NS International"]},"description":"aangepaste internationale dienstregeling","level":"LESS_TRAINS"},"sectionType":"HSL"}],"timespans":[{"start":"2026-01-03T16:40:00+0100","end":"2026-01-03T18:40:00+0100","period":"Zaterdag 3 januari 2026 16:40 uur t/m zaterdag 3 januari 2026 18:40 uur.","situation":{"label":"Door werkzaamheden: tussen Amsterdam Centraal en London St. Pancras Int. is de internationale dienstregeling aangepast."},"cause":{"label":"werkzaamheden","type":"OTHER"},"advices":["De Eurostar London 9157 rijdt niet."]}],"alternativeTransportTimespans":[]},{"type":"MAINTENANCE","id":"7007128","title":"Maastricht - Liège / Luik.","isActive":false,"local":false,"titleSections":[[{"type":"STATION","value":"Maastricht"},{"type":"ICON","value":"MAINTENANCE"},{"type":"STATION","value":"Liège-Guillemins"}]],"registrationTime":"2025-12-09T12:14:07+0100","start":"2026-01-03T22:31:00+0100","releaseTime":"2025-12-09T12:14:07+0100","end":"2026-01-04T00:19:00+0100","period":"Zaterdag 3 januari 2026 22:31 uur t/m zondag 4 januari 2026 0:19 uur.","impact":{"value":3},"publicationSections":[{"section":{"stations":[{"coordinate":{"lat":50.8502769470215,"lng":5.70555543899536},"countryCode":"NL","name":"Maastricht","stationCode":"MT","uicCode":"8400424"},{"coordinate":{"lat":50.8386116027832,"lng":5.71722221374512},"countryCode":"NL","name":"Maastricht Randwyck","stationCode":"MTR","uicCode":"8400426"},{"coordinate":{"lat":50.7719459533691,"lng":5.71000003814697},"countryCode":"NL","name":"Eijsden","stationCode":"EDN","uicCode":"8400219"},{"coordinate":{"lat":50.73781,"lng":5.69232},"countryCode":"B","name":"Visé","stationCode":"FVS","uicCode":"8846201"},{"coordinate":{"lat":50.643829,"lng":5.6112542},"countryCode":"B","name":"Bressoux","stationCode":"BRESSX","uicCode":"8843901"},{"coordinate":{"lat":50.62436,"lng":5.56648},"countryCode":"B","name":"Liège-Guillemins","stationCode":"LUIK","uicCode":"8841004"}],"direction":"BOTH","operators":["Arriva"]},"consequence":{"section":{"stations":[{"coordinate":{"lat":50.8502769470215,"lng":5.70555543899536},"countryCode":"NL","name":"Maastricht","stationCode":"MT","uicCode":"8400424"},{"coordinate":{"lat":50.8386116027832,"lng":5.71722221374512},"countryCode":"NL","name":"Maastricht Randwyck","stationCode":"MTR","uicCode":"8400426"},{"coordinate":{"lat":50.7719459533691,"lng":5.71000003814697},"countryCode":"NL","name":"Eijsden","stationCode":"EDN","uicCode":"8400219"},{"coordinate":{"lat":50.73781,"lng":5.69232},"countryCode":"B","name":"Visé","stationCode":"FVS","uicCode":"8846201"},{"coordinate":{"lat":50.643829,"lng":5.6112542},"countryCode":"B","name":"Bressoux","stationCode":"BRESSX","uicCode":"8843901"},{"coordinate":{"lat":50.62436,"lng":5.56648},"countryCode":"B","name":"Liège-Guillemins","stationCode":"LUIK","uicCode":"8841004"}],"direction":"BOTH","operators":["Arriva"]},"description":"er rijden bussen","level":"LESS_TRAINS"},"sectionType":"NEIGHBORING_COUNTRY"}],"timespans":[{"start":"2026-01-03T22:31:00+0100","end":"2026-01-04T00:19:00+0100","period":"Zaterdag 3 januari 2026 22:31 uur t/m zondag 4 januari 2026 0:19 uur.","situation":{"label":"Door werkzaamheden: tussen Maastricht en Liège-Guillemins rijden er bussen."},"cause":{"label":"werkzaamheden","type":"OTHER"},"alternativeTransport":{"label":"er rijden stopbussen","shortLabel":"er rijden stopbussen"},"advices":[]}],"alternativeTransportTimespans":[{"start":"2026-01-03T22:31:00+0100","end":"2026-01-04T00:19:00+0100","alternativeTransport":{"location":[{"station":{"coordinate":{"lat":50.8502769470215,"lng":5.70555543899536},"countryCode":"NL","name":"Maastricht","stationCode":"MT","uicCode":"8400424"},"description":"vanaf het Stationsplein"},{"station":{"coordinate":{"lat":50.8386116027832,"lng":5.71722221374512},"countryCode":"NL","name":"Maastricht Randwyck","stationCode":"MTR","uicCode":"8400426"},"description":"volg de aanwijzingen op het station"},{"station":{"coordinate":{"lat":50.7719459533691,"lng":5.71000003814697},"countryCode":"NL","name":"Eijsden","stationCode":"EDN","uicCode":"8400219"},"description":"vanaf de voorzijde van het station"},{"station":{"coordinate":{"lat":50.73781,"lng":5.69232},"countryCode":"B","name":"Visé","stationCode":"FVS","uicCode":"8846201"},"description":"vanaf de bushalte"},{"station":{"coordinate":{"lat":50.643829,"lng":5.6112542},"countryCode":"B","name":"Bressoux","stationCode":"BRESSX","uicCode":"8843901"},"description":"volg de aanwijzingen op het station"},{"station":{"coordinate":{"lat":50.62436,"lng":5.56648},"countryCode":"B","name":"Liège-Guillemins","stationCode":"LUIK","uicCode":"8841004"},"description":"volg de aanwijzingen op het station"}],"label":"Er rijden stopbussen tussen Maastricht, Maastricht Randwyck, Eijsden, Visé, Bressoux en Liège-Guillemins.","shortLabel":"Er rijden stopbussen Maastricht - Randwyck - Eijsden - Visé - Bressoux - Liège-Guillemins."}}]},{"type":"MAINTENANCE","id":"7007129","title":"Maastricht - Liège / Luik.","isActive":false,"local":false,"titleSections":[[{"type":"STATION","value":"Maastricht"},{"type":"ICON","value":"MAINTENANCE"},{"type":"STATION","value":"Liège-Guillemins"}]],"registrationTime":"2025-12-09T12:14:31+0100","start":"2026-01-04T23:05:00+0100","releaseTime":"2025-12-09T12:14:31+0100","end":"2026-01-05T01:16:00+0100","period":"Zondag 4 januari 2026 23:05 uur t/m maandag 5 januari 2026 1:16 uur.","impact":{"value":3},"publicationSections":[{"section":{"stations":[{"coordinate":{"lat":50.8502769470215,"lng":5.70555543899536},"countryCode":"NL","name":"Maastricht","stationCode":"MT","uicCode":"8400424"},{"coordinate":{"lat":50.8386116027832,"lng":5.71722221374512},"countryCode":"NL","name":"Maastricht Randwyck","stationCode":"MTR","uicCode":"8400426"},{"coordinate":{"lat":50.7719459533691,"lng":5.71000003814697},"countryCode":"NL","name":"Eijsden","stationCode":"EDN","uicCode":"8400219"},{"coordinate":{"lat":50.73781,"lng":5.69232},"countryCode":"B","name":"Visé","stationCode":"FVS","uicCode":"8846201"},{"coordinate":{"lat":50.643829,"lng":5.6112542},"countryCode":"B","name":"Bressoux","stationCode":"BRESSX","uicCode":"8843901"},{"coordinate":{"lat":50.62436,"lng":5.56648},"countryCode":"B","name":"Liège-Guillemins","stationCode":"LUIK","uicCode":"8841004"}],"direction":"BOTH","operators":["Arriva"]},"consequence":{"section":{"stations":[{"coordinate":{"lat":50.8502769470215,"lng":5.70555543899536},"countryCode":"NL","name":"Maastricht","stationCode":"MT","uicCode":"8400424"},{"coordinate":{"lat":50.8386116027832,"lng":5.71722221374512},"countryCode":"NL","name":"Maastricht Randwyck","stationCode":"MTR","uicCode":"8400426"},{"coordinate":{"lat":50.7719459533691,"lng":5.71000003814697},"countryCode":"NL","name":"Eijsden","stationCode":"EDN","uicCode":"8400219"},{"coordinate":{"lat":50.73781,"lng":5.69232},"countryCode":"B","name":"Visé","stationCode":"FVS","uicCode":"8846201"},{"coordinate":{"lat":50.643829,"lng":5.6112542},"countryCode":"B","name":"Bressoux","stationCode":"BRESSX","uicCode":"8843901"},{"coordinate":{"lat":50.62436,"lng":5.56648},"countryCode":"B","name":"Liège-Guillemins","stationCode":"LUIK","uicCode":"8841004"}],"direction":"BOTH","operators":["Arriva"]},"description":"er rijden bussen","level":"LESS_TRAINS"},"sectionType":"NEIGHBORING_COUNTRY"}],"summaryAdditionalTravelTime":{"label":"De extra reistijd is ongeveer 30 minuten.","shortLabel":"Extra reistijd 30 min.","minimumDurationInMinutes":30,"maximumDurationInMinutes":30},"timespans":[{"start":"2026-01-04T23:05:00+0100","end":"2026-01-05T01:16:00+0100","period":"Zondag 4 januari 2026 23:05 uur t/m maandag 5 januari 2026 1:16 uur.","situation":{"label":"Door werkzaamheden: tussen Maastricht en Liège-Guillemins rijden er bussen."},"cause":{"label":"werkzaamheden","type":"OTHER"},"additionalTravelTime":{"label":"De extra reistijd is ongeveer 30 minuten.","shortLabel":"Extra reistijd 30 min.","minimumDurationInMinutes":30,"maximumDurationInMinutes":30},"alternativeTransport":{"label":"er rijden stopbussen","shortLabel":"er rijden stopbussen"},"advices":[]}],"alternativeTransportTimespans":[{"start":"2026-01-04T23:05:00+0100","end":"2026-01-05T01:16:00+0100","alternativeTransport":{"location":[{"station":{"coordinate":{"lat":50.8502769470215,"lng":5.70555543899536},"countryCode":"NL","name":"Maastricht","stationCode":"MT","uicCode":"8400424"},"description":"vanaf het Stationsplein"},{"station":{"coordinate":{"lat":50.8386116027832,"lng":5.71722221374512},"countryCode":"NL","name":"Maastricht Randwyck","stationCode":"MTR","uicCode":"8400426"},"description":"volg de aanwijzingen op het station"},{"station":{"coordinate":{"lat":50.7719459533691,"lng":5.71000003814697},"countryCode":"NL","name":"Eijsden","stationCode":"EDN","uicCode":"8400219"},"description":"vanaf de voorzijde van het station"},{"station":{"coordinate":{"lat":50.73781,"lng":5.69232},"countryCode":"B","name":"Visé","stationCode":"FVS","uicCode":"8846201"},"description":"vanaf de bushalte"},{"station":{"coordinate":{"lat":50.643829,"lng":5.6112542},"countryCode":"B","name":"Bressoux","stationCode":"BRESSX","uicCode":"8843901"},"description":"volg de aanwijzingen op het station"},{"station":{"coordinate":{"lat":50.62436,"lng":5.56648},"countryCode":"B","name":"Liège-Guillemins","stationCode":"LUIK","uicCode":"8841004"},"description":"volg de aanwijzingen op het station"}],"label":"Er rijden stopbussen tussen Maastricht, Maastricht Randwyck, Eijsden, Visé, Bressoux en Liège-Guillemins.","shortLabel":"Er rijden stopbussen Maastricht - Randwyck - Eijsden - Visé - Bressoux - Liège-Guillemins."}}]},{"type":"MAINTENANCE","id":"7006799","title":"Haarlem - Alkmaar.","isActive":false,"local":false,"titleSections":[[{"type":"STATION","value":"Haarlem"},{"type":"ICON","value":"MAINTENANCE"},{"type":"STATION","value":"Beverwijk"},{"type":"STATION","value":"Alkmaar"}]],"registrationTime":"2025-12-15T15:01:55+0100","start":"2026-01-05T04:00:00+0100","releaseTime":"2025-12-15T15:01:55+0100","end":"2026-01-10T02:00:00+0100","period":"Maandag 5 januari 2026 4:00 uur t/m zaterdag 10 januari 2026 2:00 uur.","impact":{"value":5},"publicationSections":[{"section":{"stations":[{"coordinate":{"lat":52.3877792358398,"lng":4.63833332061768},"countryCode":"NL","name":"Haarlem","stationCode":"HLM","uicCode":"8400285"},{"coordinate":{"lat":52.404167175293,"lng":4.62750005722046},"countryCode":"NL","name":"Bloemendaal","stationCode":"BLL","uicCode":"8400118"},{"coordinate":{"lat":52.4197235107422,"lng":4.63138866424561},"countryCode":"NL","name":"Santpoort Zuid","stationCode":"SPTZ","uicCode":"8400544"},{"coordinate":{"lat":52.4338874816895,"lng":4.63250017166138},"countryCode":"NL","name":"Santpoort Noord","stationCode":"SPTN","uicCode":"8400543"},{"coordinate":{"lat":52.4425010681152,"lng":4.63805532455444},"countryCode":"NL","name":"Driehuis","stationCode":"DRH","uicCode":"8400183"},{"coordinate":{"lat":52.4783325195313,"lng":4.65666675567627},"countryCode":"NL","name":"Beverwijk","stationCode":"BV","uicCode":"8400113"},{"coordinate":{"lat":52.4952774047852,"lng":4.68694448471069},"countryCode":"NL","name":"Heemskerk","stationCode":"HK","uicCode":"8400317"},{"coordinate":{"lat":52.5216674804687,"lng":4.70166683197022},"countryCode":"NL","name":"Uitgeest","stationCode":"UTG","uicCode":"8400615"},{"coordinate":{"lat":52.5458335876465,"lng":4.65861129760742},"countryCode":"NL","name":"Castricum","stationCode":"CAS","uicCode":"8400151"},{"coordinate":{"lat":52.5994453430176,"lng":4.70055532455444},"countryCode":"NL","name":"Heiloo","stationCode":"HLO","uicCode":"8400309"},{"coordinate":{"lat":52.6377792358398,"lng":4.73972225189209},"countryCode":"NL","name":"Alkmaar","stationCode":"AMR","uicCode":"8400050"}],"direction":"BOTH","operators":["NS"]},"consequence":{"section":{"stations":[{"coordinate":{"lat":52.3877792358398,"lng":4.63833332061768},"countryCode":"NL","name":"Haarlem","stationCode":"HLM","uicCode":"8400285"},{"coordinate":{"lat":52.404167175293,"lng":4.62750005722046},"countryCode":"NL","name":"Bloemendaal","stationCode":"BLL","uicCode":"8400118"},{"coordinate":{"lat":52.4197235107422,"lng":4.63138866424561},"countryCode":"NL","name":"Santpoort Zuid","stationCode":"SPTZ","uicCode":"8400544"},{"coordinate":{"lat":52.4338874816895,"lng":4.63250017166138},"countryCode":"NL","name":"Santpoort Noord","stationCode":"SPTN","uicCode":"8400543"},{"coordinate":{"lat":52.4425010681152,"lng":4.63805532455444},"countryCode":"NL","name":"Driehuis","stationCode":"DRH","uicCode":"8400183"},{"coordinate":{"lat":52.4783325195313,"lng":4.65666675567627},"countryCode":"NL","name":"Beverwijk","stationCode":"BV","uicCode":"8400113"}],"direction":"BOTH","operators":["NS"]},"description":"er rijden bussen","level":"LESS_TRAINS"},"sectionType":"NL"}],"summaryAdditionalTravelTime":{"label":"De extra reistijd is ongeveer 30 minuten.","shortLabel":"Extra reistijd 30 min.","minimumDurationInMinutes":30,"maximumDurationInMinutes":30},"timespans":[{"start":"2026-01-05T04:00:00+0100","end":"2026-01-10T02:00:00+0100","period":"Maandag 5 januari 2026 4:00 uur t/m zaterdag 10 januari 2026 2:00 uur.","situation":{"label":"Door werkzaamheden: tussen Haarlem en Beverwijk rijden er bussen."},"cause":{"label":"werkzaamheden","type":"OTHER"},"additionalTravelTime":{"label":"De extra reistijd is ongeveer 30 minuten.","shortLabel":"Extra reistijd 30 min.","minimumDurationInMinutes":30,"maximumDurationInMinutes":30},"alternativeTransport":{"label":"er rijden stop- en snelbussen","shortLabel":"er rijden stop- en snelbussen"},"advices":["Tussen Haarlem en Uitgeest reis via Sloterdijk."]}],"alternativeTransportTimespans":[{"start":"2026-01-05T04:00:00+0100","end":"2026-01-10T02:00:00+0100","alternativeTransport":{"location":[{"station":{"coordinate":{"lat":52.3877792358398,"lng":4.63833332061768},"countryCode":"NL","name":"Haarlem","stationCode":"HLM","uicCode":"8400285"},"description":"vanaf het Kennemerplein"},{"station":{"coordinate":{"lat":52.404167175293,"lng":4.62750005722046},"countryCode":"NL","name":"Bloemendaal","stationCode":"BLL","uicCode":"8400118"},"description":"vanaf de voorzijde van het station"},{"station":{"coordinate":{"lat":52.4338874816895,"lng":4.63250017166138},"countryCode":"NL","name":"Santpoort Noord","stationCode":"SPTN","uicCode":"8400543"},"description":"vanaf de voorzijde van het station"},{"station":{"coordinate":{"lat":52.4197235107422,"lng":4.63138866424561},"countryCode":"NL","name":"Santpoort Zuid","stationCode":"SPTZ","uicCode":"8400544"},"description":"vanaf de voorzijde van het station"},{"station":{"coordinate":{"lat":52.4425010681152,"lng":4.63805532455444},"countryCode":"NL","name":"Driehuis","stationCode":"DRH","uicCode":"8400183"},"description":"vanaf de van den Vondellaan"},{"station":{"coordinate":{"lat":52.4783325195313,"lng":4.65666675567627},"countryCode":"NL","name":"Beverwijk","stationCode":"BV","uicCode":"8400113"},"description":"vanaf het busstation"}],"label":"Er rijden stopbussen tussen Haarlem, Bloemendaal, Santpoort Noord, Santpoort Zuid, Driehuis en Beverwijk.","shortLabel":"Er rijden stopbussen Haarlem - Bloemendaal - Santpoort Noord - Santpoort Zuid - Driehuis - Beverwijk."}},{"start":"2026-01-05T04:00:00+0100","end":"2026-01-10T02:00:00+0100","alternativeTransport":{"location":[{"station":{"coordinate":{"lat":52.4783325195313,"lng":4.65666675567627},"countryCode":"NL","name":"Beverwijk","stationCode":"BV","uicCode":"8400113"},"description":"vanaf het busstation"},{"station":{"coordinate":{"lat":52.3877792358398,"lng":4.63833332061768},"countryCode":"NL","name":"Haarlem","stationCode":"HLM","uicCode":"8400285"},"description":"vanaf het Kennemerplein"}],"label":"Er rijden snelbussen tussen Beverwijk en Haarlem.","shortLabel":"Er rijden snelbussen Beverwijk - Haarlem."}}]},{"type":"MAINTENANCE","id":"7007183","title":"Groningen - Delfzijl; Groningen - Eemshaven.","isActive":false,"local":false,"titleSections":[[{"type":"STATION","value":"Groningen"},{"type":"ICON","value":"MAINTENANCE"},{"type":"STATION","value":"Eemshaven"}],[{"type":"STATION","value":"Groningen"},{"type":"ICON","value":"MAINTENANCE"},{"type":"STATION","value":"Delfzijl"}]],"registrationTime":"2025-12-15T09:27:15+0100","start":"2026-01-08T00:10:00+0100","releaseTime":"2025-12-15T09:27:15+0100","end":"2026-01-08T02:03:00+0100","period":"Donderdag 8 januari 2026 0:10 uur t/m donderdag 8 januari 2026 2:03 uur.","impact":{"value":3},"publicationSections":[{"section":{"stations":[{"coordinate":{"lat":53.2105560302734,"lng":6.56472206115723},"countryCode":"NL","name":"Groningen","stationCode":"GN","uicCode":"8400263"},{"coordinate":{"lat":53.2301469,"lng":6.5563172},"countryCode":"NL","name":"Groningen Noord","stationCode":"GNN","uicCode":"8400264"},{"coordinate":{"lat":53.29113,"lng":6.5404},"countryCode":"NL","name":"Sauwerd","stationCode":"SWD","uicCode":"8400547"},{"coordinate":{"lat":53.3300994,"lng":6.5202905},"countryCode":"NL","name":"Winsum","stationCode":"WSM","uicCode":"8400697"},{"coordinate":{"lat":53.3608969,"lng":6.5185581},"countryCode":"NL","name":"Baflo","stationCode":"BF","uicCode":"8400089"},{"coordinate":{"lat":53.3908431,"lng":6.5671364},"countryCode":"NL","name":"Warffum","stationCode":"WFM","uicCode":"8400679"},{"coordinate":{"lat":53.4014742,"lng":6.6093776},"countryCode":"NL","name":"Usquert","stationCode":"UST","uicCode":"8400619"},{"coordinate":{"lat":53.4099568,"lng":6.6748869},"countryCode":"NL","name":"Uithuizen","stationCode":"UHZ","uicCode":"8400617"},{"coordinate":{"lat":53.4145845,"lng":6.7202975},"countryCode":"NL","name":"Uithuizermeeden","stationCode":"UHM","uicCode":"8400618"},{"coordinate":{"lat":53.421262,"lng":6.7587},"countryCode":"NL","name":"Roodeschool","stationCode":"RD","uicCode":"8400525"},{"coordinate":{"lat":53.458419,"lng":6.832},"countryCode":"NL","name":"Eemshaven","stationCode":"EEM","uicCode":"8400202"}],"direction":"BOTH","operators":["Arriva"]},"consequence":{"section":{"stations":[{"coordinate":{"lat":53.2105560302734,"lng":6.56472206115723},"countryCode":"NL","name":"Groningen","stationCode":"GN","uicCode":"8400263"},{"coordinate":{"lat":53.2301469,"lng":6.5563172},"countryCode":"NL","name":"Groningen Noord","stationCode":"GNN","uicCode":"8400264"},{"coordinate":{"lat":53.29113,"lng":6.5404},"countryCode":"NL","name":"Sauwerd","stationCode":"SWD","uicCode":"8400547"},{"coordinate":{"lat":53.3300994,"lng":6.5202905},"countryCode":"NL","name":"Winsum","stationCode":"WSM","uicCode":"8400697"},{"coordinate":{"lat":53.3608969,"lng":6.5185581},"countryCode":"NL","name":"Baflo","stationCode":"BF","uicCode":"8400089"},{"coordinate":{"lat":53.3908431,"lng":6.5671364},"countryCode":"NL","name":"Warffum","stationCode":"WFM","uicCode":"8400679"},{"coordinate":{"lat":53.4014742,"lng":6.6093776},"countryCode":"NL","name":"Usquert","stationCode":"UST","uicCode":"8400619"},{"coordinate":{"lat":53.4099568,"lng":6.6748869},"countryCode":"NL","name":"Uithuizen","stationCode":"UHZ","uicCode":"8400617"},{"coordinate":{"lat":53.4145845,"lng":6.7202975},"countryCode":"NL","name":"Uithuizermeeden","stationCode":"UHM","uicCode":"8400618"},{"coordinate":{"lat":53.421262,"lng":6.7587},"countryCode":"NL","name":"Roodeschool","stationCode":"RD","uicCode":"8400525"},{"coordinate":{"lat":53.458419,"lng":6.832},"countryCode":"NL","name":"Eemshaven","stationCode":"EEM","uicCode":"8400202"}],"direction":"BOTH","operators":["Arriva"]},"description":"er rijden bussen","level":"LESS_TRAINS"},"sectionType":"NL"},{"section":{"stations":[{"coordinate":{"lat":53.2105560302734,"lng":6.56472206115723},"countryCode":"NL","name":"Groningen","stationCode":"GN","uicCode":"8400263"},{"coordinate":{"lat":53.2301469,"lng":6.5563172},"countryCode":"NL","name":"Groningen Noord","stationCode":"GNN","uicCode":"8400264"},{"coordinate":{"lat":53.29113,"lng":6.5404},"countryCode":"NL","name":"Sauwerd","stationCode":"SWD","uicCode":"8400547"},{"coordinate":{"lat":53.3068857,"lng":6.593054},"countryCode":"NL","name":"Bedum","stationCode":"BDM","uicCode":"8400094"},{"coordinate":{"lat":53.3262092,"lng":6.6875551},"countryCode":"NL","name":"Stedum","stationCode":"STM","uicCode":"8400576"},{"coordinate":{"lat":53.3347145,"lng":6.7472625},"countryCode":"NL","name":"Loppersum","stationCode":"LP","uicCode":"8400403"},{"coordinate":{"lat":53.3258135,"lng":6.8619577},"countryCode":"NL","name":"Appingedam","stationCode":"APG","uicCode":"8400067"},{"coordinate":{"lat":53.3320834,"lng":6.9069092},"countryCode":"NL","name":"Delfzijl West","stationCode":"DZW","uicCode":"8400175"},{"coordinate":{"lat":53.3336625,"lng":6.9240797},"countryCode":"NL","name":"Delfzijl","stationCode":"DZ","uicCode":"8400171"}],"direction":"BOTH","operators":["Arriva"]},"consequence":{"section":{"stations":[{"coordinate":{"lat":53.2105560302734,"lng":6.56472206115723},"countryCode":"NL","name":"Groningen","stationCode":"GN","uicCode":"8400263"},{"coordinate":{"lat":53.2301469,"lng":6.5563172},"countryCode":"NL","name":"Groningen Noord","stationCode":"GNN","uicCode":"8400264"},{"coordinate":{"lat":53.29113,"lng":6.5404},"countryCode":"NL","name":"Sauwerd","stationCode":"SWD","uicCode":"8400547"},{"coordinate":{"lat":53.3068857,"lng":6.593054},"countryCode":"NL","name":"Bedum","stationCode":"BDM","uicCode":"8400094"},{"coordinate":{"lat":53.3262092,"lng":6.6875551},"countryCode":"NL","name":"Stedum","stationCode":"STM","uicCode":"8400576"},{"coordinate":{"lat":53.3347145,"lng":6.7472625},"countryCode":"NL","name":"Loppersum","stationCode":"LP","uicCode":"8400403"},{"coordinate":{"lat":53.3258135,"lng":6.8619577},"countryCode":"NL","name":"Appingedam","stationCode":"APG","uicCode":"8400067"},{"coordinate":{"lat":53.3320834,"lng":6.9069092},"countryCode":"NL","name":"Delfzijl West","stationCode":"DZW","uicCode":"8400175"},{"coordinate":{"lat":53.3336625,"lng":6.9240797},"countryCode":"NL","name":"Delfzijl","stationCode":"DZ","uicCode":"8400171"}],"direction":"BOTH","operators":["Arriva"]},"description":"er rijden bussen","level":"LESS_TRAINS"},"sectionType":"NL"}],"summaryAdditionalTravelTime":{"label":"De extra reistijd ligt tussen 30 en 45 minuten.","shortLabel":"Extra reistijd: 30 - 45 min.","minimumDurationInMinutes":30,"maximumDurationInMinutes":45},"timespans":[{"start":"2026-01-08T00:10:00+0100","end":"2026-01-08T02:03:00+0100","period":"Donderdag 8 januari 2026 0:10 uur t/m donderdag 8 januari 2026 2:03 uur.","situation":{"label":"Door werkzaamheden: tussen Groningen en Eemshaven rijden er bussen en tussen Groningen en Delfzijl rijden er bussen."},"cause":{"label":"werkzaamheden","type":"OTHER"},"additionalTravelTime":{"label":"De extra reistijd ligt tussen 30 en 45 minuten.","shortLabel":"Extra reistijd: 30 - 45 min.","minimumDurationInMinutes":30,"maximumDurationInMinutes":45},"alternativeTransport":{"label":"er rijden stopbussen","shortLabel":"er rijden stopbussen"},"advices":["Bussen tussen Groningen en Delfzijl stoppen niet in Sauwerd"]}],"alternativeTransportTimespans":[{"start":"2026-01-08T00:10:00+0100","end":"2026-01-08T02:03:00+0100","alternativeTransport":{"location":[{"station":{"coordinate":{"lat":53.2105560302734,"lng":6.56472206115723},"countryCode":"NL","name":"Groningen","stationCode":"GN","uicCode":"8400263"},"description":"vanaf het busstation halte AB"},{"station":{"coordinate":{"lat":53.2301469,"lng":6.5563172},"countryCode":"NL","name":"Groningen Noord","stationCode":"GNN","uicCode":"8400264"},"description":"vanaf de bushalte"},{"station":{"coordinate":{"lat":53.29113,"lng":6.5404},"countryCode":"NL","name":"Sauwerd","stationCode":"SWD","uicCode":"8400547"},"description":"vanaf de voorzijde van het station"},{"station":{"coordinate":{"lat":53.3300994,"lng":6.5202905},"countryCode":"NL","name":"Winsum","stationCode":"WSM","uicCode":"8400697"},"description":"vanaf het busstation"},{"station":{"coordinate":{"lat":53.3608969,"lng":6.5185581},"countryCode":"NL","name":"Baflo","stationCode":"BF","uicCode":"8400089"},"description":"vanaf de voorzijde van het station"},{"station":{"coordinate":{"lat":53.3908431,"lng":6.5671364},"countryCode":"NL","name":"Warffum","stationCode":"WFM","uicCode":"8400679"},"description":"vanaf het Stationsplein"},{"station":{"coordinate":{"lat":53.4014742,"lng":6.6093776},"countryCode":"NL","name":"Usquert","stationCode":"UST","uicCode":"8400619"},"description":"vanaf het Stationsplein"},{"station":{"coordinate":{"lat":53.4099568,"lng":6.6748869},"countryCode":"NL","name":"Uithuizen","stationCode":"UHZ","uicCode":"8400617"},"description":"vanaf de voorzijde van het station"}],"label":"Er rijden stopbussen tussen Groningen, Groningen Noord, Sauwerd, Winsum, Baflo, Warffum, Usquert en Uithuizen.","shortLabel":"Er rijden stopbussen Groningen - Groningen Noord - Sauwerd - Winsum - Baflo - Warffum - Usquert - Uithuizen."}},{"start":"2026-01-08T00:10:00+0100","end":"2026-01-08T02:03:00+0100","alternativeTransport":{"location":[{"station":{"coordinate":{"lat":53.2105560302734,"lng":6.56472206115723},"countryCode":"NL","name":"Groningen","stationCode":"GN","uicCode":"8400263"},"description":"vanaf het busstation halte AB"},{"station":{"coordinate":{"lat":53.2301469,"lng":6.5563172},"countryCode":"NL","name":"Groningen Noord","stationCode":"GNN","uicCode":"8400264"},"description":"vanaf de bushalte"},{"station":{"coordinate":{"lat":53.3068857,"lng":6.593054},"countryCode":"NL","name":"Bedum","stationCode":"BDM","uicCode":"8400094"},"description":"vanaf de voorzijde van het station"},{"station":{"coordinate":{"lat":53.3262092,"lng":6.6875551},"countryCode":"NL","name":"Stedum","stationCode":"STM","uicCode":"8400576"},"description":"vanaf de voorzijde van het station"},{"station":{"coordinate":{"lat":53.3347145,"lng":6.7472625},"countryCode":"NL","name":"Loppersum","stationCode":"LP","uicCode":"8400403"},"description":"vanaf het busstation"},{"station":{"coordinate":{"lat":53.3258135,"lng":6.8619577},"countryCode":"NL","name":"Appingedam","stationCode":"APG","uicCode":"8400067"},"description":"vanaf het busstation"},{"station":{"coordinate":{"lat":53.3320834,"lng":6.9069092},"countryCode":"NL","name":"Delfzijl West","stationCode":"DZW","uicCode":"8400175"},"description":"vanaf de bushalte"},{"station":{"coordinate":{"lat":53.3336625,"lng":6.9240797},"countryCode":"NL","name":"Delfzijl","stationCode":"DZ","uicCode":"8400171"},"description":"vanaf het busstation"}],"label":"Er rijden stopbussen tussen Groningen, Groningen Noord, Bedum, Stedum, Loppersum, Appingedam, Delfzijl West en Delfzijl.","shortLabel":"Er rijden stopbussen Groningen - Groningen Noord - Bedum - Stedum - Loppersum - Appingedam - Delfzijl West - Delfzijl."}}]},{"type":"MAINTENANCE","id":"7007308","title":"Groningen - Bad Nieuweschans.","isActive":false,"local":false,"titleSections":[[{"type":"STATION","value":"Groningen"},{"type":"ICON","value":"MAINTENANCE"},{"type":"STATION","value":"Bad Nieuweschans"}]],"registrationTime":"2025-12-15T10:09:30+0100","start":"2026-01-08T00:10:00+0100","releaseTime":"2025-12-15T10:09:38+0100","end":"2026-01-08T02:16:00+0100","period":"Donderdag 8 januari 2026 0:10 uur t/m donderdag 8 januari 2026 2:16 uur.","impact":{"value":3},"publicationSections":[{"section":{"stations":[{"coordinate":{"lat":53.2105560302734,"lng":6.56472206115723},"countryCode":"NL","name":"Groningen","stationCode":"GN","uicCode":"8400263"},{"coordinate":{"lat":53.20480027,"lng":6.5854178},"countryCode":"NL","name":"Groningen Europapark","stationCode":"GERP","uicCode":"8400238"},{"coordinate":{"lat":53.1617362,"lng":6.7220882},"countryCode":"NL","name":"Kropswolde","stationCode":"KW","uicCode":"8400369"},{"coordinate":{"lat":53.1607232,"lng":6.7402989},"countryCode":"NL","name":"Martenshoek","stationCode":"MTH","uicCode":"8400430"},{"coordinate":{"lat":53.1598181316756,"lng":6.77075386047363},"countryCode":"NL","name":"Hoogezand-Sappemeer","stationCode":"HGZ","uicCode":"8400331"},{"coordinate":{"lat":53.1596122800056,"lng":6.8679141998291},"countryCode":"NL","name":"Zuidbroek","stationCode":"ZB","uicCode":"8400742"},{"coordinate":{"lat":53.1655362,"lng":6.9777775},"countryCode":"NL","name":"Scheemda","stationCode":"SDA","uicCode":"8400551"},{"coordinate":{"lat":53.1392377,"lng":7.035101},"countryCode":"NL","name":"Winschoten","stationCode":"WS","uicCode":"8400696"},{"coordinate":{"lat":53.1844,"lng":7.19937},"countryCode":"NL","name":"Bad Nieuweschans","stationCode":"NSCH","uicCode":"8400457"}],"direction":"BOTH","operators":["Arriva"]},"consequence":{"section":{"stations":[{"coordinate":{"lat":53.2105560302734,"lng":6.56472206115723},"countryCode":"NL","name":"Groningen","stationCode":"GN","uicCode":"8400263"},{"coordinate":{"lat":53.20480027,"lng":6.5854178},"countryCode":"NL","name":"Groningen Europapark","stationCode":"GERP","uicCode":"8400238"},{"coordinate":{"lat":53.1617362,"lng":6.7220882},"countryCode":"NL","name":"Kropswolde","stationCode":"KW","uicCode":"8400369"},{"coordinate":{"lat":53.1607232,"lng":6.7402989},"countryCode":"NL","name":"Martenshoek","stationCode":"MTH","uicCode":"8400430"},{"coordinate":{"lat":53.1598181316756,"lng":6.77075386047363},"countryCode":"NL","name":"Hoogezand-Sappemeer","stationCode":"HGZ","uicCode":"8400331"},{"coordinate":{"lat":53.1596122800056,"lng":6.8679141998291},"countryCode":"NL","name":"Zuidbroek","stationCode":"ZB","uicCode":"8400742"},{"coordinate":{"lat":53.1655362,"lng":6.9777775},"countryCode":"NL","name":"Scheemda","stationCode":"SDA","uicCode":"8400551"},{"coordinate":{"lat":53.1392377,"lng":7.035101},"countryCode":"NL","name":"Winschoten","stationCode":"WS","uicCode":"8400696"},{"coordinate":{"lat":53.1844,"lng":7.19937},"countryCode":"NL","name":"Bad Nieuweschans","stationCode":"NSCH","uicCode":"8400457"}],"direction":"BOTH","operators":["Arriva"]},"description":"er rijden bussen","level":"LESS_TRAINS"},"sectionType":"NL"}],"summaryAdditionalTravelTime":{"label":"De extra reistijd is ongeveer 30 minuten.","shortLabel":"Extra reistijd 30 min.","minimumDurationInMinutes":30,"maximumDurationInMinutes":30},"timespans":[{"start":"2026-01-08T00:10:00+0100","end":"2026-01-08T02:16:00+0100","period":"Donderdag 8 januari 2026 0:10 uur t/m donderdag 8 januari 2026 2:16 uur.","situation":{"label":"Door werkzaamheden: tussen Groningen en Bad Nieuweschans rijden er bussen."},"cause":{"label":"werkzaamheden","type":"OTHER"},"additionalTravelTime":{"label":"De extra reistijd is ongeveer 30 minuten.","shortLabel":"Extra reistijd 30 min.","minimumDurationInMinutes":30,"maximumDurationInMinutes":30},"alternativeTransport":{"label":"er rijden stopbussen","shortLabel":"er rijden stopbussen"},"advices":[]}],"alternativeTransportTimespans":[{"start":"2026-01-08T00:10:00+0100","end":"2026-01-08T02:16:00+0100","alternativeTransport":{"location":[{"station":{"coordinate":{"lat":53.2105560302734,"lng":6.56472206115723},"countryCode":"NL","name":"Groningen","stationCode":"GN","uicCode":"8400263"},"description":"vanaf het busstation halte AB"},{"station":{"coordinate":{"lat":53.20480027,"lng":6.5854178},"countryCode":"NL","name":"Groningen Europapark","stationCode":"GERP","uicCode":"8400238"},"description":"vanaf de bushalte"},{"station":{"coordinate":{"lat":53.1617362,"lng":6.7220882},"countryCode":"NL","name":"Kropswolde","stationCode":"KW","uicCode":"8400369"},"description":"vanaf de provinciale weg"},{"station":{"coordinate":{"lat":53.1607232,"lng":6.7402989},"countryCode":"NL","name":"Martenshoek","stationCode":"MTH","uicCode":"8400430"},"description":"vanaf de bushalte"},{"station":{"coordinate":{"lat":53.1598181316756,"lng":6.77075386047363},"countryCode":"NL","name":"Hoogezand-Sappemeer","stationCode":"HGZ","uicCode":"8400331"},"description":"vanaf de voorzijde van het station"},{"station":{"coordinate":{"lat":53.1596122800056,"lng":6.8679141998291},"countryCode":"NL","name":"Zuidbroek","stationCode":"ZB","uicCode":"8400742"},"description":"vanaf de bushalte"},{"station":{"coordinate":{"lat":53.10324,"lng":6.88475},"countryCode":"NL","name":"Veendam","stationCode":"VDM","uicCode":"8400636"},"description":"vanaf de voorzijde van het station"},{"station":{"coordinate":{"lat":53.1655362,"lng":6.9777775},"countryCode":"NL","name":"Scheemda","stationCode":"SDA","uicCode":"8400551"},"description":"vanaf de bushalte"},{"station":{"coordinate":{"lat":53.1392377,"lng":7.035101},"countryCode":"NL","name":"Winschoten","stationCode":"WS","uicCode":"8400696"},"description":"vanaf het busstation"},{"station":{"coordinate":{"lat":53.1844,"lng":7.19937},"countryCode":"NL","name":"Bad Nieuweschans","stationCode":"NSCH","uicCode":"8400457"},"description":"vanaf de voorzijde van het station"}],"label":"Er rijden stopbussen tussen Groningen, Groningen Europapark, Kropswolde, Martenshoek, Hoogezand-Sappemeer, Zuidbroek, Veendam, Scheemda, Winschoten en Bad Nieuweschans.","shortLabel":"Er rijden stopbussen Groningen - Europapark - Kropswolde - Martenshoek - Hoogezand-Sap. - Zuidbroek - Veendam - Scheemda - Winschoten - Bad Nieuweschans."}}]},{"type":"MAINTENANCE","id":"7007307","title":"Groningen - Veendam.","isActive":false,"local":false,"titleSections":[[{"type":"STATION","value":"Groningen"},{"type":"ICON","value":"MAINTENANCE"},{"type":"STATION","value":"Veendam"}]],"registrationTime":"2025-12-15T09:48:26+0100","start":"2026-01-08T00:40:00+0100","releaseTime":"2025-12-15T09:48:26+0100","end":"2026-01-08T01:46:00+0100","period":"Donderdag 8 januari 2026 0:40 uur t/m donderdag 8 januari 2026 1:46 uur.","impact":{"value":3},"publicationSections":[{"section":{"stations":[{"coordinate":{"lat":53.2105560302734,"lng":6.56472206115723},"countryCode":"NL","name":"Groningen","stationCode":"GN","uicCode":"8400263"},{"coordinate":{"lat":53.20480027,"lng":6.5854178},"countryCode":"NL","name":"Groningen Europapark","stationCode":"GERP","uicCode":"8400238"},{"coordinate":{"lat":53.1617362,"lng":6.7220882},"countryCode":"NL","name":"Kropswolde","stationCode":"KW","uicCode":"8400369"},{"coordinate":{"lat":53.1607232,"lng":6.7402989},"countryCode":"NL","name":"Martenshoek","stationCode":"MTH","uicCode":"8400430"},{"coordinate":{"lat":53.1598181316756,"lng":6.77075386047363},"countryCode":"NL","name":"Hoogezand-Sappemeer","stationCode":"HGZ","uicCode":"8400331"},{"coordinate":{"lat":53.1596122800056,"lng":6.8679141998291},"countryCode":"NL","name":"Zuidbroek","stationCode":"ZB","uicCode":"8400742"},{"coordinate":{"lat":53.10324,"lng":6.88475},"countryCode":"NL","name":"Veendam","stationCode":"VDM","uicCode":"8400636"}],"direction":"BOTH","operators":["Arriva"]},"consequence":{"section":{"stations":[{"coordinate":{"lat":53.2105560302734,"lng":6.56472206115723},"countryCode":"NL","name":"Groningen","stationCode":"GN","uicCode":"8400263"},{"coordinate":{"lat":53.20480027,"lng":6.5854178},"countryCode":"NL","name":"Groningen Europapark","stationCode":"GERP","uicCode":"8400238"},{"coordinate":{"lat":53.1617362,"lng":6.7220882},"countryCode":"NL","name":"Kropswolde","stationCode":"KW","uicCode":"8400369"},{"coordinate":{"lat":53.1607232,"lng":6.7402989},"countryCode":"NL","name":"Martenshoek","stationCode":"MTH","uicCode":"8400430"},{"coordinate":{"lat":53.1598181316756,"lng":6.77075386047363},"countryCode":"NL","name":"Hoogezand-Sappemeer","stationCode":"HGZ","uicCode":"8400331"},{"coordinate":{"lat":53.1596122800056,"lng":6.8679141998291},"countryCode":"NL","name":"Zuidbroek","stationCode":"ZB","uicCode":"8400742"},{"coordinate":{"lat":53.10324,"lng":6.88475},"countryCode":"NL","name":"Veendam","stationCode":"VDM","uicCode":"8400636"}],"direction":"BOTH","operators":["Arriva"]},"description":"er rijden bussen","level":"LESS_TRAINS"},"sectionType":"NL"}],"summaryAdditionalTravelTime":{"label":"De extra reistijd is ongeveer 30 minuten.","shortLabel":"Extra reistijd 30 min.","minimumDurationInMinutes":30,"maximumDurationInMinutes":30},"timespans":[{"start":"2026-01-08T00:40:00+0100","end":"2026-01-08T01:46:00+0100","period":"Donderdag 8 januari 2026 0:40 uur t/m donderdag 8 januari 2026 1:46 uur.","situation":{"label":"Door werkzaamheden: tussen Groningen en Veendam rijden er bussen."},"cause":{"label":"werkzaamheden","type":"OTHER"},"additionalTravelTime":{"label":"De extra reistijd is ongeveer 30 minuten.","shortLabel":"Extra reistijd 30 min.","minimumDurationInMinutes":30,"maximumDurationInMinutes":30},"alternativeTransport":{"label":"er rijden stopbussen","shortLabel":"er rijden stopbussen"},"advices":[]}],"alternativeTransportTimespans":[{"start":"2026-01-08T00:40:00+0100","end":"2026-01-08T01:46:00+0100","alternativeTransport":{"location":[{"station":{"coordinate":{"lat":53.2105560302734,"lng":6.56472206115723},"countryCode":"NL","name":"Groningen","stationCode":"GN","uicCode":"8400263"},"description":"vanaf het busstation halte AB"},{"station":{"coordinate":{"lat":53.20480027,"lng":6.5854178},"countryCode":"NL","name":"Groningen Europapark","stationCode":"GERP","uicCode":"8400238"},"description":"vanaf de bushalte"},{"station":{"coordinate":{"lat":53.1617362,"lng":6.7220882},"countryCode":"NL","name":"Kropswolde","stationCode":"KW","uicCode":"8400369"},"description":"vanaf de provinciale weg"},{"station":{"coordinate":{"lat":53.1607232,"lng":6.7402989},"countryCode":"NL","name":"Martenshoek","stationCode":"MTH","uicCode":"8400430"},"description":"vanaf de bushalte"},{"station":{"coordinate":{"lat":53.1598181316756,"lng":6.77075386047363},"countryCode":"NL","name":"Hoogezand-Sappemeer","stationCode":"HGZ","uicCode":"8400331"},"description":"vanaf de voorzijde van het station"},{"station":{"coordinate":{"lat":53.1596122800056,"lng":6.8679141998291},"countryCode":"NL","name":"Zuidbroek","stationCode":"ZB","uicCode":"8400742"},"description":"vanaf de bushalte"},{"station":{"coordinate":{"lat":53.10324,"lng":6.88475},"countryCode":"NL","name":"Veendam","stationCode":"VDM","uicCode":"8400636"},"description":"vanaf de voorzijde van het station"}],"label":"Er rijden stopbussen tussen Groningen, Groningen Europapark, Kropswolde, Martenshoek, Hoogezand-Sappemeer, Zuidbroek en Veendam.","shortLabel":"Er rijden stopbussen Groningen - Europapark - Kropswolde - Martenshoek - Hoogezand-Sap. - Zuidbroek - Veendam."}}]},{"type":"MAINTENANCE","id":"7007172","title":"Zwolle - Assen - Groningen.","isActive":false,"local":false,"titleSections":[[{"type":"STATION","value":"Zwolle"},{"type":"ICON","value":"MAINTENANCE"},{"type":"STATION","value":"Groningen"}]],"registrationTime":"2025-12-15T09:28:10+0100","start":"2026-01-08T01:00:00+0100","releaseTime":"2025-12-15T09:28:10+0100","end":"2026-01-08T05:00:00+0100","period":"Donderdag 8 januari 2026 1:00 uur t/m donderdag 8 januari 2026 5:00 uur.","impact":{"value":2},"publicationSections":[{"section":{"stations":[{"coordinate":{"lat":52.5047225952148,"lng":6.09194421768188},"countryCode":"NL","name":"Zwolle","stationCode":"ZL","uicCode":"8400747"},{"coordinate":{"lat":52.6908340454102,"lng":6.19750022888184},"countryCode":"NL","name":"Meppel","stationCode":"MP","uicCode":"8400435"},{"coordinate":{"lat":52.7338905334473,"lng":6.47361087799072},"countryCode":"NL","name":"Hoogeveen","stationCode":"HGV","uicCode":"8400330"},{"coordinate":{"lat":52.8547210693359,"lng":6.52111101150513},"countryCode":"NL","name":"Beilen","stationCode":"BL","uicCode":"8400100"},{"coordinate":{"lat":52.9916648864746,"lng":6.57083320617676},"countryCode":"NL","name":"Assen","stationCode":"ASN","uicCode":"8400073"},{"coordinate":{"lat":53.1761093139648,"lng":6.61722230911255},"countryCode":"NL","name":"Haren","stationCode":"HRN","uicCode":"8400297"},{"coordinate":{"lat":53.20480027,"lng":6.5854178},"countryCode":"NL","name":"Groningen Europapark","stationCode":"GERP","uicCode":"8400238"},{"coordinate":{"lat":53.2105560302734,"lng":6.56472206115723},"countryCode":"NL","name":"Groningen","stationCode":"GN","uicCode":"8400263"}],"direction":"ONE_WAY","operators":["Arriva"]},"consequence":{"section":{"stations":[{"coordinate":{"lat":52.5047225952148,"lng":6.09194421768188},"countryCode":"NL","name":"Zwolle","stationCode":"ZL","uicCode":"8400747"},{"coordinate":{"lat":52.6908340454102,"lng":6.19750022888184},"countryCode":"NL","name":"Meppel","stationCode":"MP","uicCode":"8400435"},{"coordinate":{"lat":52.7338905334473,"lng":6.47361087799072},"countryCode":"NL","name":"Hoogeveen","stationCode":"HGV","uicCode":"8400330"},{"coordinate":{"lat":52.8547210693359,"lng":6.52111101150513},"countryCode":"NL","name":"Beilen","stationCode":"BL","uicCode":"8400100"},{"coordinate":{"lat":52.9916648864746,"lng":6.57083320617676},"countryCode":"NL","name":"Assen","stationCode":"ASN","uicCode":"8400073"},{"coordinate":{"lat":53.1761093139648,"lng":6.61722230911255},"countryCode":"NL","name":"Haren","stationCode":"HRN","uicCode":"8400297"},{"coordinate":{"lat":53.20480027,"lng":6.5854178},"countryCode":"NL","name":"Groningen Europapark","stationCode":"GERP","uicCode":"8400238"},{"coordinate":{"lat":53.2105560302734,"lng":6.56472206115723},"countryCode":"NL","name":"Groningen","stationCode":"GN","uicCode":"8400263"}],"direction":"ONE_WAY","operators":["Arriva"]},"description":"dienstregeling aangepast","level":"LESS_TRAINS"},"sectionType":"NL"}],"timespans":[{"start":"2026-01-08T01:00:00+0100","end":"2026-01-08T05:00:00+0100","period":"Donderdag 8 januari 2026 1:00 uur t/m donderdag 8 januari 2026 5:00 uur.","situation":{"label":"Door werkzaamheden: van Groningen naar Zwolle is de dienstregeling aangepast."},"cause":{"label":"werkzaamheden","type":"OTHER"},"alternativeTransport":{"label":"er rijden stopbussen","shortLabel":"er rijden stopbussen"},"advices":[]}],"alternativeTransportTimespans":[{"start":"2026-01-08T01:00:00+0100","end":"2026-01-08T05:00:00+0100","alternativeTransport":{"location":[{"station":{"coordinate":{"lat":52.9916648864746,"lng":6.57083320617676},"countryCode":"NL","name":"Assen","stationCode":"ASN","uicCode":"8400073"},"description":"vanaf het busstation"},{"station":{"coordinate":{"lat":53.1761093139648,"lng":6.61722230911255},"countryCode":"NL","name":"Haren","stationCode":"HRN","uicCode":"8400297"},"description":"vanaf de doorgaande weg"},{"station":{"coordinate":{"lat":53.20480027,"lng":6.5854178},"countryCode":"NL","name":"Groningen Europapark","stationCode":"GERP","uicCode":"8400238"},"description":"vanaf de bushalte"},{"station":{"coordinate":{"lat":53.2105560302734,"lng":6.56472206115723},"countryCode":"NL","name":"Groningen","stationCode":"GN","uicCode":"8400263"},"description":"vanaf de voorzijde van het station"}],"label":"Er rijden stopbussen tussen Assen, Haren, Groningen Europapark en Groningen.","shortLabel":"Er rijden stopbussen Assen - Haren - Europapark - Groningen."}}]},{"type":"MAINTENANCE","id":"7007306","title":"Groningen - Leeuwarden.","isActive":false,"local":false,"titleSections":[[{"type":"STATION","value":"Groningen"},{"type":"ICON","value":"MAINTENANCE"},{"type":"STATION","value":"Zuidhorn"},{"type":"STATION","value":"Leeuwarden"}]],"registrationTime":"2025-12-15T09:32:40+0100","start":"2026-01-08T01:27:00+0100","releaseTime":"2025-12-15T09:32:40+0100","end":"2026-01-08T01:47:00+0100","period":"Donderdag 8 januari 2026 1:27 uur t/m donderdag 8 januari 2026 1:47 uur.","impact":{"value":3},"publicationSections":[{"section":{"stations":[{"coordinate":{"lat":53.2105560302734,"lng":6.56472206115723},"countryCode":"NL","name":"Groningen","stationCode":"GN","uicCode":"8400263"},{"coordinate":{"lat":53.2486292,"lng":6.4062361},"countryCode":"NL","name":"Zuidhorn","stationCode":"ZH","uicCode":"8400743"},{"coordinate":{"lat":53.2557403255735,"lng":6.30977869033813},"countryCode":"NL","name":"Grijpskerk","stationCode":"GK","uicCode":"8400267"},{"coordinate":{"lat":53.2564547,"lng":6.1446496},"countryCode":"NL","name":"Buitenpost","stationCode":"BP","uicCode":"8400139"},{"coordinate":{"lat":53.24817,"lng":6.03463},"countryCode":"NL","name":"De Westereen","stationCode":"DWE","uicCode":"8400745"},{"coordinate":{"lat":53.2351834,"lng":5.9886615},"countryCode":"NL","name":"Feanwâlden","stationCode":"FWD","uicCode":"8400638"},{"coordinate":{"lat":53.2187783,"lng":5.934543},"countryCode":"NL","name":"Hurdegaryp","stationCode":"HDG","uicCode":"8400292"},{"coordinate":{"lat":53.2021808,"lng":5.8422968},"countryCode":"NL","name":"Leeuwarden Camminghaburen","stationCode":"LWC","uicCode":"8400389"},{"coordinate":{"lat":53.1958351135254,"lng":5.79222202301025},"countryCode":"NL","name":"Leeuwarden","stationCode":"LW","uicCode":"8400387"}],"direction":"ONE_WAY","operators":["Arriva"]},"consequence":{"section":{"stations":[{"coordinate":{"lat":53.2105560302734,"lng":6.56472206115723},"countryCode":"NL","name":"Groningen","stationCode":"GN","uicCode":"8400263"},{"coordinate":{"lat":53.2486292,"lng":6.4062361},"countryCode":"NL","name":"Zuidhorn","stationCode":"ZH","uicCode":"8400743"}],"direction":"ONE_WAY","operators":["Arriva"]},"description":"er rijden bussen","level":"LESS_TRAINS"},"sectionType":"NL"}],"summaryAdditionalTravelTime":{"label":"De extra reistijd is ongeveer 30 minuten.","shortLabel":"Extra reistijd 30 min.","minimumDurationInMinutes":30,"maximumDurationInMinutes":30},"timespans":[{"start":"2026-01-08T01:27:00+0100","end":"2026-01-08T01:47:00+0100","period":"Donderdag 8 januari 2026 1:27 uur t/m donderdag 8 januari 2026 1:47 uur.","situation":{"label":"Door werkzaamheden: van Zuidhorn naar Groningen rijden er bussen."},"cause":{"label":"werkzaamheden","type":"OTHER"},"additionalTravelTime":{"label":"De extra reistijd is ongeveer 30 minuten.","shortLabel":"Extra reistijd 30 min.","minimumDurationInMinutes":30,"maximumDurationInMinutes":30},"alternativeTransport":{"label":"er rijden stopbussen","shortLabel":"er rijden stopbussen"},"advices":[]}],"alternativeTransportTimespans":[{"start":"2026-01-08T01:27:00+0100","end":"2026-01-08T01:47:00+0100","alternativeTransport":{"location":[{"station":{"coordinate":{"lat":53.2486292,"lng":6.4062361},"countryCode":"NL","name":"Zuidhorn","stationCode":"ZH","uicCode":"8400743"},"description":"vanaf het busstation"},{"station":{"coordinate":{"lat":53.2105560302734,"lng":6.56472206115723},"countryCode":"NL","name":"Groningen","stationCode":"GN","uicCode":"8400263"},"description":"vanaf het busstation halte AB"}],"label":"Er rijden stopbussen van Zuidhorn naar Groningen.","shortLabel":"Er rijden stopbussen Zuidhorn -> Groningen."}}]},{"type":"MAINTENANCE","id":"7006800","title":"Amsterdam - Enkhuizen.","isActive":false,"local":false,"titleSections":[[{"type":"STATION","value":"Amsterdam C."},{"type":"STATION","value":"Zaandam"},{"type":"ICON","value":"MAINTENANCE"},{"type":"STATION","value":"Hoogkarspel"},{"type":"STATION","value":"Enkhuizen"}],[{"type":"STATION","value":"Amsterdam C."},{"type":"STATION","value":"Zaandam"},{"type":"ICON","value":"MAINTENANCE"},{"type":"STATION","value":"Hoorn"},{"type":"STATION","value":"Enkhuizen"}]],"registrationTime":"2025-12-08T17:13:46+0100","start":"2026-01-09T01:00:00+0100","releaseTime":"2025-12-08T17:13:46+0100","end":"2026-01-19T02:00:00+0100","period":"Vrijdag 9 januari 2026 1:00 uur t/m maandag 19 januari 2026 2:00 uur.","impact":{"value":5},"publicationSections":[{"section":{"stations":[{"coordinate":{"lat":52.3788871765137,"lng":4.90027761459351},"countryCode":"NL","name":"Amsterdam Centraal","stationCode":"ASD","uicCode":"8400058"},{"coordinate":{"lat":52.3888893127441,"lng":4.83777761459351},"countryCode":"NL","name":"Amsterdam Sloterdijk","stationCode":"ASS","uicCode":"8400059"},{"coordinate":{"lat":52.4388885498047,"lng":4.81361103057861},"countryCode":"NL","name":"Zaandam","stationCode":"ZD","uicCode":"8400731"},{"coordinate":{"lat":52.4566650390625,"lng":4.82027769088745},"countryCode":"NL","name":"Zaandam Kogerveld","stationCode":"ZDK","uicCode":"8400728"},{"coordinate":{"lat":52.4965906325416,"lng":4.93562936782836},"countryCode":"NL","name":"Purmerend Weidevenne","stationCode":"PMW","uicCode":"8400499"},{"coordinate":{"lat":52.5030555725098,"lng":4.95361089706421},"countryCode":"NL","name":"Purmerend","stationCode":"PMR","uicCode":"8400508"},{"coordinate":{"lat":52.5113906860352,"lng":4.96833324432373},"countryCode":"NL","name":"Purmerend Overwhere","stationCode":"PMO","uicCode":"8400506"},{"coordinate":{"lat":52.6447219848633,"lng":5.05555534362793},"countryCode":"NL","name":"Hoorn","stationCode":"HN","uicCode":"8400337"},{"coordinate":{"lat":52.6536102294922,"lng":5.08555555343628},"countryCode":"NL","name":"Hoorn Kersenboogerd","stationCode":"HNK","uicCode":"8400336"},{"coordinate":{"lat":52.6905555725098,"lng":5.18388891220093},"countryCode":"NL","name":"Hoogkarspel","stationCode":"HKS","uicCode":"8400334"},{"coordinate":{"lat":52.6949996948242,"lng":5.23777770996094},"countryCode":"NL","name":"Bovenkarspel-Grootebroek","stationCode":"BKG","uicCode":"8400127"},{"coordinate":{"lat":52.6961097717285,"lng":5.25277757644653},"countryCode":"NL","name":"Bovenkarspel Flora","stationCode":"BKF","uicCode":"8400230"},{"coordinate":{"lat":52.6991653442383,"lng":5.28638887405396},"countryCode":"NL","name":"Enkhuizen","stationCode":"EKZ","uicCode":"8400210"}],"direction":"BOTH","operators":["NS"]},"consequence":{"section":{"stations":[{"coordinate":{"lat":52.4388885498047,"lng":4.81361103057861},"countryCode":"NL","name":"Zaandam","stationCode":"ZD","uicCode":"8400731"},{"coordinate":{"lat":52.4566650390625,"lng":4.82027769088745},"countryCode":"NL","name":"Zaandam Kogerveld","stationCode":"ZDK","uicCode":"8400728"},{"coordinate":{"lat":52.4965906325416,"lng":4.93562936782836},"countryCode":"NL","name":"Purmerend Weidevenne","stationCode":"PMW","uicCode":"8400499"},{"coordinate":{"lat":52.5030555725098,"lng":4.95361089706421},"countryCode":"NL","name":"Purmerend","stationCode":"PMR","uicCode":"8400508"},{"coordinate":{"lat":52.5113906860352,"lng":4.96833324432373},"countryCode":"NL","name":"Purmerend Overwhere","stationCode":"PMO","uicCode":"8400506"},{"coordinate":{"lat":52.6447219848633,"lng":5.05555534362793},"countryCode":"NL","name":"Hoorn","stationCode":"HN","uicCode":"8400337"},{"coordinate":{"lat":52.6536102294922,"lng":5.08555555343628},"countryCode":"NL","name":"Hoorn Kersenboogerd","stationCode":"HNK","uicCode":"8400336"},{"coordinate":{"lat":52.6905555725098,"lng":5.18388891220093},"countryCode":"NL","name":"Hoogkarspel","stationCode":"HKS","uicCode":"8400334"}],"direction":"BOTH","operators":["NS"]},"description":"er rijden bussen","level":"LESS_TRAINS"},"sectionType":"NL"},{"section":{"stations":[{"coordinate":{"lat":52.3788871765137,"lng":4.90027761459351},"countryCode":"NL","name":"Amsterdam Centraal","stationCode":"ASD","uicCode":"8400058"},{"coordinate":{"lat":52.3888893127441,"lng":4.83777761459351},"countryCode":"NL","name":"Amsterdam Sloterdijk","stationCode":"ASS","uicCode":"8400059"},{"coordinate":{"lat":52.4388885498047,"lng":4.81361103057861},"countryCode":"NL","name":"Zaandam","stationCode":"ZD","uicCode":"8400731"},{"coordinate":{"lat":52.4566650390625,"lng":4.82027769088745},"countryCode":"NL","name":"Zaandam Kogerveld","stationCode":"ZDK","uicCode":"8400728"},{"coordinate":{"lat":52.4965906325416,"lng":4.93562936782836},"countryCode":"NL","name":"Purmerend Weidevenne","stationCode":"PMW","uicCode":"8400499"},{"coordinate":{"lat":52.5030555725098,"lng":4.95361089706421},"countryCode":"NL","name":"Purmerend","stationCode":"PMR","uicCode":"8400508"},{"coordinate":{"lat":52.5113906860352,"lng":4.96833324432373},"countryCode":"NL","name":"Purmerend Overwhere","stationCode":"PMO","uicCode":"8400506"},{"coordinate":{"lat":52.6447219848633,"lng":5.05555534362793},"countryCode":"NL","name":"Hoorn","stationCode":"HN","uicCode":"8400337"},{"coordinate":{"lat":52.6536102294922,"lng":5.08555555343628},"countryCode":"NL","name":"Hoorn Kersenboogerd","stationCode":"HNK","uicCode":"8400336"},{"coordinate":{"lat":52.6905555725098,"lng":5.18388891220093},"countryCode":"NL","name":"Hoogkarspel","stationCode":"HKS","uicCode":"8400334"},{"coordinate":{"lat":52.6949996948242,"lng":5.23777770996094},"countryCode":"NL","name":"Bovenkarspel-Grootebroek","stationCode":"BKG","uicCode":"8400127"},{"coordinate":{"lat":52.6961097717285,"lng":5.25277757644653},"countryCode":"NL","name":"Bovenkarspel Flora","stationCode":"BKF","uicCode":"8400230"},{"coordinate":{"lat":52.6991653442383,"lng":5.28638887405396},"countryCode":"NL","name":"Enkhuizen","stationCode":"EKZ","uicCode":"8400210"}],"direction":"BOTH","operators":["NS"]},"consequence":{"section":{"stations":[{"coordinate":{"lat":52.4388885498047,"lng":4.81361103057861},"countryCode":"NL","name":"Zaandam","stationCode":"ZD","uicCode":"8400731"},{"coordinate":{"lat":52.4566650390625,"lng":4.82027769088745},"countryCode":"NL","name":"Zaandam Kogerveld","stationCode":"ZDK","uicCode":"8400728"},{"coordinate":{"lat":52.4965906325416,"lng":4.93562936782836},"countryCode":"NL","name":"Purmerend Weidevenne","stationCode":"PMW","uicCode":"8400499"},{"coordinate":{"lat":52.5030555725098,"lng":4.95361089706421},"countryCode":"NL","name":"Purmerend","stationCode":"PMR","uicCode":"8400508"},{"coordinate":{"lat":52.5113906860352,"lng":4.96833324432373},"countryCode":"NL","name":"Purmerend Overwhere","stationCode":"PMO","uicCode":"8400506"},{"coordinate":{"lat":52.6447219848633,"lng":5.05555534362793},"countryCode":"NL","name":"Hoorn","stationCode":"HN","uicCode":"8400337"}],"direction":"BOTH","operators":["NS"]},"description":"er rijden bussen","level":"LESS_TRAINS"},"sectionType":"NL"}],"summaryAdditionalTravelTime":{"label":"De extra reistijd kan oplopen tot 30 minuten.","shortLabel":"Extra reistijd tot 30 min.","minimumDurationInMinutes":30,"maximumDurationInMinutes":30},"timespans":[{"start":"2026-01-09T01:00:00+0100","end":"2026-01-12T02:00:00+0100","period":"Vrijdag 9 januari 2026 1:00 uur t/m maandag 12 januari 2026 2:00 uur.","situation":{"label":"Door werkzaamheden: tussen Zaandam en Hoogkarspel rijden er bussen."},"cause":{"label":"werkzaamheden","type":"OTHER"},"alternativeTransport":{"label":"maak gebruik van het vervangende vervoer","shortLabel":"gebruik het vervangende vervoer"},"advices":["Tussen Zaandam en Hoorn reis via Alkmaar."]},{"start":"2026-01-12T04:00:00+0100","end":"2026-01-13T02:00:00+0100","period":"Maandag 12 januari 2026 4:00 uur t/m dinsdag 13 januari 2026 2:00 uur.","situation":{"label":"Door werkzaamheden: tussen Zaandam en Hoogkarspel rijden er bussen."},"cause":{"label":"werkzaamheden","type":"OTHER"},"alternativeTransport":{"label":"maak gebruik van het vervangende vervoer","shortLabel":"gebruik het vervangende vervoer"},"advices":["Tussen Zaandam en Hoorn reis via Alkmaar."]},{"start":"2026-01-13T04:00:00+0100","end":"2026-01-16T02:00:00+0100","period":"Dinsdag 13 januari 2026 4:00 uur t/m vrijdag 16 januari 2026 2:00 uur.","situation":{"label":"Door werkzaamheden: tussen Zaandam en Hoorn rijden er bussen."},"cause":{"label":"werkzaamheden","type":"OTHER"},"additionalTravelTime":{"label":"De extra reistijd is ongeveer 30 minuten.","shortLabel":"Extra reistijd 30 min.","minimumDurationInMinutes":30,"maximumDurationInMinutes":30},"alternativeTransport":{"label":"maak gebruik van het vervangende vervoer","shortLabel":"gebruik het vervangende vervoer"},"advices":["Tussen Zaandam en Hoorn/Enkhuizen reis via Alkmaar."]},{"start":"2026-01-16T04:00:00+0100","end":"2026-01-17T02:00:00+0100","period":"Vrijdag 16 januari 2026 4:00 uur t/m zaterdag 17 januari 2026 2:00 uur.","situation":{"label":"Door werkzaamheden: tussen Zaandam en Hoorn rijden er bussen."},"cause":{"label":"werkzaamheden","type":"OTHER"},"additionalTravelTime":{"label":"De extra reistijd is ongeveer 30 minuten.","shortLabel":"Extra reistijd 30 min.","minimumDurationInMinutes":30,"maximumDurationInMinutes":30},"alternativeTransport":{"label":"maak gebruik van het vervangende vervoer","shortLabel":"gebruik het vervangende vervoer"},"advices":["Tussen Zaandam en Hoorn/Enkhuizen reis via Alkmaar."]},{"start":"2026-01-17T04:00:00+0100","end":"2026-01-19T02:00:00+0100","period":"Zaterdag 17 januari 2026 4:00 uur t/m maandag 19 januari 2026 2:00 uur.","situation":{"label":"Door werkzaamheden: tussen Zaandam en Hoorn rijden er bussen."},"cause":{"label":"werkzaamheden","type":"OTHER"},"additionalTravelTime":{"label":"De extra reistijd is ongeveer 30 minuten.","shortLabel":"Extra reistijd 30 min.","minimumDurationInMinutes":30,"maximumDurationInMinutes":30},"alternativeTransport":{"label":"maak gebruik van het vervangende vervoer","shortLabel":"gebruik het vervangende vervoer"},"advices":["Tussen Zaandam en Hoorn/Enkhuizen reis via Alkmaar."]}],"alternativeTransportTimespans":[{"start":"2026-01-09T01:00:00+0100","end":"2026-01-12T02:00:00+0100","alternativeTransport":{"location":[{"station":{"coordinate":{"lat":52.4388885498047,"lng":4.81361103057861},"countryCode":"NL","name":"Zaandam","stationCode":"ZD","uicCode":"8400731"},"description":"vanaf het busstation"},{"station":{"coordinate":{"lat":52.4566650390625,"lng":4.82027769088745},"countryCode":"NL","name":"Zaandam Kogerveld","stationCode":"ZDK","uicCode":"8400728"},"description":"vanaf de voorzijde van het station"},{"station":{"coordinate":{"lat":52.5030555725098,"lng":4.95361089706421},"countryCode":"NL","name":"Purmerend","stationCode":"PMR","uicCode":"8400508"},"description":"vanaf de bushalte"},{"station":{"coordinate":{"lat":52.5113906860352,"lng":4.96833324432373},"countryCode":"NL","name":"Purmerend Overwhere","stationCode":"PMO","uicCode":"8400506"},"description":"volg de aanwijzingen op het station"},{"station":{"coordinate":{"lat":52.6447219848633,"lng":5.05555534362793},