[{"type":"CALAMITY","id":"f36b46d7-ed2e-4f9f-af0e-7606ac81946a","title":"Werkzaamheden: Tilburg-Boxtel","isActive":true,"topic":"disruption_f36b46d7-ed2e-4f9f-af0e-7606ac81946a_nl","description":"Door werkzaamheden rijden van zaterdag 19 t/m zaterdag 26 oktober 09.00 uur geen treinen tussen Tilburg en Boxtel.\r\nEr rijden bussen tussen Tilburg en Boxtel. Tussen Tilburg en Eindhoven Centraal kunt u omreizen via ’s-Hertogenbosch. \r\nPlan uw reis vooraf.","url":"https://www.ns.nl/reisinformatie/calamiteiten/werkzaamheden-tilburg-boxtel.html","priority":"PRIO_3","lastUpdated":"2024-01-16T02:00:00+0100","bodyItems":[],"buttons":{"position":["BOTTOM"],"items":[{"label":"Plan je reis","accessibilityLabel":"Plan je reis","url":"https://www.ns.nl/reisplanner","type":"PLANNER"}]}},{"type":"CALAMITY","id":"0dff60ad-6bb8-4fa8-8679-7ec4b7f57f94","title":"Werkzaamheden: Hoorn-Enkhuizen","isActive":true,"topic":"disruption_0dff60ad-6bb8-4fa8-8679-7ec4b7f57f94_nl","description":"Door werkzaamheden rijden van dinsdag 22 oktober t/m zaterdag 2 november geen treinen tussen Hoorn en Enkhuizen. Er rijden in die periode stop- en Snelbussen tussen Hoorn en Enkhuizen. Plan uw reis vooraf.","url":"https://www.ns.nl/reisinformatie/calamiteiten/werkzaamheden-hoorn-enkhuizen.html","priority":"PRIO_3","lastUpdated":"2024-10-18T02:00:00+0200","bodyItems":[],"buttons":{"position":["BOTTOM"],"items":[{"label":"Plan je reis","accessibilityLabel":"Plan je reis","url":"https://www.ns.nl/reisplanner","type":"PLANNER"}]}},{"type":"MAINTENANCE","id":"7004492","title":"Groningen - Leer.","isActive":true,"local":false,"titleSections":[[{"type":"STATION","value":"Groningen"},{"type":"STATION","value":"Bad Nieuweschans"},{"type":"ICON","value":"MAINTENANCE"},{"type":"STATION","value":"Weener"},{"type":"STATION","value":"Leer (Ostfr.)"}]],"registrationTime":"2024-10-15T09:08:18+0200","start":"2024-02-01T04:00:00+0100","releaseTime":"2024-10-15T09:08:18+0200","end":"2025-08-24T23:59:00+0200","period":"Donderdag 1 februari 4:00 uur t/m zondag 24 augustus 23:59 uur.","impact":{"value":3},"publicationSections":[{"section":{"stations":[{"coordinate":{"lat":53.2105560302734,"lng":6.56472206115723},"countryCode":"NL","name":"Groningen","stationCode":"GN","uicCode":"8400263"},{"coordinate":{"lat":53.20480027,"lng":6.5854178},"countryCode":"NL","name":"Groningen Europapark","stationCode":"GERP","uicCode":"8400238"},{"coordinate":{"lat":53.1617362,"lng":6.7220882},"countryCode":"NL","name":"Kropswolde","stationCode":"KW","uicCode":"8400369"},{"coordinate":{"lat":53.1607232,"lng":6.7402989},"countryCode":"NL","name":"Martenshoek","stationCode":"MTH","uicCode":"8400430"},{"coordinate":{"lat":53.1598181316756,"lng":6.77075386047363},"countryCode":"NL","name":"Hoogezand-Sappemeer","stationCode":"HGZ","uicCode":"8400331"},{"coordinate":{"lat":53.1596122800056,"lng":6.8679141998291},"countryCode":"NL","name":"Zuidbroek","stationCode":"ZB","uicCode":"8400742"},{"coordinate":{"lat":53.1655362,"lng":6.9777775},"countryCode":"NL","name":"Scheemda","stationCode":"SDA","uicCode":"8400551"},{"coordinate":{"lat":53.1392377,"lng":7.035101},"countryCode":"NL","name":"Winschoten","stationCode":"WS","uicCode":"8400696"},{"coordinate":{"lat":53.1844,"lng":7.19937},"countryCode":"NL","name":"Bad Nieuweschans","stationCode":"NSCH","uicCode":"8400457"},{"coordinate":{"lat":53.16311,"lng":7.3442},"countryCode":"D","name":"Weener","stationCode":"WR","uicCode":"8021239"},{"coordinate":{"lat":53.23165,"lng":7.465283},"countryCode":"D","name":"Leer (Ostfriesl)","stationCode":"LEER","uicCode":"8021091"}],"direction":"BOTH"},"consequence":{"section":{"stations":[{"coordinate":{"lat":53.1844,"lng":7.19937},"countryCode":"NL","name":"Bad Nieuweschans","stationCode":"NSCH","uicCode":"8400457"},{"coordinate":{"lat":53.16311,"lng":7.3442},"countryCode":"D","name":"Weener","stationCode":"WR","uicCode":"8021239"}],"direction":"ONE_WAY"},"description":"rijden bussen","level":"LESS_TRAINS"},"sectionType":"NEIGHBORING_COUNTRY"}],"summaryAdditionalTravelTime":{"label":"De extra reistijd kan oplopen tot 30 minuten.","shortLabel":"Extra reistijd tot 30 min.","maximumDurationInMinutes":30},"timespans":[{"start":"2024-02-01T04:00:00+0100","end":"2025-08-24T23:59:00+0200","period":"Donderdag 1 februari 4:00 uur t/m zondag 24 augustus 23:59 uur.","situation":{"label":"Door een aangepaste dienstregeling: tussen Bad Nieuweschans en Weener rijden er bussen."},"cause":{"label":"aangepaste dienstregeling"},"additionalTravelTime":{"label":"De extra reistijd kan oplopen tot 30 minuten.","shortLabel":"Extra reistijd tot 30 min.","maximumDurationInMinutes":30},"alternativeTransport":{"label":"er rijden stopbussen","shortLabel":"er rijden stopbussen"},"advices":["Op dit moment is er nog geen exacte einddatum bekend."]}],"alternativeTransportTimespans":[{"start":"2024-02-01T04:00:00+0100","end":"2025-08-24T23:59:00+0200","alternativeTransport":{"location":[{"station":{"coordinate":{"lat":53.1844,"lng":7.19937},"countryCode":"NL","name":"Bad Nieuweschans","stationCode":"NSCH","uicCode":"8400457"},"description":"vanaf de voorzijde van het station"},{"station":{"coordinate":{"lat":53.16311,"lng":7.3442},"countryCode":"D","name":"Weener","stationCode":"WR","uicCode":"8021239"},"description":"vanaf de voorzijde van het station"},{"station":{"coordinate":{"lat":53.23165,"lng":7.465283},"countryCode":"D","name":"Leer (Ostfriesl)","stationCode":"LEER","uicCode":"8021091"},"description":"vanaf het busstation"}],"label":"Er rijden stopbussen tussen Bad Nieuweschans, Weener en Leer (Ostfriesl).","shortLabel":"Er rijden stopbussen Bad Nieuweschans - Weener - Leer (Ostfr.)."}}]},{"type":"MAINTENANCE","id":"7005390","title":"Heerlen - Maastricht.","isActive":true,"local":false,"titleSections":[[{"type":"STATION","value":"Heerlen"},{"type":"ICON","value":"MAINTENANCE"},{"type":"STATION","value":"Maastricht"}]],"registrationTime":"2024-09-23T15:37:46+0200","start":"2024-09-16T07:00:00+0200","releaseTime":"2024-09-23T15:37:46+0200","end":"2024-11-03T19:30:00+0100","period":"Maandag 16 september 7:00 uur t/m zondag 3 november 19:30 uur.","impact":{"value":2},"publicationSections":[{"section":{"stations":[{"coordinate":{"lat":50.8908348083496,"lng":5.97499990463257},"countryCode":"NL","name":"Heerlen","stationCode":"HRL","uicCode":"8400307"},{"coordinate":{"lat":50.896667,"lng":5.952222},"countryCode":"NL","name":"Heerlen Woonboulevard","stationCode":"HRLW","uicCode":"8400404"},{"coordinate":{"lat":50.8872222900391,"lng":5.93027782440186},"countryCode":"NL","name":"Voerendaal","stationCode":"VDL","uicCode":"8400656"},{"coordinate":{"lat":50.8663902282715,"lng":5.8905553817749},"countryCode":"NL","name":"Klimmen-Ransdaal","stationCode":"KMR","uicCode":"8400362"},{"coordinate":{"lat":50.856388092041,"lng":5.87222242355347},"countryCode":"NL","name":"Schin op Geul","stationCode":"SOG","uicCode":"8400555"},{"coordinate":{"lat":50.8697204589844,"lng":5.83222198486328},"countryCode":"NL","name":"Valkenburg","stationCode":"VK","uicCode":"8400632"},{"coordinate":{"lat":50.8733329772949,"lng":5.79722213745117},"countryCode":"NL","name":"Houthem-St. Gerlach","stationCode":"SGL","uicCode":"8400341"},{"coordinate":{"lat":50.882879392551,"lng":5.75099945068359},"countryCode":"NL","name":"Meerssen","stationCode":"MES","uicCode":"8400434"},{"coordinate":{"lat":50.87087,"lng":5.71774},"countryCode":"NL","name":"Maastricht Noord","stationCode":"MTN","uicCode":"8400449"},{"coordinate":{"lat":50.8502769470215,"lng":5.70555543899536},"countryCode":"NL","name":"Maastricht","stationCode":"MT","uicCode":"8400424"}],"direction":"BOTH"},"consequence":{"section":{"stations":[{"coordinate":{"lat":50.8908348083496,"lng":5.97499990463257},"countryCode":"NL","name":"Heerlen","stationCode":"HRL","uicCode":"8400307"},{"coordinate":{"lat":50.896667,"lng":5.952222},"countryCode":"NL","name":"Heerlen Woonboulevard","stationCode":"HRLW","uicCode":"8400404"},{"coordinate":{"lat":50.8872222900391,"lng":5.93027782440186},"countryCode":"NL","name":"Voerendaal","stationCode":"VDL","uicCode":"8400656"},{"coordinate":{"lat":50.8663902282715,"lng":5.8905553817749},"countryCode":"NL","name":"Klimmen-Ransdaal","stationCode":"KMR","uicCode":"8400362"},{"coordinate":{"lat":50.856388092041,"lng":5.87222242355347},"countryCode":"NL","name":"Schin op Geul","stationCode":"SOG","uicCode":"8400555"},{"coordinate":{"lat":50.8697204589844,"lng":5.83222198486328},"countryCode":"NL","name":"Valkenburg","stationCode":"VK","uicCode":"8400632"},{"coordinate":{"lat":50.8733329772949,"lng":5.79722213745117},"countryCode":"NL","name":"Houthem-St. Gerlach","stationCode":"SGL","uicCode":"8400341"},{"coordinate":{"lat":50.882879392551,"lng":5.75099945068359},"countryCode":"NL","name":"Meerssen","stationCode":"MES","uicCode":"8400434"},{"coordinate":{"lat":50.87087,"lng":5.71774},"countryCode":"NL","name":"Maastricht Noord","stationCode":"MTN","uicCode":"8400449"},{"coordinate":{"lat":50.8502769470215,"lng":5.70555543899536},"countryCode":"NL","name":"Maastricht","stationCode":"MT","uicCode":"8400424"}],"direction":"ONE_WAY"},"description":"minder treinen","level":"LESS_TRAINS"},"sectionType":"NL"}],"summaryAdditionalTravelTime":{"label":"De extra reistijd is ongeveer 15 minuten.","shortLabel":"Extra reistijd 15 min.","minimumDurationInMinutes":15,"maximumDurationInMinutes":15},"timespans":[{"start":"2024-09-16T07:00:00+0200","end":"2024-11-03T19:30:00+0100","period":"Maandag 16 september 7:00 uur t/m zondag 3 november 19:30 uur.","situation":{"label":"Door een tekort aan personeel: tussen Heerlen en Maastricht rijden er minder treinen."},"cause":{"label":"tekort personeel"},"additionalTravelTime":{"label":"De extra reistijd is ongeveer 15 minuten.","shortLabel":"Extra reistijd 15 min.","minimumDurationInMinutes":15,"maximumDurationInMinutes":15},"alternativeTransport":{"label":"er rijden snelbussen","shortLabel":"er rijden snelbussen"},"advices":["Sneltreinen zijn (ma t/m za: 07.00-19.30u) en (zo: 13.00-19.30u) vervangen door Snelbussen. U kunt ook met een stoptrein eerder of later reizen."]}],"alternativeTransportTimespans":[{"start":"2024-09-16T07:00:00+0200","end":"2024-11-03T19:30:00+0100","alternativeTransport":{"location":[{"station":{"coordinate":{"lat":50.8908348083496,"lng":5.97499990463257},"countryCode":"NL","name":"Heerlen","stationCode":"HRL","uicCode":"8400307"},"description":"vanaf het busstation Perron A"},{"station":{"coordinate":{"lat":50.8502769470215,"lng":5.70555543899536},"countryCode":"NL","name":"Maastricht","stationCode":"MT","uicCode":"8400424"},"description":"vanaf de taxi-standplaats, centrumzijde"}],"label":"Er rijden snelbussen tussen Heerlen en Maastricht.","shortLabel":"Er rijden snelbussen Heerlen - Maastricht."}}]},{"type":"MAINTENANCE","id":"7005485","title":"Sittard - Heerlen; Sittard - Heerlen - Kerkrade.","isActive":true,"local":false,"titleSections":[[{"type":"STATION","value":"Sittard"},{"type":"ICON","value":"MAINTENANCE"},{"type":"STATION","value":"Heerlen"}],[{"type":"STATION","value":"Sittard"},{"type":"ICON","value":"MAINTENANCE"},{"type":"STATION","value":"Heerlen"},{"type":"STATION","value":"Kerkrade C."}]],"registrationTime":"2024-10-05T16:48:22+0200","start":"2024-09-24T10:00:00+0200","releaseTime":"2024-10-05T16:48:22+0200","end":"2024-11-04T01:00:00+0100","period":"Dinsdag 24 september 10:00 uur t/m maandag 4 november 1:00 uur.","impact":{"value":2},"publicationSections":[{"section":{"stations":[{"coordinate":{"lat":51.0016670227051,"lng":5.85861110687256},"countryCode":"NL","name":"Sittard","stationCode":"STD","uicCode":"8400564"},{"coordinate":{"lat":50.9669456481934,"lng":5.84305572509766},"countryCode":"NL","name":"Geleen Oost","stationCode":"GLN","uicCode":"8400246"},{"coordinate":{"lat":50.94327,"lng":5.850529},"countryCode":"NL","name":"Spaubeek","stationCode":"SBK","uicCode":"8400572"},{"coordinate":{"lat":50.9391670227051,"lng":5.87444448471069},"countryCode":"NL","name":"Schinnen","stationCode":"SN","uicCode":"8400554"},{"coordinate":{"lat":50.9194450378418,"lng":5.89277791976929},"countryCode":"NL","name":"Nuth","stationCode":"NH","uicCode":"8400467"},{"coordinate":{"lat":50.9055557250977,"lng":5.93055534362793},"countryCode":"NL","name":"Hoensbroek","stationCode":"HB","uicCode":"8400326"},{"coordinate":{"lat":50.8908348083496,"lng":5.97499990463257},"countryCode":"NL","name":"Heerlen","stationCode":"HRL","uicCode":"8400307"}],"direction":"BOTH"},"consequence":{"section":{"stations":[{"coordinate":{"lat":51.0016670227051,"lng":5.85861110687256},"countryCode":"NL","name":"Sittard","stationCode":"STD","uicCode":"8400564"},{"coordinate":{"lat":50.9669456481934,"lng":5.84305572509766},"countryCode":"NL","name":"Geleen Oost","stationCode":"GLN","uicCode":"8400246"},{"coordinate":{"lat":50.94327,"lng":5.850529},"countryCode":"NL","name":"Spaubeek","stationCode":"SBK","uicCode":"8400572"},{"coordinate":{"lat":50.9391670227051,"lng":5.87444448471069},"countryCode":"NL","name":"Schinnen","stationCode":"SN","uicCode":"8400554"},{"coordinate":{"lat":50.9194450378418,"lng":5.89277791976929},"countryCode":"NL","name":"Nuth","stationCode":"NH","uicCode":"8400467"},{"coordinate":{"lat":50.9055557250977,"lng":5.93055534362793},"countryCode":"NL","name":"Hoensbroek","stationCode":"HB","uicCode":"8400326"},{"coordinate":{"lat":50.8908348083496,"lng":5.97499990463257},"countryCode":"NL","name":"Heerlen","stationCode":"HRL","uicCode":"8400307"}],"direction":"ONE_WAY"},"description":"minder stoptreinen","level":"LESS_TRAINS"},"sectionType":"NL"},{"section":{"stations":[{"coordinate":{"lat":51.0016670227051,"lng":5.85861110687256},"countryCode":"NL","name":"Sittard","stationCode":"STD","uicCode":"8400564"},{"coordinate":{"lat":50.9669456481934,"lng":5.84305572509766},"countryCode":"NL","name":"Geleen Oost","stationCode":"GLN","uicCode":"8400246"},{"coordinate":{"lat":50.94327,"lng":5.850529},"countryCode":"NL","name":"Spaubeek","stationCode":"SBK","uicCode":"8400572"},{"coordinate":{"lat":50.9391670227051,"lng":5.87444448471069},"countryCode":"NL","name":"Schinnen","stationCode":"SN","uicCode":"8400554"},{"coordinate":{"lat":50.9194450378418,"lng":5.89277791976929},"countryCode":"NL","name":"Nuth","stationCode":"NH","uicCode":"8400467"},{"coordinate":{"lat":50.9055557250977,"lng":5.93055534362793},"countryCode":"NL","name":"Hoensbroek","stationCode":"HB","uicCode":"8400326"},{"coordinate":{"lat":50.8908348083496,"lng":5.97499990463257},"countryCode":"NL","name":"Heerlen","stationCode":"HRL","uicCode":"8400307"},{"coordinate":{"lat":50.8963890075684,"lng":6.01916646957398},"countryCode":"NL","name":"Landgraaf","stationCode":"LG","uicCode":"8400548"},{"coordinate":{"lat":50.8905563354492,"lng":6.04500007629395},"countryCode":"NL","name":"Eygelshoven","stationCode":"EGH","uicCode":"8400338"},{"coordinate":{"lat":50.8761100769043,"lng":6.05972242355347},"countryCode":"NL","name":"Chevremont","stationCode":"CVM","uicCode":"8400152"},{"coordinate":{"lat":50.8616676330566,"lng":6.05749988555908},"countryCode":"NL","name":"Kerkrade Centrum","stationCode":"KRD","uicCode":"8400355"}],"direction":"BOTH"},"consequence":{"section":{"stations":[{"coordinate":{"lat":51.0016670227051,"lng":5.85861110687256},"countryCode":"NL","name":"Sittard","stationCode":"STD","uicCode":"8400564"},{"coordinate":{"lat":50.9669456481934,"lng":5.84305572509766},"countryCode":"NL","name":"Geleen Oost","stationCode":"GLN","uicCode":"8400246"},{"coordinate":{"lat":50.94327,"lng":5.850529},"countryCode":"NL","name":"Spaubeek","stationCode":"SBK","uicCode":"8400572"},{"coordinate":{"lat":50.9391670227051,"lng":5.87444448471069},"countryCode":"NL","name":"Schinnen","stationCode":"SN","uicCode":"8400554"},{"coordinate":{"lat":50.9194450378418,"lng":5.89277791976929},"countryCode":"NL","name":"Nuth","stationCode":"NH","uicCode":"8400467"},{"coordinate":{"lat":50.9055557250977,"lng":5.93055534362793},"countryCode":"NL","name":"Hoensbroek","stationCode":"HB","uicCode":"8400326"},{"coordinate":{"lat":50.8908348083496,"lng":5.97499990463257},"countryCode":"NL","name":"Heerlen","stationCode":"HRL","uicCode":"8400307"}],"direction":"ONE_WAY"},"description":"minder stoptreinen","level":"LESS_TRAINS"},"sectionType":"NL"}],"summaryAdditionalTravelTime":{"label":"U heeft geen langere reistijd.","shortLabel":"Geen extra reistijd."},"timespans":[{"start":"2024-09-24T10:00:00+0200","end":"2024-11-04T01:00:00+0100","period":"Dinsdag 24 september 10:00 uur t/m maandag 4 november 1:00 uur.","situation":{"label":"Door een tekort aan personeel: tussen Sittard en Heerlen rijden er minder stoptreinen."},"cause":{"label":"tekort personeel"},"additionalTravelTime":{"label":"U heeft geen langere reistijd.","shortLabel":"Geen extra reistijd."},"advices":[]}],"alternativeTransportTimespans":[]},{"type":"MAINTENANCE","id":"7005535","title":"Venlo - Mönchengladbach - Düsseldorf.","isActive":true,"local":false,"titleSections":[[{"type":"STATION","value":"Venlo"},{"type":"ICON","value":"MAINTENANCE"},{"type":"STATION","value":"Mönchengladbach"},{"type":"STATION","value":"Düsseldorf Hbf"}]],"registrationTime":"2024-10-14T16:57:48+0200","start":"2024-10-14T17:00:00+0200","releaseTime":"2024-10-14T16:57:48+0200","end":"2024-10-25T21:00:00+0200","period":"Maandag 14 oktober 17:00 uur t/m vrijdag 25 oktober 21:00 uur.","impact":{"value":2},"publicationSections":[{"section":{"stations":[{"coordinate":{"lat":51.3636093139648,"lng":6.17277765274048},"countryCode":"NL","name":"Venlo","stationCode":"VL","uicCode":"8400644"},{"coordinate":{"lat":51.327184,"lng":6.203225},"countryCode":"D","name":"Kaldenkirchen","stationCode":"KN","uicCode":"8015130"},{"coordinate":{"lat":51.294615,"lng":6.241174},"countryCode":"D","name":"Breyell","stationCode":"KBRY","uicCode":"8015129"},{"coordinate":{"lat":51.274323,"lng":6.274591},"countryCode":"D","name":"Boisheim","stationCode":"KBOI","uicCode":"8015128"},{"coordinate":{"lat":51.257149,"lng":6.33793},"countryCode":"D","name":"Dülken","stationCode":"KDUL","uicCode":"8015125"},{"coordinate":{"lat":51.25516,"lng":6.40388},"countryCode":"D","name":"Viersen","stationCode":"VIERS","uicCode":"8015122"},{"coordinate":{"lat":51.196583,"lng":6.446111},"countryCode":"D","name":"Mönchengladbach Hbf","stationCode":"MCGB","uicCode":"8015165"},{"coordinate":{"lat":51.20444,"lng":6.68468},"countryCode":"D","name":"Neuss Hbf","stationCode":"NEUSS","uicCode":"8015149"},{"coordinate":{"lat":51.220146,"lng":6.793137},"countryCode":"D","name":"Düsseldorf Hbf","stationCode":"DUSSEL","uicCode":"8008094"}],"direction":"BOTH"},"consequence":{"section":{"stations":[{"coordinate":{"lat":51.3636093139648,"lng":6.17277765274048},"countryCode":"NL","name":"Venlo","stationCode":"VL","uicCode":"8400644"},{"coordinate":{"lat":51.327184,"lng":6.203225},"countryCode":"D","name":"Kaldenkirchen","stationCode":"KN","uicCode":"8015130"},{"coordinate":{"lat":51.294615,"lng":6.241174},"countryCode":"D","name":"Breyell","stationCode":"KBRY","uicCode":"8015129"},{"coordinate":{"lat":51.274323,"lng":6.274591},"countryCode":"D","name":"Boisheim","stationCode":"KBOI","uicCode":"8015128"},{"coordinate":{"lat":51.257149,"lng":6.33793},"countryCode":"D","name":"Dülken","stationCode":"KDUL","uicCode":"8015125"},{"coordinate":{"lat":51.25516,"lng":6.40388},"countryCode":"D","name":"Viersen","stationCode":"VIERS","uicCode":"8015122"},{"coordinate":{"lat":51.196583,"lng":6.446111},"countryCode":"D","name":"Mönchengladbach Hbf","stationCode":"MCGB","uicCode":"8015165"}],"direction":"ONE_WAY"},"description":"rijden bussen","level":"LESS_TRAINS"},"sectionType":"NEIGHBORING_COUNTRY"}],"summaryAdditionalTravelTime":{"label":"De extra reistijd kan oplopen tot 30 minuten.","shortLabel":"Extra reistijd tot 30 min.","maximumDurationInMinutes":30},"timespans":[{"start":"2024-10-14T17:00:00+0200","end":"2024-10-25T21:00:00+0200","period":"Maandag 14 oktober 17:00 uur t/m vrijdag 25 oktober 21:00 uur.","situation":{"label":"Door werkzaamheden: tussen Venlo en Mönchengladbach Hbf rijden er bussen."},"cause":{"label":"werkzaamheden"},"additionalTravelTime":{"label":"De extra reistijd kan oplopen tot 30 minuten.","shortLabel":"Extra reistijd tot 30 min.","maximumDurationInMinutes":30},"alternativeTransport":{"label":"er rijden stopbussen","shortLabel":"er rijden stopbussen"},"advices":[]}],"alternativeTransportTimespans":[{"start":"2024-10-14T17:00:00+0200","end":"2024-10-25T21:00:00+0200","alternativeTransport":{"location":[{"station":{"coordinate":{"lat":51.3636093139648,"lng":6.17277765274048},"countryCode":"NL","name":"Venlo","stationCode":"VL","uicCode":"8400644"},"description":"vanaf het busstation"},{"station":{"coordinate":{"lat":51.327184,"lng":6.203225},"countryCode":"D","name":"Kaldenkirchen","stationCode":"KN","uicCode":"8015130"},"description":"volg de aanwijzingen op het station"},{"station":{"coordinate":{"lat":51.294615,"lng":6.241174},"countryCode":"D","name":"Breyell","stationCode":"KBRY","uicCode":"8015129"},"description":"volg de aanwijzingen op het station"},{"station":{"coordinate":{"lat":51.274323,"lng":6.274591},"countryCode":"D","name":"Boisheim","stationCode":"KBOI","uicCode":"8015128"},"description":"volg de aanwijzingen op het station"},{"station":{"coordinate":{"lat":51.257149,"lng":6.33793},"countryCode":"D","name":"Dülken","stationCode":"KDUL","uicCode":"8015125"},"description":"volg de aanwijzingen op het station"},{"station":{"coordinate":{"lat":51.25516,"lng":6.40388},"countryCode":"D","name":"Viersen","stationCode":"VIERS","uicCode":"8015122"},"description":"volg de aanwijzingen op het station"},{"station":{"coordinate":{"lat":51.196583,"lng":6.446111},"countryCode":"D","name":"Mönchengladbach Hbf","stationCode":"MCGB","uicCode":"8015165"},"description":"volg de aanwijzingen op het station"}],"label":"Er rijden stopbussen tussen Venlo, Kaldenkirchen, Breyell, Boisheim, Dülken, Viersen en Mönchengladbach Hbf.","shortLabel":"Er rijden stopbussen Venlo - Kaldenkirchen - Breyell - Boisheim - Dülken - Viersen - Mönchengladbach."}}]},{"type":"MAINTENANCE","id":"7005481","title":"Tilburg - Eindhoven.","isActive":false,"local":false,"titleSections":[[{"type":"STATION","value":"Tilburg"},{"type":"ICON","value":"MAINTENANCE"},{"type":"STATION","value":"Boxtel"},{"type":"STATION","value":"Eindhoven C."}]],"registrationTime":"2024-10-18T09:31:18+0200","start":"2024-10-19T01:00:00+0200","releaseTime":"2024-10-18T09:31:18+0200","end":"2024-10-26T09:00:00+0200","period":"Zaterdag 19 oktober 1:00 uur t/m zaterdag 26 oktober 9:00 uur.","impact":{"value":5},"publicationSections":[{"section":{"stations":[{"coordinate":{"lat":51.5605545043945,"lng":5.08361101150513},"countryCode":"NL","name":"Tilburg","stationCode":"TB","uicCode":"8400597"},{"coordinate":{"lat":51.5822219848633,"lng":5.19416666030884},"countryCode":"NL","name":"Oisterwijk","stationCode":"OT","uicCode":"8400482"},{"coordinate":{"lat":51.58433,"lng":5.31912},"countryCode":"NL","name":"Boxtel","stationCode":"BTL","uicCode":"8400129"},{"coordinate":{"lat":51.5099983215332,"lng":5.38916683197022},"countryCode":"NL","name":"Best","stationCode":"BET","uicCode":"8400112"},{"coordinate":{"lat":51.4511108398438,"lng":5.45583343505859},"countryCode":"NL","name":"Eindhoven Strijp-S","stationCode":"EHS","uicCode":"8400196"},{"coordinate":{"lat":51.4433326721191,"lng":5.48138904571533},"countryCode":"NL","name":"Eindhoven Centraal","stationCode":"EHV","uicCode":"8400206"}],"direction":"BOTH"},"consequence":{"section":{"stations":[{"coordinate":{"lat":51.5605545043945,"lng":5.08361101150513},"countryCode":"NL","name":"Tilburg","stationCode":"TB","uicCode":"8400597"},{"coordinate":{"lat":51.5822219848633,"lng":5.19416666030884},"countryCode":"NL","name":"Oisterwijk","stationCode":"OT","uicCode":"8400482"},{"coordinate":{"lat":51.58433,"lng":5.31912},"countryCode":"NL","name":"Boxtel","stationCode":"BTL","uicCode":"8400129"}],"direction":"ONE_WAY"},"description":"rijden bussen","level":"LESS_TRAINS"},"sectionType":"NL"}],"summaryAdditionalTravelTime":{"label":"De extra reistijd is ongeveer 30 minuten.","shortLabel":"Extra reistijd 30 min.","minimumDurationInMinutes":30,"maximumDurationInMinutes":30},"timespans":[{"start":"2024-10-19T01:00:00+0200","end":"2024-10-26T09:00:00+0200","period":"Zaterdag 19 oktober 1:00 uur t/m zaterdag 26 oktober 9:00 uur.","situation":{"label":"Door werkzaamheden: tussen Tilburg en Boxtel rijden er bussen."},"cause":{"label":"werkzaamheden"},"additionalTravelTime":{"label":"De extra reistijd is ongeveer 30 minuten.","shortLabel":"Extra reistijd 30 min.","minimumDurationInMinutes":30,"maximumDurationInMinutes":30},"alternativeTransport":{"label":"er rijden stop- en snelbussen","shortLabel":"er rijden stop- en snelbussen"},"advices":["Houd rekening met extra drukte op het traject Tilburg - 's Hertogenbosch.","Tussen Tilburg en Eindhoven C. reis via 's-Hertogenbosch."]}],"alternativeTransportTimespans":[{"start":"2024-10-19T06:00:00+0200","end":"2024-10-26T09:00:00+0200","alternativeTransport":{"location":[{"station":{"coordinate":{"lat":51.5605545043945,"lng":5.08361101150513},"countryCode":"NL","name":"Tilburg","stationCode":"TB","uicCode":"8400597"},"description":"vanaf het Burgemeester Stekelenburgplein"},{"station":{"coordinate":{"lat":51.5822219848633,"lng":5.19416666030884},"countryCode":"NL","name":"Oisterwijk","stationCode":"OT","uicCode":"8400482"},"description":"vanaf de K+R strook aan de Schijfstraat"},{"station":{"coordinate":{"lat":51.58433,"lng":5.31912},"countryCode":"NL","name":"Boxtel","stationCode":"BTL","uicCode":"8400129"},"description":"vanaf de NS bushalte aan de van Salmstraat"}],"label":"Er rijden stopbussen tussen Tilburg, Oisterwijk en Boxtel.","shortLabel":"Er rijden stopbussen Tilburg - Oisterwijk - Boxtel."}},{"start":"2024-10-20T01:50:00+0200","end":"2024-10-20T02:05:00+0200","alternativeTransport":{"location":[{"station":{"coordinate":{"lat":51.5605545043945,"lng":5.08361101150513},"countryCode":"NL","name":"Tilburg","stationCode":"TB","uicCode":"8400597"},"description":"vanaf het Burgemeester Stekelenburgplein"},{"station":{"coordinate":{"lat":51.4433326721191,"lng":5.48138904571533},"countryCode":"NL","name":"Eindhoven Centraal","stationCode":"EHV","uicCode":"8400206"},"description":"volg de aanwijzingen op het station"}],"label":"Er rijden snelbussen van Tilburg naar Eindhoven Centraal.","shortLabel":"Er rijden snelbussen Tilburg -> Eindhoven C."}},{"start":"2024-10-26T01:50:00+0200","end":"2024-10-26T02:05:00+0200","alternativeTransport":{"location":[{"station":{"coordinate":{"lat":51.5605545043945,"lng":5.08361101150513},"countryCode":"NL","name":"Tilburg","stationCode":"TB","uicCode":"8400597"},"description":"vanaf het Burgemeester Stekelenburgplein"},{"station":{"coordinate":{"lat":51.4433326721191,"lng":5.48138904571533},"countryCode":"NL","name":"Eindhoven Centraal","stationCode":"EHV","uicCode":"8400206"},"description":"volg de aanwijzingen op het station"}],"label":"Er rijden snelbussen van Tilburg naar Eindhoven Centraal.","shortLabel":"Er rijden snelbussen Tilburg -> Eindhoven C."}}]},{"type":"MAINTENANCE","id":"7005316","title":"Alkmaar - Den Helder.","isActive":false,"local":false,"titleSections":[[{"type":"STATION","value":"Alkmaar"},{"type":"STATION","value":"Schagen"},{"type":"ICON","value":"MAINTENANCE"},{"type":"STATION","value":"Den Helder"}]],"registrationTime":"2024-10-18T09:15:46+0200","start":"2024-10-19T01:10:00+0200","releaseTime":"2024-10-18T09:15:46+0200","end":"2024-10-21T05:10:00+0200","period":"Zaterdag 19 oktober 1:10 uur t/m maandag 21 oktober 5:10 uur.","impact":{"value":3},"publicationSections":[{"section":{"stations":[{"coordinate":{"lat":52.6377792358398,"lng":4.73972225189209},"countryCode":"NL","name":"Alkmaar","stationCode":"AMR","uicCode":"8400050"},{"coordinate":{"lat":52.6438903808594,"lng":4.76416683197022},"countryCode":"NL","name":"Alkmaar Noord","stationCode":"AMRN","uicCode":"8400052"},{"coordinate":{"lat":52.6697235107422,"lng":4.82277774810791},"countryCode":"NL","name":"Heerhugowaard","stationCode":"HWD","uicCode":"8400306"},{"coordinate":{"lat":52.7844429016113,"lng":4.80527782440186},"countryCode":"NL","name":"Schagen","stationCode":"SGN","uicCode":"8400549"},{"coordinate":{"lat":52.8672218322754,"lng":4.81111097335815},"countryCode":"NL","name":"Anna Paulowna","stationCode":"ANA","uicCode":"8400065"},{"coordinate":{"lat":52.9324989318848,"lng":4.76416683197022},"countryCode":"NL","name":"Den Helder Zuid","stationCode":"HDRZ","uicCode":"8400303"},{"coordinate":{"lat":52.9552764892578,"lng":4.76111125946045},"countryCode":"NL","name":"Den Helder","stationCode":"HDR","uicCode":"8400311"}],"direction":"BOTH"},"consequence":{"section":{"stations":[{"coordinate":{"lat":52.7844429016113,"lng":4.80527782440186},"countryCode":"NL","name":"Schagen","stationCode":"SGN","uicCode":"8400549"},{"coordinate":{"lat":52.8672218322754,"lng":4.81111097335815},"countryCode":"NL","name":"Anna Paulowna","stationCode":"ANA","uicCode":"8400065"},{"coordinate":{"lat":52.9324989318848,"lng":4.76416683197022},"countryCode":"NL","name":"Den Helder Zuid","stationCode":"HDRZ","uicCode":"8400303"},{"coordinate":{"lat":52.9552764892578,"lng":4.76111125946045},"countryCode":"NL","name":"Den Helder","stationCode":"HDR","uicCode":"8400311"}],"direction":"ONE_WAY"},"description":"rijden bussen","level":"LESS_TRAINS"},"sectionType":"NL"}],"summaryAdditionalTravelTime":{"label":"De extra reistijd is meer dan 15 minuten.","shortLabel":"Extra reistijd meer dan 15 min.","minimumDurationInMinutes":15},"timespans":[{"start":"2024-10-19T01:10:00+0200","end":"2024-10-21T05:10:00+0200","period":"Zaterdag 19 oktober 1:10 uur t/m maandag 21 oktober 5:10 uur.","situation":{"label":"Door werkzaamheden: tussen Schagen en Den Helder rijden er bussen."},"cause":{"label":"werkzaamheden"},"additionalTravelTime":{"label":"De extra reistijd is meer dan 15 minuten.","shortLabel":"Extra reistijd meer dan 15 min.","minimumDurationInMinutes":15},"alternativeTransport":{"label":"er rijden stopbussen","shortLabel":"er rijden stopbussen"},"advices":[]}],"alternativeTransportTimespans":[{"start":"2024-10-19T01:10:00+0200","end":"2024-10-21T05:10:00+0200","alternativeTransport":{"location":[{"station":{"coordinate":{"lat":52.7844429016113,"lng":4.80527782440186},"countryCode":"NL","name":"Schagen","stationCode":"SGN","uicCode":"8400549"},"description":"vanaf het Stationsplein"},{"station":{"coordinate":{"lat":52.8672218322754,"lng":4.81111097335815},"countryCode":"NL","name":"Anna Paulowna","stationCode":"ANA","uicCode":"8400065"},"description":"vanaf de achterzijde van het station"},{"station":{"coordinate":{"lat":52.9324989318848,"lng":4.76416683197022},"countryCode":"NL","name":"Den Helder Zuid","stationCode":"HDRZ","uicCode":"8400303"},"description":"vanaf de voorzijde van het station"},{"station":{"coordinate":{"lat":52.9552764892578,"lng":4.76111125946045},"countryCode":"NL","name":"Den Helder","stationCode":"HDR","uicCode":"8400311"},"description":"vanaf de voorzijde van het station"}],"label":"Er rijden stopbussen tussen Schagen, Anna Paulowna, Den Helder Zuid en Den Helder.","shortLabel":"Er rijden stopbussen Schagen - Anna Paulowna - Den Helder Zuid - Den Helder."}}]},{"type":"MAINTENANCE","id":"7005486","title":"Dordrecht - Breda.","isActive":false,"local":false,"titleSections":[[{"type":"STATION","value":"Dordrecht"},{"type":"STATION","value":"Lage Zwaluwe"},{"type":"ICON","value":"MAINTENANCE"},{"type":"STATION","value":"Breda"}]],"registrationTime":"2024-10-18T09:27:12+0200","start":"2024-10-19T01:45:00+0200","releaseTime":"2024-10-18T09:27:12+0200","end":"2024-10-21T02:00:00+0200","period":"Zaterdag 19 oktober 1:45 uur t/m maandag 21 oktober 2:00 uur.","impact":{"value":4},"publicationSections":[{"section":{"stations":[{"coordinate":{"lat":51.8072204589844,"lng":4.66833353042603},"countryCode":"NL","name":"Dordrecht","stationCode":"DDR","uicCode":"8400180"},{"coordinate":{"lat":51.7900009155273,"lng":4.67138910293579},"countryCode":"NL","name":"Dordrecht Zuid","stationCode":"DDZD","uicCode":"8400181"},{"coordinate":{"lat":51.6911125183105,"lng":4.66305541992188},"countryCode":"NL","name":"Lage Zwaluwe","stationCode":"ZLW","uicCode":"8400382"},{"coordinate":{"lat":51.606388092041,"lng":4.72083330154419},"countryCode":"NL","name":"Breda-Prinsenbeek","stationCode":"BDPB","uicCode":"8400132"},{"coordinate":{"lat":51.5955543518066,"lng":4.78000020980835},"countryCode":"NL","name":"Breda","stationCode":"BD","uicCode":"8400131"}],"direction":"BOTH"},"consequence":{"section":{"stations":[{"coordinate":{"lat":51.6911125183105,"lng":4.66305541992188},"countryCode":"NL","name":"Lage Zwaluwe","stationCode":"ZLW","uicCode":"8400382"},{"coordinate":{"lat":51.606388092041,"lng":4.72083330154419},"countryCode":"NL","name":"Breda-Prinsenbeek","stationCode":"BDPB","uicCode":"8400132"},{"coordinate":{"lat":51.5955543518066,"lng":4.78000020980835},"countryCode":"NL","name":"Breda","stationCode":"BD","uicCode":"8400131"}],"direction":"ONE_WAY"},"description":"rijden bussen","level":"LESS_TRAINS"},"sectionType":"NL"}],"summaryAdditionalTravelTime":{"label":"De extra reistijd kan oplopen tot 15 minuten.","shortLabel":"Extra reistijd tot 15 min.","maximumDurationInMinutes":15},"timespans":[{"start":"2024-10-19T01:45:00+0200","end":"2024-10-21T02:00:00+0200","period":"Zaterdag 19 oktober 1:45 uur t/m maandag 21 oktober 2:00 uur.","situation":{"label":"Door werkzaamheden: tussen Lage Zwaluwe en Breda rijden er bussen."},"cause":{"label":"werkzaamheden"},"additionalTravelTime":{"label":"De extra reistijd kan oplopen tot 15 minuten.","shortLabel":"Extra reistijd tot 15 min.","maximumDurationInMinutes":15},"alternativeTransport":{"label":"er rijden stopbussen","shortLabel":"er rijden stopbussen"},"advices":["Er rijden 2x per uur Intercity's tussen Dordrecht en Breda."]}],"alternativeTransportTimespans":[{"start":"2024-10-19T01:45:00+0200","end":"2024-10-21T02:00:00+0200","alternativeTransport":{"location":[{"station":{"coordinate":{"lat":51.6911125183105,"lng":4.66305541992188},"countryCode":"NL","name":"Lage Zwaluwe","stationCode":"ZLW","uicCode":"8400382"},"description":"vanaf de Westelijke Parallelweg"},{"station":{"coordinate":{"lat":51.606388092041,"lng":4.72083330154419},"countryCode":"NL","name":"Breda-Prinsenbeek","stationCode":"BDPB","uicCode":"8400132"},"description":"vanaf de Westerhagelaan"},{"station":{"coordinate":{"lat":51.5955543518066,"lng":4.78000020980835},"countryCode":"NL","name":"Breda","stationCode":"BD","uicCode":"8400131"},"description":"vanaf de Belcrumzijde"}],"label":"Er rijden stopbussen tussen Lage Zwaluwe, Breda-Prinsenbeek en Breda.","shortLabel":"Er rijden stopbussen Lage Zwaluwe - Prinsenbeek - Breda."}}]},{"type":"MAINTENANCE","id":"7005189","title":"Amsterdam - Rotterdam - Brussel.","isActive":false,"local":false,"titleSections":[[{"type":"STATION","value":"Amsterdam C."},{"type":"STATION","value":"Rotterdam C."},{"type":"ICON","value":"MAINTENANCE"},{"type":"STATION","value":"Antwerpen-C."},{"type":"STATION","value":"Brussel-Z. Midi"}]],"registrationTime":"2024-10-18T09:14:34+0200","start":"2024-10-19T04:00:00+0200","releaseTime":"2024-10-18T09:14:34+0200","end":"2024-10-21T02:00:00+0200","period":"Zaterdag 19 oktober 4:00 uur t/m maandag 21 oktober 2:00 uur.","impact":{"value":2},"publicationSections":[{"section":{"stations":[{"coordinate":{"lat":52.3788871765137,"lng":4.90027761459351},"countryCode":"NL","name":"Amsterdam Centraal","stationCode":"ASD","uicCode":"8400058"},{"coordinate":{"lat":52.3888893127441,"lng":4.83777761459351},"countryCode":"NL","name":"Amsterdam Sloterdijk","stationCode":"ASS","uicCode":"8400059"},{"coordinate":{"lat":52.3577766418457,"lng":4.83388900756836},"countryCode":"NL","name":"Amsterdam Lelylaan","stationCode":"ASDL","uicCode":"8400079"},{"coordinate":{"lat":52.3094444274902,"lng":4.76194429397583},"countryCode":"NL","name":"Schiphol Airport","stationCode":"SHL","uicCode":"8400561"},{"coordinate":{"lat":52.2933349609375,"lng":4.70055532455444},"countryCode":"NL","name":"Hoofddorp","stationCode":"HFD","uicCode":"8400332"},{"coordinate":{"lat":51.9249992370605,"lng":4.46888875961304},"countryCode":"NL","name":"Rotterdam Centraal","stationCode":"RTD","uicCode":"8400530"},{"coordinate":{"lat":51.9202766418457,"lng":4.48888874053955},"countryCode":"NL","name":"Rotterdam Blaak","stationCode":"RTB","uicCode":"8400529"},{"coordinate":{"lat":51.9044456481934,"lng":4.51027774810791},"countryCode":"NL","name":"Rotterdam Zuid","stationCode":"RTZ","uicCode":"8400533"},{"coordinate":{"lat":51.8800010681152,"lng":4.53138875961304},"countryCode":"NL","name":"Rotterdam Lombardijen","stationCode":"RLB","uicCode":"8400542"},{"coordinate":{"lat":51.606388092041,"lng":4.72083330154419},"countryCode":"NL","name":"Breda-Prinsenbeek","stationCode":"BDPB","uicCode":"8400132"},{"coordinate":{"lat":51.5955543518066,"lng":4.78000020980835},"countryCode":"NL","name":"Breda","stationCode":"BD","uicCode":"8400131"},{"coordinate":{"lat":51.358088,"lng":4.633977},"countryCode":"B","name":"Noorderkempen","stationCode":"NDKP","uicCode":"8821105"},{"coordinate":{"lat":51.2449375,"lng":4.4251543},"countryCode":"B","name":"Antwerpen-Luchtbal","stationCode":"ATWLB","uicCode":"8821063"},{"coordinate":{"lat":51.21686,"lng":4.421242},"countryCode":"B","name":"Antwerpen-Centraal","stationCode":"ATW","uicCode":"8821006"},{"coordinate":{"lat":51.198914,"lng":4.4332},"countryCode":"B","name":"Antwerpen-Berchem","stationCode":"BERCH","uicCode":"8821121"},{"coordinate":{"lat":51.01758,"lng":4.48313},"countryCode":"B","name":"Mechelen","stationCode":"MECH","uicCode":"8822004"},{"coordinate":{"lat":50.859658,"lng":4.360854},"countryCode":"B","name":"Brussel-Noord","stationCode":"BRUSN","uicCode":"8812005"},{"coordinate":{"lat":50.845175,"lng":4.357131},"countryCode":"B","name":"Brussel-Centraal","stationCode":"BRUSC","uicCode":"8813003"},{"coordinate":{"lat":50.836782,"lng":4.336922},"countryCode":"B","name":"Brussel-Zuid Midi","stationCode":"BRUSZ","uicCode":"8814001"}],"direction":"BOTH"},"consequence":{"section":{"stations":[{"coordinate":{"lat":51.9249992370605,"lng":4.46888875961304},"countryCode":"NL","name":"Rotterdam Centraal","stationCode":"RTD","uicCode":"8400530"},{"coordinate":{"lat":51.9202766418457,"lng":4.48888874053955},"countryCode":"NL","name":"Rotterdam Blaak","stationCode":"RTB","uicCode":"8400529"},{"coordinate":{"lat":51.9044456481934,"lng":4.51027774810791},"countryCode":"NL","name":"Rotterdam Zuid","stationCode":"RTZ","uicCode":"8400533"},{"coordinate":{"lat":51.8800010681152,"lng":4.53138875961304},"countryCode":"NL","name":"Rotterdam Lombardijen","stationCode":"RLB","uicCode":"8400542"},{"coordinate":{"lat":51.606388092041,"lng":4.72083330154419},"countryCode":"NL","name":"Breda-Prinsenbeek","stationCode":"BDPB","uicCode":"8400132"},{"coordinate":{"lat":51.5955543518066,"lng":4.78000020980835},"countryCode":"NL","name":"Breda","stationCode":"BD","uicCode":"8400131"},{"coordinate":{"lat":51.358088,"lng":4.633977},"countryCode":"B","name":"Noorderkempen","stationCode":"NDKP","uicCode":"8821105"},{"coordinate":{"lat":51.2449375,"lng":4.4251543},"countryCode":"B","name":"Antwerpen-Luchtbal","stationCode":"ATWLB","uicCode":"8821063"},{"coordinate":{"lat":51.21686,"lng":4.421242},"countryCode":"B","name":"Antwerpen-Centraal","stationCode":"ATW","uicCode":"8821006"}],"direction":"ONE_WAY"},"description":"aangepaste internationale dienstregeling","level":"LESS_TRAINS"},"sectionType":"HSL"}],"summaryAdditionalTravelTime":{"label":"U heeft geen langere reistijd.","shortLabel":"Geen extra reistijd."},"timespans":[{"start":"2024-10-19T04:00:00+0200","end":"2024-10-21T02:00:00+0200","period":"Zaterdag 19 oktober 4:00 uur t/m maandag 21 oktober 2:00 uur.","situation":{"label":"Door werkzaamheden: tussen Rotterdam Centraal en Antwerpen-Centraal is de internationale dienstregeling aangepast."},"cause":{"label":"werkzaamheden"},"additionalTravelTime":{"label":"U heeft geen langere reistijd.","shortLabel":"Geen extra reistijd."},"alternativeTransport":{"label":"er rijden snelbussen","shortLabel":"er rijden snelbussen"},"advices":["IC Brussel stopt niet in Breda. Businzet tussen Breda en Noorderkempen."]}],"alternativeTransportTimespans":[{"start":"2024-10-19T04:00:00+0200","end":"2024-10-21T02:00:00+0200","alternativeTransport":{"location":[{"station":{"coordinate":{"lat":51.5955543518066,"lng":4.78000020980835},"countryCode":"NL","name":"Breda","stationCode":"BD","uicCode":"8400131"},"description":"vanaf de Belcrumzijde"},{"station":{"coordinate":{"lat":51.358088,"lng":4.633977},"countryCode":"B","name":"Noorderkempen","stationCode":"NDKP","uicCode":"8821105"},"description":"volg de aanwijzingen op het station"}],"label":"Er rijden snelbussen tussen Breda en Noorderkempen.","shortLabel":"Er rijden snelbussen Breda - Noorderkempen."}}]},{"type":"MAINTENANCE","id":"7005441","title":"Den Haag - Rotterdam - Dordrecht.","isActive":false,"local":false,"titleSections":[[{"type":"STATION","value":"Den Haag C."},{"type":"ICON","value":"MAINTENANCE"},{"type":"STATION","value":"Dordrecht"}]],"registrationTime":"2024-10-18T09:11:23+0200","start":"2024-10-19T04:00:00+0200","releaseTime":"2024-10-18T09:11:23+0200","end":"2024-10-21T02:00:00+0200","period":"Zaterdag 19 oktober 4:00 uur t/m maandag 21 oktober 2:00 uur.","impact":{"value":2},"publicationSections":[{"section":{"stations":[{"coordinate":{"lat":52.0802764892578,"lng":4.32499980926514},"countryCode":"NL","name":"Den Haag Centraal","stationCode":"GVC","uicCode":"8400282"},{"coordinate":{"lat":52.0697212219238,"lng":4.32250022888184},"countryCode":"NL","name":"Den Haag HS","stationCode":"GV","uicCode":"8400280"},{"coordinate":{"lat":52.0538902282715,"lng":4.3086109161377},"countryCode":"NL","name":"Den Haag Moerwijk","stationCode":"GVMW","uicCode":"8400279"},{"coordinate":{"lat":52.039722442627,"lng":4.31916666030884},"countryCode":"NL","name":"Rijswijk","stationCode":"RSW","uicCode":"8400505"},{"coordinate":{"lat":52.0066680908203,"lng":4.35638904571533},"countryCode":"NL","name":"Delft","stationCode":"DT","uicCode":"8400170"},{"coordinate":{"lat":51.9908332824707,"lng":4.36472225189209},"countryCode":"NL","name":"Delft Campus","stationCode":"DTCP","uicCode":"8400166"},{"coordinate":{"lat":51.9212438128032,"lng":4.4089937210083},"countryCode":"NL","name":"Schiedam Centrum","stationCode":"SDM","uicCode":"8400553"},{"coordinate":{"lat":51.9249992370605,"lng":4.46888875961304},"countryCode":"NL","name":"Rotterdam Centraal","stationCode":"RTD","uicCode":"8400530"},{"coordinate":{"lat":51.9202766418457,"lng":4.48888874053955},"countryCode":"NL","name":"Rotterdam Blaak","stationCode":"RTB","uicCode":"8400529"},{"coordinate":{"lat":51.9044456481934,"lng":4.51027774810791},"countryCode":"NL","name":"Rotterdam Zuid","stationCode":"RTZ","uicCode":"8400533"},{"coordinate":{"lat":51.8800010681152,"lng":4.53138875961304},"countryCode":"NL","name":"Rotterdam Lombardijen","stationCode":"RLB","uicCode":"8400542"},{"coordinate":{"lat":51.8547210693359,"lng":4.5533332824707},"countryCode":"NL","name":"Barendrecht","stationCode":"BRD","uicCode":"8400090"},{"coordinate":{"lat":51.814998626709,"lng":4.64166688919067},"countryCode":"NL","name":"Zwijndrecht","stationCode":"ZWD","uicCode":"8400752"},{"coordinate":{"lat":51.8072204589844,"lng":4.66833353042603},"countryCode":"NL","name":"Dordrecht","stationCode":"DDR","uicCode":"8400180"}],"direction":"BOTH"},"consequence":{"section":{"stations":[{"coordinate":{"lat":52.0802764892578,"lng":4.32499980926514},"countryCode":"NL","name":"Den Haag Centraal","stationCode":"GVC","uicCode":"8400282"},{"coordinate":{"lat":52.0697212219238,"lng":4.32250022888184},"countryCode":"NL","name":"Den Haag HS","stationCode":"GV","uicCode":"8400280"},{"coordinate":{"lat":52.0538902282715,"lng":4.3086109161377},"countryCode":"NL","name":"Den Haag Moerwijk","stationCode":"GVMW","uicCode":"8400279"},{"coordinate":{"lat":52.039722442627,"lng":4.31916666030884},"countryCode":"NL","name":"Rijswijk","stationCode":"RSW","uicCode":"8400505"},{"coordinate":{"lat":52.0066680908203,"lng":4.35638904571533},"countryCode":"NL","name":"Delft","stationCode":"DT","uicCode":"8400170"},{"coordinate":{"lat":51.9908332824707,"lng":4.36472225189209},"countryCode":"NL","name":"Delft Campus","stationCode":"DTCP","uicCode":"8400166"},{"coordinate":{"lat":51.9212438128032,"lng":4.4089937210083},"countryCode":"NL","name":"Schiedam Centrum","stationCode":"SDM","uicCode":"8400553"},{"coordinate":{"lat":51.9249992370605,"lng":4.46888875961304},"countryCode":"NL","name":"Rotterdam Centraal","stationCode":"RTD","uicCode":"8400530"},{"coordinate":{"lat":51.9202766418457,"lng":4.48888874053955},"countryCode":"NL","name":"Rotterdam Blaak","stationCode":"RTB","uicCode":"8400529"},{"coordinate":{"lat":51.9044456481934,"lng":4.51027774810791},"countryCode":"NL","name":"Rotterdam Zuid","stationCode":"RTZ","uicCode":"8400533"},{"coordinate":{"lat":51.8800010681152,"lng":4.53138875961304},"countryCode":"NL","name":"Rotterdam Lombardijen","stationCode":"RLB","uicCode":"8400542"},{"coordinate":{"lat":51.8547210693359,"lng":4.5533332824707},"countryCode":"NL","name":"Barendrecht","stationCode":"BRD","uicCode":"8400090"},{"coordinate":{"lat":51.814998626709,"lng":4.64166688919067},"countryCode":"NL","name":"Zwijndrecht","stationCode":"ZWD","uicCode":"8400752"},{"coordinate":{"lat":51.8072204589844,"lng":4.66833353042603},"countryCode":"NL","name":"Dordrecht","stationCode":"DDR","uicCode":"8400180"}],"direction":"ONE_WAY"},"description":"minder Sprinters","level":"LESS_TRAINS"},"sectionType":"NL"}],"summaryAdditionalTravelTime":{"label":"De extra reistijd is ongeveer 15 minuten.","shortLabel":"Extra reistijd 15 min.","minimumDurationInMinutes":15,"maximumDurationInMinutes":15},"timespans":[{"start":"2024-10-19T04:00:00+0200","end":"2024-10-21T02:00:00+0200","period":"Zaterdag 19 oktober 4:00 uur t/m maandag 21 oktober 2:00 uur.","situation":{"label":"Door werkzaamheden: tussen Den Haag Centraal en Dordrecht rijden er minder Sprinters."},"cause":{"label":"werkzaamheden"},"additionalTravelTime":{"label":"De extra reistijd is ongeveer 15 minuten.","shortLabel":"Extra reistijd 15 min.","minimumDurationInMinutes":15,"maximumDurationInMinutes":15},"advices":["Stap over in Rotterdam Centraal als u met de Sprinter reist."]}],"alternativeTransportTimespans":[]},{"type":"MAINTENANCE","id":"7005444","title":"Schiphol - Leiden.","isActive":false,"local":false,"titleSections":[[{"type":"STATION","value":"Schiphol Airport"},{"type":"ICON","value":"MAINTENANCE"},{"type":"STATION","value":"Leiden C."}]],"registrationTime":"2024-10-17T14:59:26+0200","start":"2024-10-20T00:45:00+0200","releaseTime":"2024-10-17T14:59:26+0200","end":"2024-10-20T05:00:00+0200","period":"Zondag 20 oktober 0:45 uur t/m zondag 20 oktober 5:00 uur.","impact":{"value":3},"publicationSections":[{"section":{"stations":[{"coordinate":{"lat":52.3094444274902,"lng":4.76194429397583},"countryCode":"NL","name":"Schiphol Airport","stationCode":"SHL","uicCode":"8400561"},{"coordinate":{"lat":52.2933349609375,"lng":4.70055532455444},"countryCode":"NL","name":"Hoofddorp","stationCode":"HFD","uicCode":"8400332"},{"coordinate":{"lat":52.2588882446289,"lng":4.64555549621582},"countryCode":"NL","name":"Nieuw Vennep","stationCode":"NVP","uicCode":"8400460"},{"coordinate":{"lat":52.215278,"lng":4.517222},"countryCode":"NL","name":"Sassenheim","stationCode":"SSH","uicCode":"8400603"},{"coordinate":{"lat":52.1661109924316,"lng":4.48166656494141},"countryCode":"NL","name":"Leiden Centraal","stationCode":"LEDN","uicCode":"8400390"}],"direction":"BOTH"},"consequence":{"section":{"stations":[{"coordinate":{"lat":52.3094444274902,"lng":4.76194429397583},"countryCode":"NL","name":"Schiphol Airport","stationCode":"SHL","uicCode":"8400561"},{"coordinate":{"lat":52.2933349609375,"lng":4.70055532455444},"countryCode":"NL","name":"Hoofddorp","stationCode":"HFD","uicCode":"8400332"},{"coordinate":{"lat":52.2588882446289,"lng":4.64555549621582},"countryCode":"NL","name":"Nieuw Vennep","stationCode":"NVP","uicCode":"8400460"},{"coordinate":{"lat":52.215278,"lng":4.517222},"countryCode":"NL","name":"Sassenheim","stationCode":"SSH","uicCode":"8400603"},{"coordinate":{"lat":52.1661109924316,"lng":4.48166656494141},"countryCode":"NL","name":"Leiden Centraal","stationCode":"LEDN","uicCode":"8400390"}],"direction":"ONE_WAY"},"description":"rijden bussen","level":"LESS_TRAINS"},"sectionType":"NL"}],"summaryAdditionalTravelTime":{"label":"De extra reistijd is ongeveer 15 minuten.","shortLabel":"Extra reistijd 15 min.","minimumDurationInMinutes":15,"maximumDurationInMinutes":15},"timespans":[{"start":"2024-10-20T00:45:00+0200","end":"2024-10-20T05:00:00+0200","period":"Zondag 20 oktober 0:45 uur t/m zondag 20 oktober 5:00 uur.","situation":{"label":"Door werkzaamheden: tussen Schiphol Airport en Leiden Centraal rijden er bussen."},"cause":{"label":"werkzaamheden"},"additionalTravelTime":{"label":"De extra reistijd is ongeveer 15 minuten.","shortLabel":"Extra reistijd 15 min.","minimumDurationInMinutes":15,"maximumDurationInMinutes":15},"alternativeTransport":{"label":"er rijden stop- en snelbussen","shortLabel":"er rijden stop- en snelbussen"},"advices":[]}],"alternativeTransportTimespans":[{"start":"2024-10-20T00:45:00+0200","end":"2024-10-20T01:30:00+0200","alternativeTransport":{"location":[{"station":{"coordinate":{"lat":52.3094444274902,"lng":4.76194429397583},"countryCode":"NL","name":"Schiphol Airport","stationCode":"SHL","uicCode":"8400561"},"description":"vanaf de Halte F6, volg borden Touring coaches"},{"station":{"coordinate":{"lat":52.2933349609375,"lng":4.70055532455444},"countryCode":"NL","name":"Hoofddorp","stationCode":"HFD","uicCode":"8400332"},"description":"onder het spoorviaduct"}],"label":"Er rijden stopbussen tussen Schiphol Airport en Hoofddorp.","shortLabel":"Er rijden stopbussen Schiphol Airport - Hoofddorp."}},{"start":"2024-10-20T01:30:00+0200","end":"2024-10-20T05:00:00+0200","alternativeTransport":{"location":[{"station":{"coordinate":{"lat":52.3094444274902,"lng":4.76194429397583},"countryCode":"NL","name":"Schiphol Airport","stationCode":"SHL","uicCode":"8400561"},"description":"vanaf de Halte F6, volg borden Touring coaches"},{"station":{"coordinate":{"lat":52.1661109924316,"lng":4.48166656494141},"countryCode":"NL","name":"Leiden Centraal","stationCode":"LEDN","uicCode":"8400390"},"description":"vanaf het stadsbusstation"}],"label":"Er rijden snelbussen tussen Schiphol Airport en Leiden Centraal.","shortLabel":"Er rijden snelbussen Schiphol Airport - Leiden C."}}]},{"type":"MAINTENANCE","id":"7005537","title":"Haarlem - Zandvoort.","isActive":false,"local":false,"titleSections":[[{"type":"STATION","value":"Haarlem"},{"type":"ICON","value":"MAINTENANCE"},{"type":"STATION","value":"Zandvoort"}]],"registrationTime":"2024-10-18T10:45:25+0200","start":"2024-10-20T18:00:00+0200","releaseTime":"2024-10-18T10:45:25+0200","end":"2024-10-21T06:00:00+0200","period":"Zondag 20 oktober 18:00 uur t/m maandag 21 oktober 6:00 uur.","impact":{"value":2},"publicationSections":[{"section":{"stations":[{"coordinate":{"lat":52.3877792358398,"lng":4.63833332061768},"countryCode":"NL","name":"Haarlem","stationCode":"HLM","uicCode":"8400285"},{"coordinate":{"lat":52.3911094665527,"lng":4.6061110496521},"countryCode":"NL","name":"Overveen","stationCode":"OVN","uicCode":"8400501"},{"coordinate":{"lat":52.3752784729004,"lng":4.53277778625488},"countryCode":"NL","name":"Zandvoort aan Zee","stationCode":"ZVT","uicCode":"8400733"}],"direction":"BOTH"},"consequence":{"section":{"stations":[{"coordinate":{"lat":52.3877792358398,"lng":4.63833332061768},"countryCode":"NL","name":"Haarlem","stationCode":"HLM","uicCode":"8400285"},{"coordinate":{"lat":52.3911094665527,"lng":4.6061110496521},"countryCode":"NL","name":"Overveen","stationCode":"OVN","uicCode":"8400501"},{"coordinate":{"lat":52.3752784729004,"lng":4.53277778625488},"countryCode":"NL","name":"Zandvoort aan Zee","stationCode":"ZVT","uicCode":"8400733"}],"direction":"ONE_WAY"},"description":"rijden bussen","level":"LESS_TRAINS"},"sectionType":"NL"}],"summaryAdditionalTravelTime":{"label":"De extra reistijd is ongeveer 15 minuten.","shortLabel":"Extra reistijd 15 min.","minimumDurationInMinutes":15,"maximumDurationInMinutes":15},"timespans":[{"start":"2024-10-20T18:00:00+0200","end":"2024-10-21T06:00:00+0200","period":"Zondag 20 oktober 18:00 uur t/m maandag 21 oktober 6:00 uur.","situation":{"label":"Door herstelwerkzaamheden: tussen Haarlem en Zandvoort aan Zee rijden er bussen."},"cause":{"label":"herstelwerkzaamheden"},"additionalTravelTime":{"label":"De extra reistijd is ongeveer 15 minuten.","shortLabel":"Extra reistijd 15 min.","minimumDurationInMinutes":15,"maximumDurationInMinutes":15},"alternativeTransport":{"label":"er rijden bussen","shortLabel":"er rijden bussen"},"advices":[]}],"alternativeTransportTimespans":[{"start":"2024-10-20T18:00:00+0200","end":"2024-10-21T01:00:00+0200","alternativeTransport":{"location":[{"station":{"coordinate":{"lat":52.3877792358398,"lng":4.63833332061768},"countryCode":"NL","name":"Haarlem","stationCode":"HLM","uicCode":"8400285"},"description":"vanaf de Jansweg"},{"station":{"coordinate":{"lat":52.3911094665527,"lng":4.6061110496521},"countryCode":"NL","name":"Overveen","stationCode":"OVN","uicCode":"8400501"},"description":"vanaf de voorzijde van het station"},{"station":{"coordinate":{"lat":52.3752784729004,"lng":4.53277778625488},"countryCode":"NL","name":"Zandvoort aan Zee","stationCode":"ZVT","uicCode":"8400733"},"description":"vanaf de voorzijde van het station"}],"label":"Er rijden bussen tussen Haarlem, Overveen en Zandvoort aan Zee.","shortLabel":"Er rijden bussen Haarlem - Overveen - Zandvoort."}}]},{"type":"MAINTENANCE","id":"7005265","title":"Heerlen - Aachen Hbf.","isActive":false,"local":false,"titleSections":[[{"type":"STATION","value":"Heerlen"},{"type":"ICON","value":"MAINTENANCE"},{"type":"STATION","value":"Aachen Hbf"}]],"registrationTime":"2024-10-09T13:24:45+0200","start":"2024-10-21T08:45:00+0200","releaseTime":"2024-10-09T13:24:45+0200","end":"2024-10-25T01:30:00+0200","period":"Maandag 21 oktober 8:45 uur t/m vrijdag 25 oktober 1:30 uur.","impact":{"value":2},"publicationSections":[{"section":{"stations":[{"coordinate":{"lat":50.8908348083496,"lng":5.97499990463257},"countryCode":"NL","name":"Heerlen","stationCode":"HRL","uicCode":"8400307"},{"coordinate":{"lat":50.8963890075684,"lng":6.01916646957398},"countryCode":"NL","name":"Landgraaf","stationCode":"LG","uicCode":"8400548"},{"coordinate":{"lat":50.8960498196442,"lng":6.0602474212646396},"countryCode":"NL","name":"Eygelshoven Markt","stationCode":"EGHM","uicCode":"8400234"},{"coordinate":{"lat":50.870916,"lng":6.094486},"countryCode":"D","name":"Herzogenrath","stationCode":"HZ","uicCode":"8015190"},{"coordinate":{"lat":50.7678,"lng":6.091499},"countryCode":"D","name":"Aachen Hbf","stationCode":"AHBF","uicCode":"8015345"}],"direction":"BOTH"},"consequence":{"section":{"stations":[{"coordinate":{"lat":50.8908348083496,"lng":5.97499990463257},"countryCode":"NL","name":"Heerlen","stationCode":"HRL","uicCode":"8400307"},{"coordinate":{"lat":50.8963890075684,"lng":6.01916646957398},"countryCode":"NL","name":"Landgraaf","stationCode":"LG","uicCode":"8400548"},{"coordinate":{"lat":50.8960498196442,"lng":6.0602474212646396},"countryCode":"NL","name":"Eygelshoven Markt","stationCode":"EGHM","uicCode":"8400234"},{"coordinate":{"lat":50.870916,"lng":6.094486},"countryCode":"D","name":"Herzogenrath","stationCode":"HZ","uicCode":"8015190"},{"coordinate":{"lat":50.7678,"lng":6.091499},"countryCode":"D","name":"Aachen Hbf","stationCode":"AHBF","uicCode":"8015345"}],"direction":"ONE_WAY"},"description":"minder treinen","level":"LESS_TRAINS"},"sectionType":"NEIGHBORING_COUNTRY"},{"section":{"stations":[{"coordinate":{"lat":50.8908348083496,"lng":5.97499990463257},"countryCode":"NL","name":"Heerlen","stationCode":"HRL","uicCode":"8400307"},{"coordinate":{"lat":50.8963890075684,"lng":6.01916646957398},"countryCode":"NL","name":"Landgraaf","stationCode":"LG","uicCode":"8400548"},{"coordinate":{"lat":50.8960498196442,"lng":6.0602474212646396},"countryCode":"NL","name":"Eygelshoven Markt","stationCode":"EGHM","uicCode":"8400234"},{"coordinate":{"lat":50.870916,"lng":6.094486},"countryCode":"D","name":"Herzogenrath","stationCode":"HZ","uicCode":"8015190"},{"coordinate":{"lat":50.7678,"lng":6.091499},"countryCode":"D","name":"Aachen Hbf","stationCode":"AHBF","uicCode":"8015345"}],"direction":"BOTH"},"consequence":{"section":{"stations":[{"coordinate":{"lat":50.8908348083496,"lng":5.97499990463257},"countryCode":"NL","name":"Heerlen","stationCode":"HRL","uicCode":"8400307"},{"coordinate":{"lat":50.8963890075684,"lng":6.01916646957398},"countryCode":"NL","name":"Landgraaf","stationCode":"LG","uicCode":"8400548"},{"coordinate":{"lat":50.8960498196442,"lng":6.0602474212646396},"countryCode":"NL","name":"Eygelshoven Markt","stationCode":"EGHM","uicCode":"8400234"},{"coordinate":{"lat":50.870916,"lng":6.094486},"countryCode":"D","name":"Herzogenrath","stationCode":"HZ","uicCode":"8015190"},{"coordinate":{"lat":50.7678,"lng":6.091499},"countryCode":"D","name":"Aachen Hbf","stationCode":"AHBF","uicCode":"8015345"}],"direction":"ONE_WAY"},"description":"rijden bussen","level":"LESS_TRAINS"},"sectionType":"NEIGHBORING_COUNTRY"}],"summaryAdditionalTravelTime":{"label":"De extra reistijd kan oplopen tot 30 minuten.","shortLabel":"Extra reistijd tot 30 min.","minimumDurationInMinutes":30,"maximumDurationInMinutes":30},"timespans":[{"start":"2024-10-21T08:45:00+0200","end":"2024-10-21T12:15:00+0200","period":"Maandag 21 oktober 8:45 uur t/m maandag 21 oktober 12:15 uur.","situation":{"label":"Door werkzaamheden: tussen Heerlen en Aachen Hbf rijden er minder treinen."},"cause":{"label":"werkzaamheden"},"additionalTravelTime":{"label":"De extra reistijd is ongeveer 30 minuten.","shortLabel":"Extra reistijd 30 min.","minimumDurationInMinutes":30,"maximumDurationInMinutes":30},"alternativeTransport":{"label":"er rijden stopbussen","shortLabel":"er rijden stopbussen"},"advices":["Enkele treinen zijn vervangen door een stopbus. U kunt ook met een trein eerder of later reizen."]},{"start":"2024-10-24T08:45:00+0200","end":"2024-10-24T12:15:00+0200","period":"Donderdag 24 oktober 8:45 uur t/m donderdag 24 oktober 12:15 uur.","situation":{"label":"Door werkzaamheden: tussen Heerlen en Aachen Hbf rijden er minder treinen."},"cause":{"label":"werkzaamheden"},"additionalTravelTime":{"label":"De extra reistijd is ongeveer 30 minuten.","shortLabel":"Extra reistijd 30 min.","minimumDurationInMinutes":30,"maximumDurationInMinutes":30},"alternativeTransport":{"label":"er rijden stopbussen","shortLabel":"er rijden stopbussen"},"advices":["Enkele treinen zijn vervangen door een stopbus. U kunt ook met een trein eerder of later reizen."]},{"start":"2024-10-24T21:00:00+0200","end":"2024-10-25T01:30:00+0200","period":"Donderdag 24 oktober 21:00 uur t/m vrijdag 25 oktober 1:30 uur.","situation":{"label":"Door werkzaamheden: tussen Heerlen en Aachen Hbf rijden er bussen."},"cause":{"label":"werkzaamheden"},"additionalTravelTime":{"label":"De extra reistijd is ongeveer 30 minuten.","shortLabel":"Extra reistijd 30 min.","minimumDurationInMinutes":30,"maximumDurationInMinutes":30},"alternativeTransport":{"label":"er rijden stopbussen","shortLabel":"er rijden stopbussen"},"advices":["Van 21:24 tot 00:24 uur rijdt elke uur een vervangende bus tussen Heerlen en Aachen Hbf."]}],"alternativeTransportTimespans":[{"start":"2024-10-21T08:45:00+0200","end":"2024-10-21T12:15:00+0200","alternativeTransport":{"location":[{"station":{"coordinate":{"lat":50.8908348083496,"lng":5.97499990463257},"countryCode":"NL","name":"Heerlen","stationCode":"HRL","uicCode":"8400307"},"description":"vanaf het busstation Perron A"},{"station":{"coordinate":{"lat":50.8963890075684,"lng":6.01916646957398},"countryCode":"NL","name":"Landgraaf","stationCode":"LG","uicCode":"8400548"},"description":"vanaf de doorgaande weg, voorzijde station"},{"station":{"coordinate":{"lat":50.8960498196442,"lng":6.0602474212646396},"countryCode":"NL","name":"Eygelshoven Markt","stationCode":"EGHM","uicCode":"8400234"},"description":"vanaf de bushalte Centrum"},{"station":{"coordinate":{"lat":50.870916,"lng":6.094486},"countryCode":"D","name":"Herzogenrath","stationCode":"HZ","uicCode":"8015190"},"description":"volg de aanwijzingen op het station"},{"station":{"coordinate":{"lat":50.78036,"lng":6.070715},"countryCode":"D","name":"Aachen West","stationCode":"AW","uicCode":"8015199"},"description":"volg de aanwijzingen op het station"},{"station":{"coordinate":{"lat":50.7678,"lng":6.091499},"countryCode":"D","name":"Aachen Hbf","stationCode":"AHBF","uicCode":"8015345"},"description":"volg de aanwijzingen op het station"}],"label":"Er rijden stopbussen tussen Heerlen, Landgraaf, Eygelshoven Markt, Herzogenrath, Aachen West en Aachen Hbf.","shortLabel":"Er rijden stopbussen Heerlen - Landgraaf - Eygelshoven Mrkt - Herzogenrath - Aachen West - Aachen Hbf."}},{"start":"2024-10-24T08:45:00+0200","end":"2024-10-24T12:15:00+0200","alternativeTransport":{"location":[{"station":{"coordinate":{"lat":50.8908348083496,"lng":5.97499990463257},"countryCode":"NL","name":"Heerlen","stationCode":"HRL","uicCode":"8400307"},"description":"vanaf het busstation Perron A"},{"station":{"coordinate":{"lat":50.8963890075684,"lng":6.01916646957398},"countryCode":"NL","name":"Landgraaf","stationCode":"LG","uicCode":"8400548"},"description":"vanaf de doorgaande weg, voorzijde station"},{"station":{"coordinate":{"lat":50.8960498196442,"lng":6.0602474212646396},"countryCode":"NL","name":"Eygelshoven Markt","stationCode":"EGHM","uicCode":"8400234"},"description":"vanaf de bushalte Centrum"},{"station":{"coordinate":{"lat":50.870916,"lng":6.094486},"countryCode":"D","name":"Herzogenrath","stationCode":"HZ","uicCode":"8015190"},"description":"volg de aanwijzingen op het station"},{"station":{"coordinate":{"lat":50.78036,"lng":6.070715},"countryCode":"D","name":"Aachen West","stationCode":"AW","uicCode":"8015199"},"description":"volg de aanwijzingen op het station"},{"station":{"coordinate":{"lat":50.7678,"lng":6.091499},"countryCode":"D","name":"Aachen Hbf","stationCode":"AHBF","uicCode":"8015345"},"description":"volg de aanwijzingen op het station"}],"label":"Er rijden stopbussen tussen Heerlen, Landgraaf, Eygelshoven Markt, Herzogenrath, Aachen West en Aachen Hbf.","shortLabel":"Er rijden stopbussen Heerlen - Landgraaf - Eygelshoven Mrkt - Herzogenrath - Aachen West - Aachen Hbf."}},{"start":"2024-10-24T21:00:00+0200","end":"2024-10-25T01:30:00+0200","alternativeTransport":{"location":[{"station":{"coordinate":{"lat":50.8908348083496,"lng":5.97499990463257},"countryCode":"NL","name":"Heerlen","stationCode":"HRL","uicCode":"8400307"},"description":"vanaf het busstation Perron A"},{"station":{"coordinate":{"lat":50.8963890075684,"lng":6.01916646957398},"countryCode":"NL","name":"Landgraaf","stationCode":"LG","uicCode":"8400548"},"description":"vanaf de doorgaande weg, voorzijde station"},{"station":{"coordinate":{"lat":50.8960498196442,"lng":6.0602474212646396},"countryCode":"NL","name":"Eygelshoven Markt","stationCode":"EGHM","uicCode":"8400234"},"description":"vanaf de bushalte Centrum"},{"station":{"coordinate":{"lat":50.870916,"lng":6.094486},"countryCode":"D","name":"Herzogenrath","stationCode":"HZ","uicCode":"8015190"},"description":"volg de aanwijzingen op het station"},{"station":{"coordinate":{"lat":50.78036,"lng":6.070715},"countryCode":"D","name":"Aachen West","stationCode":"AW","uicCode":"8015199"},"description":"volg de aanwijzingen op het station"},{"station":{"coordinate":{"lat":50.7678,"lng":6.091499},"countryCode":"D","name":"Aachen Hbf","stationCode":"AHBF","uicCode":"8015345"},"description":"volg de aanwijzingen op het station"}],"label":"Er rijden stopbussen tussen Heerlen, Landgraaf, Eygelshoven Markt, Herzogenrath, Aachen West en Aachen Hbf.","shortLabel":"Er rijden stopbussen Heerlen - Landgraaf - Eygelshoven Mrkt - Herzogenrath - Aachen West - Aachen Hbf."}}]},{"type":"MAINTENANCE","id":"7005482","title":"Den Haag - Rotterdam.","isActive":false,"local":false,"titleSections":[[{"type":"STATION","value":"Den Haag HS"},{"type":"STATION","value":"Delft Campus"},{"type":"ICON","value":"MAINTENANCE"},{"type":"STATION","value":"Rotterdam C."}],[{"type":"STATION","value":"Den Haag HS"},{"type":"ICON","value":"MAINTENANCE"},{"type":"STATION","value":"Rotterdam C."}]],"registrationTime":"2024-10-15T15:13:00+0200","start":"2024-10-22T01:00:00+0200","releaseTime":"2024-10-15T15:13:00+0200","end":"2024-11-04T05:00:00+0100","period":"Dinsdag 22 oktober 1:00 uur t/m maandag 4 november 5:00 uur.","impact":{"value":5},"publicationSections":[{"section":{"stations":[{"coordinate":{"lat":52.0697212219238,"lng":4.32250022888184},"countryCode":"NL","name":"Den Haag HS","stationCode":"GV","uicCode":"8400280"},{"coordinate":{"lat":52.0538902282715,"lng":4.3086109161377},"countryCode":"NL","name":"Den Haag Moerwijk","stationCode":"GVMW","uicCode":"8400279"},{"coordinate":{"lat":52.039722442627,"lng":4.31916666030884},"countryCode":"NL","name":"Rijswijk","stationCode":"RSW","uicCode":"8400505"},{"coordinate":{"lat":52.0066680908203,"lng":4.35638904571533},"countryCode":"NL","name":"Delft","stationCode":"DT","uicCode":"8400170"},{"coordinate":{"lat":51.9908332824707,"lng":4.36472225189209},"countryCode":"NL","name":"Delft Campus","stationCode":"DTCP","uicCode":"8400166"},{"coordinate":{"lat":51.9212438128032,"lng":4.4089937210083},"countryCode":"NL","name":"Schiedam Centrum","stationCode":"SDM","uicCode":"8400553"},{"coordinate":{"lat":51.9249992370605,"lng":4.46888875961304},"countryCode":"NL","name":"Rotterdam Centraal","stationCode":"RTD","uicCode":"8400530"}],"direction":"BOTH"},"consequence":{"section":{"stations":[{"coordinate":{"lat":51.9908332824707,"lng":4.36472225189209},"countryCode":"NL","name":"Delft Campus","stationCode":"DTCP","uicCode":"8400166"},{"coordinate":{"lat":51.9212438128032,"lng":4.4089937210083},"countryCode":"NL","name":"Schiedam Centrum","stationCode":"SDM","uicCode":"8400553"},{"coordinate":{"lat":51.9249992370605,"lng":4.46888875961304},"countryCode":"NL","name":"Rotterdam Centraal","stationCode":"RTD","uicCode":"8400530"}],"direction":"ONE_WAY"},"description":"vervangend vervoer","level":"LESS_TRAINS"},"sectionType":"NL"},{"section":{"stations":[{"coordinate":{"lat":52.0697212219238,"lng":4.32250022888184},"countryCode":"NL","name":"Den Haag HS","stationCode":"GV","uicCode":"8400280"},{"coordinate":{"lat":52.0538902282715,"lng":4.3086109161377},"countryCode":"NL","name":"Den Haag Moerwijk","stationCode":"GVMW","uicCode":"8400279"},{"coordinate":{"lat":52.039722442627,"lng":4.31916666030884},"countryCode":"NL","name":"Rijswijk","stationCode":"RSW","uicCode":"8400505"},{"coordinate":{"lat":52.0066680908203,"lng":4.35638904571533},"countryCode":"NL","name":"Delft","stationCode":"DT","uicCode":"8400170"},{"coordinate":{"lat":51.9908332824707,"lng":4.36472225189209},"countryCode":"NL","name":"Delft Campus","stationCode":"DTCP","uicCode":"8400166"},{"coordinate":{"lat":51.9212438128032,"lng":4.4089937210083},"countryCode":"NL","name":"Schiedam Centrum","stationCode":"SDM","uicCode":"8400553"},{"coordinate":{"lat":51.9249992370605,"lng":4.46888875961304},"countryCode":"NL","name":"Rotterdam Centraal","stationCode":"RTD","uicCode":"8400530"}],"direction":"BOTH"},"consequence":{"section":{"stations":[{"coordinate":{"lat":52.0697212219238,"lng":4.32250022888184},"countryCode":"NL","name":"Den Haag HS","stationCode":"GV","uicCode":"8400280"},{"coordinate":{"lat":52.0538902282715,"lng":4.3086109161377},"countryCode":"NL","name":"Den Haag Moerwijk","stationCode":"GVMW","uicCode":"8400279"},{"coordinate":{"lat":52.039722442627,"lng":4.31916666030884},"countryCode":"NL","name":"Rijswijk","stationCode":"RSW","uicCode":"8400505"},{"coordinate":{"lat":52.0066680908203,"lng":4.35638904571533},"countryCode":"NL","name":"Delft","stationCode":"DT","uicCode":"8400170"},{"coordinate":{"lat":51.9908332824707,"lng":4.36472225189209},"countryCode":"NL","name":"Delft Campus","stationCode":"DTCP","uicCode":"8400166"},{"coordinate":{"lat":51.9212438128032,"lng":4.4089937210083},"countryCode":"NL","name":"Schiedam Centrum","stationCode":"SDM","uicCode":"8400553"},{"coordinate":{"lat":51.9249992370605,"lng":4.46888875961304},"countryCode":"NL","name":"Rotterdam Centraal","stationCode":"RTD","uicCode":"8400530"}],"direction":"ONE_WAY"},"description":"vervangend vervoer","level":"LESS_TRAINS"},"sectionType":"NL"}],"summaryAdditionalTravelTime":{"label":"De extra reistijd kan oplopen tot 45 minuten.","shortLabel":"Extra reistijd tot 45 min.","minimumDurationInMinutes":45,"maximumDurationInMinutes":45},"timespans":[{"start":"2024-10-22T01:00:00+0200","end":"2024-11-02T01:00:00+0100","period":"Dinsdag 22 oktober 1:00 uur t/m zaterdag 2 november 1:00 uur.","situation":{"label":"Door werkzaamheden: tussen Delft Campus en Rotterdam Centraal rijdt er vervangend vervoer."},"cause":{"label":"werkzaamheden"},"additionalTravelTime":{"label":"De extra reistijd is ongeveer 30 minuten.","shortLabel":"Extra reistijd 30 min.","minimumDurationInMinutes":30,"maximumDurationInMinutes":30},"alternativeTransport":{"label":"maak gebruik van het vervangende vervoer","shortLabel":"gebruik het vervangende vervoer"},"advices":["Reisplanner is vanaf maandag 21 okt bijgewerkt. Reis tussen Blaak en Schiedam C met metro A, B of C. Uw NS-vervoerbewijs is geldig in metro.","Tussen Rotterdam C. en Delft reis via Blaak en Schiedam C.","Tussen Den Haag C. en Rotterdam C. reis via Gouda."]},{"start":"2024-11-02T01:00:00+0100","end":"2024-11-04T05:00:00+0100","period":"Zaterdag 2 november 1:00 uur t/m maandag 4 november 5:00 uur.","situation":{"label":"Door werkzaamheden: tussen Den Haag HS en Rotterdam Centraal rijdt er vervangend vervoer."},"cause":{"label":"werkzaamheden"},"additionalTravelTime":{"label":"De extra reistijd is ongeveer 45 minuten.","shortLabel":"Extra reistijd 45 min.","minimumDurationInMinutes":45,"maximumDurationInMinutes":45},"alternativeTransport":{"label":"maak gebruik van het vervangende vervoer","shortLabel":"gebruik het vervangende vervoer"},"advices":["Reis tussen Rotterdam C en Delft Campus via Rotterdam Blaak en met metro tussen Blaak en Schiedam C. Uw NS-vervoerbewijs is geldig op deze metrolijn.","Tussen Den Haag C. en Rotterdam C. reis via Gouda.","Tussen Rotterdam C. en Delft reis via Blaak en Schiedam C."]}],"alternativeTransportTimespans":[{"start":"2024-10-22T01:00:00+0200","end":"2024-10-22T05:00:00+0200","alternativeTransport":{"location":[{"station":{"coordinate":{"lat":52.0697212219238,"lng":4.32250022888184},"countryCode":"NL","name":"Den Haag HS","stationCode":"GV","uicCode":"8400280"},"description":"vanaf de achterzijde van het station"},{"station":{"coordinate":{"lat":52.0066680908203,"lng":4.35638904571533},"countryCode":"NL","name":"Delft","stationCode":"DT","uicCode":"8400170"},"description":"vanaf de voorzijde van het station, aan de Coenderstraat"}],"label":"Er rijden snelbussen tussen Den Haag HS en Delft.","shortLabel":"Er rijden snelbussen Den Haag HS - Delft."}},{"start":"2024-10-22T01:00:00+0200","end":"2024-10-22T05:00:00+0200","alternativeTransport":{"location":[{"station":{"coordinate":{"lat":51.9249992370605,"lng":4.46888875961304},"countryCode":"NL","name":"Rotterdam Centraal","stationCode":"RTD","uicCode":"8400530"},"description":"vanaf de Conradstraat aan de centrumzijde"},{"station":{"coordinate":{"lat":52.0066680908203,"lng":4.35638904571533},"countryCode":"NL","name":"Delft","stationCode":"DT","uicCode":"8400170"},"description":"vanaf de voorzijde van het station, aan de Coenderstraat"}],"label":"Er rijden snelbussen tussen Rotterdam Centraal en Delft.","shortLabel":"Er rijden snelbussen Rotterdam C. - Delft."}},{"start":"2024-10-22T05:00:00+0200","end":"2024-10-23T01:00:00+0200","alternativeTransport":{"location":[{"station":{"coordinate":{"lat":51.9908332824707,"lng":4.36472225189209},"countryCode":"NL","name":"Delft Campus","stationCode":"DTCP","uicCode":"8400166"},"description":"vanaf het Stationsplein"},{"station":{"coordinate":{"lat":51.9212438128032,"lng":4.4089937210083},"countryCode":"NL","name":"Schiedam Centrum","stationCode":"SDM","uicCode":"8400553"},"description":"vanaf de Horvathweg"}],"label":"Er rijden stopbussen tussen Delft Campus en Schiedam Centrum.","shortLabel":"Er rijden stopbussen Delft Campus - Schiedam C."}},{"start":"2024-10-22T05:00:00+0200","end":"2024-10-23T01:00:00+0200","alternativeTransport":{"location":[{"station":{"coordinate":{"lat":51.9212438128032,"lng":4.4089937210083},"countryCode":"NL","name":"Schiedam Centrum","stationCode":"SDM","uicCode":"8400553"},"description":"volg de aanwijzingen op het station"},{"station":{"coordinate":{"lat":51.9202766418457,"lng":4.48888874053955},"countryCode":"NL","name":"Rotterdam Blaak","stationCode":"RTB","uicCode":"8400529"},"description":"volg de aanwijzingen op het station"}],"label":"Maak gebruik van de Rotterdamse metro tussen Schiedam Centrum en Rotterdam Blaak.","shortLabel":"Gebruik de Rotterdamse metro Schiedam C. - Blaak."}},{"start":"2024-10-23T01:00:00+0200","end":"2024-10-23T05:00:00+0200","alternativeTransport":{"location":[{"station":{"coordinate":{"lat":52.0697212219238,"lng":4.32250022888184},"countryCode":"NL","name":"Den Haag HS","stationCode":"GV","uicCode":"8400280"},"description":"vanaf de achterzijde van het station"},{"station":{"coordinate":{"lat":52.0066680908203,"lng":4.35638904571533},"countryCode":"NL","name":"Delft","stationCode":"DT","uicCode":"8400170"},"description":"vanaf de voorzijde van het station, aan de Coenderstraat"}],"label":"Er rijden snelbussen tussen Den Haag HS en Delft.","shortLabel":"Er rijden snelbussen Den Haag HS - Delft."}},{"start":"2024-10-23T01:00:00+0200","end":"2024-10-23T05:00:00+0200","alternativeTransport":{"location":[{"station":{"coordinate":{"lat":51.9249992370605,"lng":4.46888875961304},"countryCode":"NL","name":"Rotterdam Centraal","stationCode":"RTD","uicCode":"8400530"},"description":"vanaf de Conradstraat aan de centrumzijde"},{"station":{"coordinate":{"lat":52.0066680908203,"lng":4.35638904571533},"countryCode":"NL","name":"Delft","stationCode":"DT","uicCode":"8400170"},"description":"vanaf de voorzijde van het station, aan de Coenderstraat"}],"label":"Er rijden snelbussen tussen Rotterdam Centraal en Delft.","shortLabel":"Er rijden snelbussen Rotterdam C. - Delft."}},{"start":"2024-10-23T05:00:00+0200","end":"2024-10-24T01:00:00+0200","alternativeTransport":{"location":[{"station":{"coordinate":{"lat":51.9908332824707,"lng":4.36472225189209},"countryCode":"NL","name":"Delft Campus","stationCode":"DTCP","uicCode":"8400166"},"description":"vanaf het Stationsplein"},{"station":{"coordinate":{"lat":51.9212438128032,"lng":4.4089937210083},"countryCode":"NL","name":"Schiedam Centrum","stationCode":"SDM","uicCode":"8400553"},"description":"vanaf de Horvathweg"}],"label":"Er rijden stopbussen tussen Delft Campus en Schiedam Centrum.","shortLabel":"Er rijden stopbussen Delft Campus - Schiedam C."}},{"start":"2024-10-23T05:00:00+0200","end":"2024-10-24T01:00:00+0200","alternativeTransport":{"location":[{"station":{"coordinate":{"lat":51.9212438128032,"lng":4.4089937210083},"countryCode":"NL","name":"Schiedam Centrum","stationCode":"SDM","uicCode":"8400553"},"description":"volg de aanwijzingen op het station"},{"station":{"coordinate":{"lat":51.9202766418457,"lng":4.48888874053955},"countryCode":"NL","name":"Rotterdam Blaak","stationCode":"RTB","uicCode":"8400529"},"description":"volg de aanwijzingen op het station"}],"label":"Maak gebruik van de Rotterdamse metro tussen Schiedam Centrum en Rotterdam Blaak.","shortLabel":"Gebruik de Rotterdamse metro Schiedam C. - Blaak."}},{"start":"2024-10-24T01:00:00+0200","end":"2024-10-24T05:00:00+0200","alternativeTransport":{"location":[{"station":{"coordinate":{"lat":52.0697212219238,"lng":4.32250022888184},"countryCode":"NL","name":"Den Haag HS","stationCode":"GV","uicCode":"8400280"},"description":"vanaf de achterzijde van het station"},{"station":{"coordinate":{"lat":52.0066680908203,"lng":4.35638904571533},"countryCode":"NL","name":"Delft","stationCode":"DT","uicCode":"8400170"},"description":"vanaf de voorzijde van het station, aan de Coenderstraat"}],"label":"Er rijden snelbussen tussen Den Haag HS en Delft.","shortLabel":"Er rijden snelbussen Den Haag HS - Delft."}},{"start":"2024-10-24T01:00:00+0200","end":"2024-10-24T05:00:00+0200","alternativeTransport":{"location":[{"station":{"coordinate":{"lat":51.9249992370605,"lng":4.46888875961304},"countryCode":"NL","name":"Rotterdam Centraal","stationCode":"RTD","uicCode":"8400530"},"description":"vanaf de Conradstraat aan de centrumzijde"},{"station":{"coordinate":{"lat":52.0066680908203,"lng":4.35638904571533},"countryCode":"NL","name":"Delft","stationCode":"DT","uicCode":"8400170"},"description":"vanaf de voorzijde van het station, aan de Coenderstraat"}],"label":"Er rijden snelbussen tussen Rotterdam Centraal en Delft.","shortLabel":"Er rijden snelbussen Rotterdam C. - Delft."}},{"start":"2024-10-24T05:00:00+0200","end":"2024-10-25T01:00:00+0200","alternativeTransport":{"location":[{"station":{"coordinate":{"lat":51.9908332824707,"lng":4.36472225189209},"countryCode":"NL","name":"Delft Campus","stationCode":"DTCP","uicCode":"8400166"},"description":"vanaf het Stationsplein"},{"station":{"coordinate":{"lat":51.9212438128032,"lng":4.4089937210083},"countryCode":"NL","name":"Schiedam Centrum","stationCode":"SDM","uicCode":"8400553"},"description":"vanaf de Horvathweg"}],"label":"Er rijden stopbussen tussen Delft Campus en Schiedam Centrum.","shortLabel":"Er rijden stopbussen Delft Campus - Schiedam C."}},{"start":"2024-10-24T05:00:00+0200","end":"2024-10-25T01:00:00+0200","alternativeTransport":{"location":[{"station":{"coordinate":{"lat":51.9212438128032,"lng":4.4089937210083},"countryCode":"NL","name":"Schiedam Centrum","stationCode":"SDM","uicCode":"8400553"},"description":"volg de aanwijzingen op het station"},{"station":{"coordinate":{"lat":51.9202766418457,"lng":4.48888874053955},"countryCode":"NL","name":"Rotterdam Blaak","stationCode":"RTB","uicCode":"8400529"},"description":"volg de aanwijzingen op het station"}],"label":"Maak gebruik van de Rotterdamse metro tussen Schiedam Centrum en Rotterdam Blaak.","shortLabel":"Gebruik de Rotterdamse metro Schiedam C. - Blaak."}},{"start":"2024-10-25T01:00:00+0200","end":"2024-10-25T05:00:00+0200","alternativeTransport":{"location":[{"station":{"coordinate":{"lat":52.0697212219238,"lng":4.32250022888184},"countryCode":"NL","name":"Den Haag HS","stationCode":"GV","uicCode":"8400280"},"description":"vanaf de achterzijde van het station"},{"station":{"coordinate":{"lat":52.0066680908203,"lng":4.35638904571533},"countryCode":"NL","name":"Delft","stationCode":"DT","uicCode":"8400170"},"description":"vanaf de voorzijde van het station, aan de Coenderstraat"}],"label":"Er rijden snelbussen tussen Den Haag HS en Delft.","shortLabel":"Er rijden snelbussen Den Haag HS - Delft."}},{"start":"2024-10-25T01:00:00+0200","end":"2024-10-25T05:00:00+0200","alternativeTransport":{"location":[{"station":{"coordinate":{"lat":51.9249992370605,"lng":4.46888875961304},"countryCode":"NL","name":"Rotterdam Centraal","stationCode":"RTD","uicCode":"8400530"},"description":"vanaf de Conradstraat aan de centrumzijde"},{"station":{"coordinate":{"lat":52.0066680908203,"lng":4.35638904571533},"countryCode":"NL","name":"Delft","stationCode":"DT","uicCode":"8400170"},"description":"vanaf de voorzijde van het station, aan de Coenderstraat"}],"label":"Er rijden snelbussen tussen Rotterdam Centraal en Delft.","shortLabel":"Er rijden snelbussen Rotterdam C. - Delft."}},{"start":"2024-10-25T05:00:00+0200","end":"2024-10-26T01:00:00+0200","alternativeTransport":{"location":[{"station":{"coordinate":{"lat":51.9908332824707,"lng":4.36472225189209},"countryCode":"NL","name":"Delft Campus","stationCode":"DTCP","uicCode":"8400166"},"description":"vanaf het Stationsplein"},{"station":{"coordinate":{"lat":51.9212438128032,"lng":4.4089937210083},"countryCode":"NL","name":"Schiedam Centrum","stationCode":"SDM","uicCode":"8400553"},"description":"vanaf de Horvathweg"}],"label":"Er rijden stopbussen tussen Delft Campus en Schiedam Centrum.","shortLabel":"Er rijden stopbussen Delft Campus - Schiedam C."}},{"start":"2024-10-25T05:00:00+0200","end":"2024-10-26T01:00:00+0200","alternativeTransport":{"location":[{"station":{"coordinate":{"lat":51.9212438128032,"lng":4.4089937210083},"countryCode":"NL","name":"Schiedam Centrum","stationCode":"SDM","uicCode":"8400553"},"description":"volg de aanwijzingen op het station"},{"station":{"coordinate":{"lat":51.9202766418457,"lng":4.48888874053955},"countryCode":"NL","name":"Rotterdam Blaak","stationCode":"RTB","uicCode":"8400529"},"description":"volg de aanwijzingen op het station"}],"label":"Maak gebruik van de Rotterdamse metro tussen Schiedam Centrum en Rotterdam Blaak.","shortLabel":"Gebruik de Rotterdamse metro Schiedam C. - Blaak."}},{"start":"2024-10-26T01:00:00+0200","end":"2024-10-26T06:00:00+0200","alternativeTransport":{"location":[{"station":{"coordinate":{"lat":51.9249992370605,"lng":4.46888875961304},"countryCode":"NL","name":"Rotterdam Centraal","stationCode":"RTD","uicCode":"8400530"},"description":"vanaf de Conradstraat aan de centrumzijde"},{"station":{"coordinate":{"lat":52.0066680908203,"lng":4.35638904571533},"countryCode":"NL","name":"Delft","stationCode":"DT","uicCode":"8400170"},"description":"vanaf de voorzijde van het station, aan de Coenderstraat"}],"label":"Er rijden snelbussen tussen Rotterdam Centraal en Delft.","shortLabel":"Er rijden snelbussen Rotterdam C. - Delft."}},{"start":"2024-10-26T06:00:00+0200","end":"2024-10-27T01:00:00+0200","alternativeTransport":{"location":[{"station":{"coordinate":{"lat":51.9908332824707,"lng":4.36472225189209},"countryCode":"NL","name":"Delft Campus","stationCode":"DTCP","uicCode":"8400166"},"description":"vanaf het Stationsplein"},{"station":{"coordinate":{"lat":51.9212438128032,"lng":4.4089937210083},"countryCode":"NL","name":"Schiedam Centrum","stationCode":"SDM","uicCode":"8400553"},"description":"vanaf de Horvathweg"}],"label":"Er rijden stopbussen tussen Delft Campus en Schiedam Centrum.","shortLabel":"Er rijden stopbussen Delft Campus - Schiedam C."}},{"start":"2024-10-26T06:00:00+0200","end":"2024-10-27T01:00:00+0200","alternativeTransport":{"location":[{"station":{"coordinate":{"lat":51.9212438128032,"lng":4.4089937210083},"countryCode":"NL","name":"Schiedam Centrum","stationCode":"SDM","uicCode":"8400553"},"description":"volg de aanwijzingen op het station"},{"station":{"coordinate":{"lat":51.9202766418457,"lng":4.48888874053955},"countryCode":"NL","name":"Rotterdam Blaak","stationCode":"RTB","uicCode":"8400529"},"description":"volg de aanwijzingen op het station"}],"label":"Maak gebruik van de Rotterdamse metro tussen Schiedam Centrum en Rotterdam Blaak.","shortLabel":"Gebruik de Rotterdamse metro Schiedam C. - Blaak."}},{"start":"2024-10-27T01:00:00+0200","end":"2024-10-27T06:00:00+0100","alternativeTransport":{"location":[{"station":{"coordinate":{"lat":51.9249992370605,"lng":4.46888875961304},"countryCode":"NL","name":"Rotterdam Centraal","stationCode":"RTD","uicCode":"8400530"},"description":"vanaf de Conradstraat aan de centrumzijde"},{"station":{"coordinate":{"lat":52.0066680908203,"lng":4.35638904571533},"countryCode":"NL","name":"Delft","stationCode":"DT","uicCode":"8400170"},"description":"vanaf de voorzijde van het station, aan de Coenderstraat"}],"label":"Er rijden snelbussen tussen Rotterdam Centraal en Delft.","shortLabel":"Er rijden snelbussen Rotterdam C. - Delft."}},{"start":"2024-10-27T06:00:00+0100","end":"2024-10-28T01:00:00+0100","alternativeTransport":{"location":[{"station":{"coordinate":{"lat":51.9908332824707,"lng":4.36472225189209},"countryCode":"NL","name":"Delft Campus","stationCode":"DTCP","uicCode":"8400166"},"description":"vanaf het Stationsplein"},{"station":{"coordinate":{"lat":51.9212438128032,"lng":4.4089937210083},"countryCode":"NL","name":"Schiedam Centrum","stationCode":"SDM","uicCode":"8400553"},"description":"vanaf de Horvathweg"}],"label":"Er rijden stopbussen tussen Delft Campus en Schiedam Centrum.","shortLabel":"Er rijden stopbussen Delft Campus - Schiedam C."}},{"start":"2024-10-27T06:00:00+0100","end":"2024-10-28T01:00:00+0100","alternativeTransport":{"location":[{"station":{"coordinate":{"lat":51.9212438128032,"lng":4.4089937210083},"countryCode":"NL","name":"Schiedam Centrum","stationCode":"SDM","uicCode":"8400553"},"description":"volg de aanwijzingen op het station"},{"station":{"coordinate":{"lat":51.9202766418457,"lng":4.48888874053955},"countryCode":"NL","name":"Rotterdam Blaak","stationCode":"RTB","uicCode":"8400529"},"description":"volg de aanwijzingen op het station"}],"label":"Maak gebruik van de Rotterdamse metro tussen Schiedam Centrum en Rotterdam Blaak.","shortLabel":"Gebruik de Rotterdamse metro Schiedam C. - Blaak."}},{"start":"2024-10-28T01:00:00+0100","end":"2024-10-28T05:00:00+0100","alternativeTransport":{"location":[{"station":{"coordinate":{"lat":51.9249992370605,"lng":4.46888875961304},"countryCode":"NL","name":"Rotterdam Centraal","stationCode":"RTD","uicCode":"8400530"},"description":"vanaf de Conradstraat aan de centrumzijde"},{"station":{"coordinate":{"lat":52.0066680908203,"lng":4.35638904571533},"countryCode":"NL","name":"Delft","stationCode":"DT","uicCode":"8400170"},"description":"vanaf de voorzijde van het station, aan de Coenderstraat"}],"label":"Er rijden snelbussen tussen Rotterdam Centraal en Delft.","shortLabel":"Er rijden snelbussen Rotterdam C. - Delft."}},{"start":"2024-10-28T05:00:00+0100","end":"2024-10-29T01:00:00+0100","alternativeTransport":{"location":[{"station":{"coordinate":{"lat":51.9908332824707,"lng":4.36472225189209},"countryCode":"NL","name":"Delft Campus","stationCode":"DTCP","uicCode":"8400166"},"description":"vanaf het Stationsplein"},{"station":{"coordinate":{"lat":51.9212438128032,"lng":4.4089937210083},"countryCode":"NL","name":"Schiedam Centrum","stationCode":"SDM","uicCode":"8400553"},"description":"vanaf de Horvathweg"}],"label":"Er rijden stopbussen tussen Delft Campus en Schiedam Centrum.","shortLabel":"Er rijden stopbussen Delft Campus - Schiedam C."}},{"start":"2024-10-28T05:00:00+0100","end":"2024-10-29T01:00:00+0100","alternativeTransport":{"location":[{"station":{"coordinate":{"lat":51.9212438128032,"lng":4.4089937210083},"countryCode":"NL","name":"Schiedam Centrum","stationCode":"SDM","uicCode":"8400553"},"description":"volg de aanwijzingen op het station"},{"station":{"coordinate":{"lat":51.9202766418457,"lng":4.48888874053955},"countryCode":"NL","name":"Rotterdam Blaak","stationCode":"RTB","uicCode":"8400529"},"description":"volg de aanwijzingen op het station"}],"label":"Maak gebruik van de Rotterdamse metro tussen Schiedam Centrum en Rotterdam Blaak.","shortLabel":"Gebruik de Rotterdamse metro Schiedam C. - Blaak."}},{"start":"2024-10-29T01:00:00+0100","end":"2024-10-29T05:00:00+0100","alternativeTransport":{"location":[{"station":{"coordinate":{"lat":52.0697212219238,"lng":4.32250022888184},"countryCode":"NL","name":"Den Haag HS","stationCode":"GV","uicCode":"8400280"},"description":"vanaf de achterzijde van het station"},{"station":{"coordinate":{"lat":52.0066680908203,"lng":4.35638904571533},"countryCode":"NL","name":"Delft","stationCode":"DT","uicCode":"8400170"},"description":"vanaf de voorzijde van het station, aan de Coenderstraat"}],"label":"Er rijden snelbussen tussen Den Haag HS en Delft.","shortLabel":"Er rijden snelbussen Den Haag HS - Delft."}},{"start":"2024-10-29T01:00:00+0100","end":"2024-10-29T05:00:00+0100","alternativeTransport":{"location":[{"station":{"coordinate":{"lat":51.9249992370605,"lng":4.46888875961304},"countryCode":"NL","name":"Rotterdam Centraal","stationCode":"RTD","uicCode":"8400530"},"description":"vanaf de Conradstraat aan de centrumzijde"},{"station":{"coordinate":{"lat":52.0066680908203,"lng":4.35638904571533},"countryCode":"NL","name":"Delft","stationCode":"DT","uicCode":"8400170"},"description":"vanaf de voorzijde van het station, aan de Coenderstraat"}],"label":"Er rijden snelbussen tussen Rotterdam Centraal en Delft.","shortLabel":"Er rijden snelbussen Rotterdam C. - Delft."}},{"start":"2024-10-29T05:00:00+0100","end":"2024-10-30T01:00:00+0100","alternativeTransport":{"location":[{"station":{"coordinate":{"lat":51.9908332824707,"lng":4.36472225189209},"countryCode":"NL","name":"Delft Campus","stationCode":"DTCP","uicCode":"8400166"},"description":"vanaf het Stationsplein"},{"station":{"coordinate":{"lat":51.9212438128032,"lng":4.4089937210083},"countryCode":"NL","name":"Schiedam Centrum","stationCode":"SDM","uicCode":"8400553"},"description":"vanaf de Horvathweg"}],"label":"Er rijden stopbussen tussen Delft Campus en Schiedam Centrum.","shortLabel":"Er rijden stopbussen Delft Campus - Schiedam C."}},{"start":"2024-10-29T05:00:00+0100","end":"2024-10-30T01:00:00+0100","alternativeTransport":{"location":[{"station":{"coordinate":{"lat":51.9212438128032,"lng":4.4089937210083},"countryCode":"NL","name":"Schiedam Centrum","stationCode":"SDM","uicCode":"8400553"},"description":"volg de aanwijzingen op het station"},{"station":{"coordinate":{"lat":51.9202766418457,"lng":4.48888874053955},"countryCode":"NL","name":"Rotterdam Blaak","stationCode":"RTB","uicCode":"8400529"},"description":"volg de aanwijzingen op het station"}],"label":"Maak gebruik van de Rotterdamse metro tussen Schiedam Centrum en Rotterdam Blaak.","shortLabel":"Gebruik de Rotterdamse metro Schiedam C. - Blaak."}},{"start":"2024-10-30T01:00:00+0100","end":"2024-10-30T05:00:00+0100","alternativeTransport":{"location":[{"station":{"coordinate":{"lat":52.0697212219238,"lng":4.32250022888184},"countryCode":"NL","name":"Den Haag HS","stationCode":"GV","uicCode":"8400280"},"description":"vanaf de achterzijde van het station"},{"station":{"coordinate":{"lat":52.0066680908203,"lng":4.35638904571533},"countryCode":"NL","name":"Delft","stationCode":"DT","uicCode":"8400170"},"description":"vanaf de voorzijde van het station, aan de Coenderstraat"}],"label":"Er rijden snelbussen tussen Den Haag HS en Delft.","shortLabel":"Er rijden snelbussen Den Haag HS - Delft."}},{"start":"2024-10-30T01:00:00+0100","end":"2024-10-30T05:00:00+0100","alternativeTransport":{"location":[{"station":{"coordinate":{"lat":51.9249992370605,"lng":4.46888875961304},"countryCode":"NL","name":"Rotterdam Centraal","stationCode":"RTD","uicCode":"8400530"},"description":"vanaf de Conradstraat aan de centrumzijde"},{"station":{"coordinate":{"lat":52.0066680908203,"lng":4.35638904571533},"countryCode":"NL","name":"Delft","stationCode":"DT","uicCode":"8400170"},"description":"vanaf de voorzijde van het station, aan de Coenderstraat"}],"label":"Er rijden snelbussen tussen Rotterdam Centraal en Delft.","shortLabel":"Er rijden snelbussen Rotterdam C. - Delft."}},{"start":"2024-10-30T05:00:00+0100","end":"2024-10-31T01:00:00+0100","alternativeTransport":{"location":[{"station":{"coordinate":{"lat":51.9908332824707,"lng":4.36472225189209},"countryCode":"NL","name":"Delft Campus","stationCode":"DTCP","uicCode":"8400166"},"description":"vanaf het Stationsplein"},{"station":{"coordinate":{"lat":51.9212438128032,"lng":4.4089937210083},"countryCode":"NL","name":"Schiedam Centrum","stationCode":"SDM","uicCode":"8400553"},"description":"vanaf de Horvathweg"}],"label":"Er rijden stopbussen tussen Delft Campus en Schiedam Centrum.","shortLabel":"Er rijden stopbussen Delft Campus - Schiedam C."}},{"start":"2024-10-30T05:00:00+0100","end":"2024-10-31T01:00:00+0100","alternativeTransport":{"location":[{"station":{"coordinate":{"lat":51.9212438128032,"lng":4.4089937210083},"countryCode":"NL","name":"Schiedam Centrum","stationCode":"SDM","uicCode":"8400553"},"description":"volg de aanwijzingen op het station"},{"station":{"coordinate":{"lat":51.9202766418457,"lng":4.48888874053955},"countryCode":"NL","name":"Rotterdam Blaak","stationCode":"RTB","uicCode":"8400529"},"description":"volg de aanwijzingen op het station"}],"label":"Maak gebruik van de Rotterdamse metro tussen Schiedam Centrum en Rotterdam Blaak.","shortLabel":"Gebruik de Rotterdamse metro Schiedam C. - Blaak."}},{"start":"2024-10-31T01:00:00+0100","end":"2024-10-31T05:00:00+0100","alternativeTransport":{"location":[{"station":{"coordinate":{"lat":52.0697212219238,"lng":4.32250022888184},"countryCode":"NL","name":"Den Haag HS","stationCode":"GV","uicCode":"8400280"},"description":"vanaf de achterzijde van het station"},{"station":{"coordinate":{"lat":52.0066680908203,"lng":4.35638904571533},"countryCode":"NL","name":"Delft","stationCode":"DT","uicCode":"8400170"},"description":"vanaf de voorzijde van het station, aan de Coenderstraat"}],"label":"Er rijden snelbussen tussen Den Haag HS en Delft.","shortLabel":"Er rijden snelbussen Den Haag HS - Delft."}},{"start":"2024-10-31T01:00:00+0100","end":"2024-10-31T05:00:00+0100","alternativeTransport":{"location":[{"station":{"coordinate":{"lat":51.9249992370605,"lng":4.46888875961304},"countryCode":"NL","name":"Rotterdam Centraal","stationCode":"RTD","uicCode":"8400530"},"description":"vanaf de Conradstraat aan de centrumzijde"},{"station":{"coordinate":{"lat":52.0066680908203,"lng":4.35638904571533},"countryCode":"NL","name":"Delft","stationCode":"DT","uicCode":"8400170"},"description":"vanaf de voorzijde van het station, aan de Coenderstraat"}],"label":"Er rijden snelbussen tussen Rotterdam Centraal en Delft.","shortLabel":"Er rijden snelbussen Rotterdam C. - Delft."}},{"start":"2024-10-31T05:00:00+0100","end":"2024-11-01T01:00:00+0100","alternativeTransport":{"location":[{"station":{"coordinate":{"lat":51.9908332824707,"lng":4.36472225189209},"countryCode":"NL","name":"Delft Campus","stationCode":"DTCP","uicCode":"8400166"},"description":"vanaf het Stationsplein"},{"station":{"coordinate":{"lat":51.9212438128032,"lng":4.4089937210083},"countryCode":"NL","name":"Schiedam Centrum","stationCode":"SDM","uicCode":"8400553"},"description":"vanaf de Horvathweg"}],"label":"Er rijden stopbussen tussen Delft Campus en Schiedam Centrum.","shortLabel":"Er rijden stopbussen Delft Campus - Schiedam C."}},{"start":"2024-10-31T05:00:00+0100","end":"2024-11-01T01:00:00+0100","alternativeTransport":{"location":[{"station":{"coordinate":{"lat":51.9212438128032,"lng":4.4089937210083},"countryCode":"NL","name":"Schiedam Centrum","stationCode":"SDM","uicCode":"8400553"},"description":"volg de aanwijzingen op het station"},{"station":{"coordinate":{"lat":51.9202766418457,"lng":4.48888874053955},"countryCode":"NL","name":"Rotterdam Blaak","stationCode":"RTB","uicCode":"8400529"},"description":"volg de aanwijzingen op het station"}],"label":"Maak gebruik van de Rotterdamse metro tussen Schiedam Centrum en Rotterdam Blaak.","shortLabel":"Gebruik de Rotterdamse metro Schiedam C. - Blaak."}},{"start":"2024-11-01T01:00:00+0100","end":"2024-11-01T05:00:00+0100","alternativeTransport":{"location":[{"station":{"coordinate":{"lat":52.0697212219238,"lng":4.32250022888184},"countryCode":"NL","name":"Den Haag HS","stationCode":"GV","uicCode":"8400280"},"description":"vanaf de achterzijde van het station"},{"station":{"coordinate":{"lat":52.0066680908203,"lng":4.35638904571533},"countryCode":"NL","name":"Delft","stationCode":"DT","uicCode":"8400170"},"description":"vanaf de voorzijde van het station, aan de Coenderstraat"}],"label":"Er rijden snelbussen tussen Den Haag HS en Delft.","shortLabel":"Er rijden snelbussen Den Haag HS - Delft."}},{"start":"2024-11-01T01:00:00+0100","end":"2024-11-01T05:00:00+0100","alternativeTransport":{"location":[{"station":{"coordinate":{"lat":51.9249992370605,"lng":4.46888875961304},"countryCode":"NL","name":"Rotterdam Centraal","stationCode":"RTD","uicCode":"8400530"},"description":"vanaf de Conradstraat aan de centrumzijde"},{"station":{"coordinate":{"lat":52.0066680908203,"lng":4.35638904571533},"countryCode":"NL","name":"Delft","stationCode":"DT","uicCode":"8400170"},"description":"vanaf de voorzijde van het station, aan de Coenderstraat"}],"label":"Er rijden snelbussen tussen Rotterdam Centraal en Delft.","shortLabel":"Er rijden snelbussen Rotterdam C. - Delft."}},{"start":"2024-11-01T05:00:00+0100","end":"2024-11-02T01:00:00+0100","alternativeTransport":{"location":[{"station":{"coordinate":{"lat":51.9908332824707,"lng":4.36472225189209},"countryCode":"NL","name":"Delft Campus","stationCode":"DTCP","uicCode":"8400166"},"description":"vanaf het Stationsplein"},{"station":{"coordinate":{"lat":51.9212438128032,"lng":4.4089937210083},"countryCode":"NL","name":"Schiedam Centrum","stationCode":"SDM","uicCode":"8400553"},"description":"vanaf de Horvathweg"}],"label":"Er rijden stopbussen tussen Delft Campus en Schiedam Centrum.","shortLabel":"Er rijden stopbussen Delft Campus - Schiedam C."}},{"start":"2024-11-01T05:00:00+0100","end":"2024-11-02T01:00:00+0100","alternativeTransport":{"location":[{"station":{"coordinate":{"lat":51.9212438128032,"lng":4.4089937210083},"countryCode":"NL","name":"Schiedam Centrum","stationCode":"SDM","uicCode":"8400553"},"description":"volg de aanwijzingen op het station"},{"station":{"coordinate":{"lat":51.9202766418457,"lng":4.48888874053955},"countryCode":"NL","name":"Rotterdam Blaak","stationCode":"RTB","uicCode":"8400529"},"description":"volg de aanwijzingen op het station"}],"label":"Maak gebruik van de Rotterdamse metro tussen Schiedam Centrum en Rotterdam Blaak.","shortLabel":"Gebruik de Rotterdamse metro Schiedam C. - Blaak."}},{"start":"2024-11-02T01:00:00+0100","end":"2024-11-02T06:00:00+0100","alternativeTransport":{"location":[{"station":{"coordinate":{"lat":52.0697212219238,"lng":4.32250022888184},"countryCode":"NL","name":"Den Haag HS","stationCode":"GV","uicCode":"8400280"},"description":"vanaf de achterzijde van het station"},{"station":{"coordinate":{"lat":52.0066680908203,"lng":4.35638904571533},"countryCode":"NL","name":"Delft","stationCode":"DT","uicCode":"8400170"},"description":"vanaf de voorzijde van het station, aan de Coenderstraat"}],"label":"Er rijden snelbussen tussen Den Haag HS en Delft.","shortLabel":"Er rijden snelbussen Den Haag HS - Delft."}},{"start":"2024-11-02T01:00:00+0100","end":"2024-11-02T06:00:00+0100","alternativeTransport":{"location":[{"station":{"coordinate":{"lat":51.9249992370605,"lng":4.46888875961304},"countryCode":"NL","name":"Rotterdam Centraal","stationCode":"RTD","uicCode":"8400530"},"description":"vanaf de Conradstraat aan de centrumzijde"},{"station":{"coordinate":{"lat":52.0066680908203,"lng":4.35638904571533},"countryCode":"NL","name":"Delft","stationCode":"DT","uicCode":"8400170"},"description":"vanaf de voorzijde van het station, aan de Coenderstraat"}],"label":"Er rijden snelbussen tussen Rotterdam Centraal en Delft.","shortLabel":"Er rijden snelbussen Rotterdam C. - Delft."}},{"start":"2024-11-02T06:00:00+0100","end":"2024-11-03T01:00:00+0100","alternativeTransport":{"location":[{"station":{"coordinate":{"lat":51.9212438128032,"lng":4.4089937210083},"countryCode":"NL","name":"Schiedam Centrum","stationCode":"SDM","uicCode":"8400553"},"description":"volg de aanwijzingen op het station"},{"station":{"coordinate":{"lat":51.9202766418457,"lng":4.48888874053955},"countryCode":"NL","name":"Rotterdam Blaak","stationCode":"RTB","uicCode":"8400529"},"description":"volg de aanwijzingen op het station"}],"label":"Maak gebruik van de Rotterdamse metro tussen Schiedam Centrum en Rotterdam Blaak.","shortLabel":"Gebruik de Rotterdamse metro Schiedam C. - Blaak."}},