[{"type":"CALAMITY","id":"adeb1b26-359a-4d13-9d0e-eb4dd47a11aa","title":"SAIL Amsterdam en landelijke gewijzigde dienstregeling t/m zondag 24 aug","isActive":true,"topic":"disruption_adeb1b26-359a-4d13-9d0e-eb4dd47a11aa_nl","description":"Vanwege de drukte naar SAIL Amsterdam rijden extra en langere treinen naar Amsterdam Centraal. Om dat mogelijk te maken, rijden op sommige andere trajecten in het land minder treinen. Plan dus je reis vooraf in de reisplanner.","url":"https://www.ns.nl/reisinformatie/calamiteiten/sail-amsterdam-en-landelijke-gewijzigde-dienstregeling-van-maandag-18-t-m-zondag-24-aug.html","priority":"PRIO_3","lastUpdated":"2025-08-11T04:38:00+0200","bodyItems":[{"type":"TEXT","content":{"text":"<p>De dienstregeling is in deze periode gewijzigd op meerdere trajecten. Plan je reis vooraf in de reisplanner en houd rekening met extra overstappen en drukte in treinen naar Amsterdam.</p>\n\n<p>&nbsp;</p>"}}],"buttons":{"position":["BOTTOM"],"items":[{"label":"Plan je reis","accessibilityLabel":"Plan je reis","url":"https://www.ns.nl/reisplanner/","type":"PLANNER"}]}},{"type":"CALAMITY","id":"bbd09a35-e977-4ad5-8a03-7e8319635830","title":"Dutch Grand Prix Zandvoort en landelijke gewijzigde dienstregeling 29 t/m 31 augustus","isActive":true,"topic":"disruption_bbd09a35-e977-4ad5-8a03-7e8319635830_nl","description":"Vanwege de verwachte drukte bij de Dutch Grand Prix in Zandvoort worden extra treinen ingezet tussen Amsterdam Centraal en Zandvoort aan Zee. Het meenemen van fietsen is niet mogelijk.","url":"https://www.ns.nl/reisinformatie/calamiteiten/dutch-grand-prix-zandvoort-en-landelijke-gewijzigde-dienstregeling-29-t-m-31-augustus.html","priority":"PRIO_3","lastUpdated":"2025-08-22T01:52:00+0200","bodyItems":[{"type":"TEXT","content":{"text":"<p>Om meer treinen naar Zandvoort mogelijk te maken is de dienstregeling van vrijdag 29 tot en met zondag 31 augustus gewijzigd op meerdere trajecten. Plan je reis vooraf in de reisplanner en houd rekening met langere overstap- en wachttijden dan gewoonlijk, ook wanneer je een andere bestemming hebt dan Zandvoort aan Zee.</p>"}}],"buttons":{"position":["BOTTOM"],"items":[{"label":"Plan je reis","accessibilityLabel":"Plan je reis","url":"https://www.ns.nl/reisplanner/","type":"PLANNER"}]}},{"type":"MAINTENANCE","id":"7004492","title":"Groningen - Leer.","isActive":true,"local":false,"titleSections":[[{"type":"STATION","value":"Groningen"},{"type":"STATION","value":"Bad Nieuweschans"},{"type":"ICON","value":"MAINTENANCE"},{"type":"STATION","value":"Weener"},{"type":"STATION","value":"Leer (Ostfr.)"}]],"registrationTime":"2025-04-03T10:55:48+0200","start":"2024-02-01T04:00:00+0100","releaseTime":"2025-04-03T10:55:48+0200","end":"2025-12-13T23:59:00+0100","period":"Donderdag 1 februari 2024 4:00 uur t/m zaterdag 13 december 23:59 uur.","impact":{"value":3},"publicationSections":[{"section":{"stations":[{"coordinate":{"lat":53.2105560302734,"lng":6.56472206115723},"countryCode":"NL","name":"Groningen","stationCode":"GN","uicCode":"8400263"},{"coordinate":{"lat":53.20480027,"lng":6.5854178},"countryCode":"NL","name":"Groningen Europapark","stationCode":"GERP","uicCode":"8400238"},{"coordinate":{"lat":53.1617362,"lng":6.7220882},"countryCode":"NL","name":"Kropswolde","stationCode":"KW","uicCode":"8400369"},{"coordinate":{"lat":53.1607232,"lng":6.7402989},"countryCode":"NL","name":"Martenshoek","stationCode":"MTH","uicCode":"8400430"},{"coordinate":{"lat":53.1598181316756,"lng":6.77075386047363},"countryCode":"NL","name":"Hoogezand-Sappemeer","stationCode":"HGZ","uicCode":"8400331"},{"coordinate":{"lat":53.1596122800056,"lng":6.8679141998291},"countryCode":"NL","name":"Zuidbroek","stationCode":"ZB","uicCode":"8400742"},{"coordinate":{"lat":53.1655362,"lng":6.9777775},"countryCode":"NL","name":"Scheemda","stationCode":"SDA","uicCode":"8400551"},{"coordinate":{"lat":53.1392377,"lng":7.035101},"countryCode":"NL","name":"Winschoten","stationCode":"WS","uicCode":"8400696"},{"coordinate":{"lat":53.1844,"lng":7.19937},"countryCode":"NL","name":"Bad Nieuweschans","stationCode":"NSCH","uicCode":"8400457"},{"coordinate":{"lat":53.16311,"lng":7.3442},"countryCode":"D","name":"Weener","stationCode":"WR","uicCode":"8021239"},{"coordinate":{"lat":53.23165,"lng":7.465283},"countryCode":"D","name":"Leer (Ostfriesl)","stationCode":"LEER","uicCode":"8021091"}],"direction":"BOTH","operators":["Arriva"]},"consequence":{"section":{"stations":[{"coordinate":{"lat":53.1844,"lng":7.19937},"countryCode":"NL","name":"Bad Nieuweschans","stationCode":"NSCH","uicCode":"8400457"},{"coordinate":{"lat":53.16311,"lng":7.3442},"countryCode":"D","name":"Weener","stationCode":"WR","uicCode":"8021239"}],"direction":"BOTH","operators":["Arriva"]},"description":"er rijden bussen","level":"LESS_TRAINS"},"sectionType":"NEIGHBORING_COUNTRY"}],"summaryAdditionalTravelTime":{"label":"De extra reistijd kan oplopen tot 30 minuten.","shortLabel":"Extra reistijd tot 30 min.","maximumDurationInMinutes":30},"timespans":[{"start":"2024-02-01T04:00:00+0100","end":"2025-12-13T23:59:00+0100","period":"Donderdag 1 februari 2024 4:00 uur t/m zaterdag 13 december 23:59 uur.","situation":{"label":"Door een aangepaste dienstregeling: tussen Bad Nieuweschans en Weener rijden er bussen."},"cause":{"label":"aangepaste dienstregeling","type":"OTHER"},"additionalTravelTime":{"label":"De extra reistijd kan oplopen tot 30 minuten.","shortLabel":"Extra reistijd tot 30 min.","maximumDurationInMinutes":30},"alternativeTransport":{"label":"er rijden stopbussen","shortLabel":"er rijden stopbussen"},"advices":[]}],"alternativeTransportTimespans":[{"start":"2024-02-01T04:00:00+0100","end":"2025-12-13T23:59:00+0100","alternativeTransport":{"location":[{"station":{"coordinate":{"lat":53.1844,"lng":7.19937},"countryCode":"NL","name":"Bad Nieuweschans","stationCode":"NSCH","uicCode":"8400457"},"description":"vanaf de voorzijde van het station"},{"station":{"coordinate":{"lat":53.16311,"lng":7.3442},"countryCode":"D","name":"Weener","stationCode":"WR","uicCode":"8021239"},"description":"vanaf de voorzijde van het station"},{"station":{"coordinate":{"lat":53.23165,"lng":7.465283},"countryCode":"D","name":"Leer (Ostfriesl)","stationCode":"LEER","uicCode":"8021091"},"description":"vanaf het busstation"}],"label":"Er rijden stopbussen tussen Bad Nieuweschans, Weener en Leer (Ostfriesl).","shortLabel":"Er rijden stopbussen Bad Nieuweschans - Weener - Leer (Ostfr.)."}}]},{"type":"MAINTENANCE","id":"7006387","title":"Enschede - Gronau - Münster.","isActive":true,"local":false,"titleSections":[[{"type":"STATION","value":"Enschede"},{"type":"STATION","value":"Ochtrup"},{"type":"ICON","value":"MAINTENANCE"},{"type":"STATION","value":"Steinfurt-Burgst"},{"type":"STATION","value":"Münster (Westf)"}]],"registrationTime":"2025-07-19T09:04:48+0200","start":"2025-06-13T23:00:00+0200","releaseTime":"2025-07-19T09:04:48+0200","end":"2025-10-09T23:00:00+0200","period":"Vrijdag 13 juni 23:00 uur t/m donderdag 9 oktober 23:00 uur.","impact":{"value":3},"publicationSections":[{"section":{"stations":[{"coordinate":{"lat":52.2224998474121,"lng":6.8899998664856},"countryCode":"NL","name":"Enschede","stationCode":"ES","uicCode":"8400212"},{"coordinate":{"lat":52.2213897705078,"lng":6.95111131668091},"countryCode":"NL","name":"Enschede De Eschmarke","stationCode":"ESE","uicCode":"8400217"},{"coordinate":{"lat":52.2186126708984,"lng":6.97444438934326},"countryCode":"NL","name":"Glanerbrug","stationCode":"GBR","uicCode":"8400262"},{"coordinate":{"lat":52.21521,"lng":7.022109},"countryCode":"D","name":"Gronau (Westf.)","stationCode":"G","uicCode":"8021128"},{"coordinate":{"lat":52.201703,"lng":7.182643},"countryCode":"D","name":"Ochtrup","stationCode":"EOP","uicCode":"8021152"},{"coordinate":{"lat":52.162444,"lng":7.254423},"countryCode":"D","name":"Metelen Land","stationCode":"EMTE","uicCode":"8021151"},{"coordinate":{"lat":52.147384,"lng":7.32934},"countryCode":"D","name":"Steinfurt-Burgsteinfurt","stationCode":"EBFT","uicCode":"8021143"},{"coordinate":{"lat":52.118791,"lng":7.397581},"countryCode":"D","name":"Steinfurt-Borghorst","stationCode":"EBGO","uicCode":"8021150"},{"coordinate":{"lat":52.077618,"lng":7.461706},"countryCode":"D","name":"Nordwalde","stationCode":"ENOW","uicCode":"8021149"},{"coordinate":{"lat":52.05223,"lng":7.481202},"countryCode":"D","name":"Altenberge","stationCode":"EABG","uicCode":"8021148"},{"coordinate":{"lat":52.022327,"lng":7.562668},"countryCode":"D","name":"Münster-Häger","stationCode":"ENBE","uicCode":"8021147"},{"coordinate":{"lat":51.984987,"lng":7.63861},"countryCode":"D","name":"Münster (W) Zentrum Nord","stationCode":"ENHF","uicCode":"8023783"},{"coordinate":{"lat":51.956892,"lng":7.635895},"countryCode":"D","name":"Münster (Westf) Hbf","stationCode":"MUNST","uicCode":"8021011"}],"direction":"BOTH","operators":["DB"]},"consequence":{"section":{"stations":[{"coordinate":{"lat":52.201703,"lng":7.182643},"countryCode":"D","name":"Ochtrup","stationCode":"EOP","uicCode":"8021152"},{"coordinate":{"lat":52.162444,"lng":7.254423},"countryCode":"D","name":"Metelen Land","stationCode":"EMTE","uicCode":"8021151"},{"coordinate":{"lat":52.147384,"lng":7.32934},"countryCode":"D","name":"Steinfurt-Burgsteinfurt","stationCode":"EBFT","uicCode":"8021143"}],"direction":"BOTH","operators":["DB"]},"description":"er rijden bussen","level":"LESS_TRAINS"},"sectionType":"NEIGHBORING_COUNTRY"}],"summaryAdditionalTravelTime":{"label":"De extra reistijd is ongeveer 15 minuten.","shortLabel":"Extra reistijd 15 min.","minimumDurationInMinutes":15,"maximumDurationInMinutes":15},"timespans":[{"start":"2025-06-13T23:00:00+0200","end":"2025-10-09T23:00:00+0200","period":"Vrijdag 13 juni 23:00 uur t/m donderdag 9 oktober 23:00 uur.","situation":{"label":"Door werkzaamheden: tussen Ochtrup en Steinfurt-Burgsteinfurt rijden er bussen."},"cause":{"label":"werkzaamheden","type":"OTHER"},"additionalTravelTime":{"label":"De extra reistijd is ongeveer 15 minuten.","shortLabel":"Extra reistijd 15 min.","minimumDurationInMinutes":15,"maximumDurationInMinutes":15},"alternativeTransport":{"label":"maak gebruik van het vervangende vervoer","shortLabel":"gebruik het vervangende vervoer"},"advices":["Vanaf Gronau rijdt een bus via Ochtrup naar Steinfurt-Burgsteinfurt. Een taxibus rijdt van/naar Metelen Land. Raadpleeg ook zuginfo.nrw."]}],"alternativeTransportTimespans":[{"start":"2025-06-13T23:00:00+0200","end":"2025-10-09T23:00:00+0200","alternativeTransport":{"location":[{"station":{"coordinate":{"lat":52.21521,"lng":7.022109},"countryCode":"D","name":"Gronau (Westf.)","stationCode":"G","uicCode":"8021128"},"description":"volg de aanwijzingen op het station"},{"station":{"coordinate":{"lat":52.201703,"lng":7.182643},"countryCode":"D","name":"Ochtrup","stationCode":"EOP","uicCode":"8021152"},"description":"volg de aanwijzingen op het station"},{"station":{"coordinate":{"lat":52.147384,"lng":7.32934},"countryCode":"D","name":"Steinfurt-Burgsteinfurt","stationCode":"EBFT","uicCode":"8021143"},"description":"volg de aanwijzingen op het station"}],"label":"Er rijden stopbussen tussen Gronau (Westf.), Ochtrup en Steinfurt-Burgsteinfurt.","shortLabel":"Er rijden stopbussen Gronau (Westf.) - Ochtrup - Steinfurt-Burgst."}},{"start":"2025-06-13T23:00:00+0200","end":"2025-10-09T23:00:00+0200","alternativeTransport":{"location":[{"station":{"coordinate":{"lat":52.201703,"lng":7.182643},"countryCode":"D","name":"Ochtrup","stationCode":"EOP","uicCode":"8021152"},"description":"volg de aanwijzingen op het station"},{"station":{"coordinate":{"lat":52.162444,"lng":7.254423},"countryCode":"D","name":"Metelen Land","stationCode":"EMTE","uicCode":"8021151"},"description":"volg de aanwijzingen op het station"}],"label":"Er rijden taxibusjes tussen Ochtrup en Metelen Land.","shortLabel":"Er rijden taxibusjes Ochtrup - Metelen Land."}},{"start":"2025-06-13T23:00:00+0200","end":"2025-10-09T23:00:00+0200","alternativeTransport":{"location":[{"station":{"coordinate":{"lat":52.147384,"lng":7.32934},"countryCode":"D","name":"Steinfurt-Burgsteinfurt","stationCode":"EBFT","uicCode":"8021143"},"description":"volg de aanwijzingen op het station"},{"station":{"coordinate":{"lat":52.162444,"lng":7.254423},"countryCode":"D","name":"Metelen Land","stationCode":"EMTE","uicCode":"8021151"},"description":"volg de aanwijzingen op het station"}],"label":"Er rijden taxibusjes tussen Steinfurt-Burgsteinfurt en Metelen Land.","shortLabel":"Er rijden taxibusjes Steinfurt-Burgst - Metelen Land."}}]},{"type":"MAINTENANCE","id":"7006395","title":"Enschede - Gronau - Dortmund.","isActive":true,"local":false,"titleSections":[[{"type":"STATION","value":"Enschede"},{"type":"STATION","value":"Lünen Hbf"},{"type":"ICON","value":"MAINTENANCE"},{"type":"STATION","value":"Dortmund Hbf"}]],"registrationTime":"2025-07-21T07:04:05+0200","start":"2025-06-20T21:00:00+0200","releaseTime":"2025-07-21T07:04:05+0200","end":"2025-08-25T21:00:00+0200","period":"Vrijdag 20 juni 21:00 uur t/m maandag 25 augustus 21:00 uur.","impact":{"value":2},"publicationSections":[{"section":{"stations":[{"coordinate":{"lat":52.2224998474121,"lng":6.8899998664856},"countryCode":"NL","name":"Enschede","stationCode":"ES","uicCode":"8400212"},{"coordinate":{"lat":52.2213897705078,"lng":6.95111131668091},"countryCode":"NL","name":"Enschede De Eschmarke","stationCode":"ESE","uicCode":"8400217"},{"coordinate":{"lat":52.2186126708984,"lng":6.97444438934326},"countryCode":"NL","name":"Glanerbrug","stationCode":"GBR","uicCode":"8400262"},{"coordinate":{"lat":52.21521,"lng":7.022109},"countryCode":"D","name":"Gronau (Westf.)","stationCode":"G","uicCode":"8021128"},{"coordinate":{"lat":52.18346,"lng":7.03009},"countryCode":"D","name":"Epe (Westf)","stationCode":"EEPE","uicCode":"8021126"},{"coordinate":{"lat":52.079796120944,"lng":7.01635837554931},"countryCode":"D","name":"Ahaus","stationCode":"EAHS","uicCode":"8021123"},{"coordinate":{"lat":52.034924,"lng":7.088538},"countryCode":"D","name":"Legden","stationCode":"ELGD","uicCode":"8021122"},{"coordinate":{"lat":51.9994672604096,"lng":7.1215009689331},"countryCode":"D","name":"Rosendahl-Holtwick","stationCode":"EHW","uicCode":"8021121"},{"coordinate":{"lat":51.939,"lng":7.1642},"countryCode":"D","name":"Coesfeld (Westf)","stationCode":"ECMF","uicCode":"8021119"},{"coordinate":{"lat":51.8925,"lng":7.187},"countryCode":"D","name":"Lette (Kr Coesfeld)","stationCode":"ELET","uicCode":"8021117"},{"coordinate":{"lat":51.827927,"lng":7.295756},"countryCode":"D","name":"Dülmen","stationCode":"EDULH","uicCode":"8021005"},{"coordinate":{"lat":51.76184,"lng":7.43165},"countryCode":"D","name":"Lüdinghausen","stationCode":"ELDH","uicCode":"8021113"},{"coordinate":{"lat":51.707885,"lng":7.453396},"countryCode":"D","name":"Selm","stationCode":"ESEM","uicCode":"8021112"},{"coordinate":{"lat":51.692947,"lng":7.454829},"countryCode":"D","name":"Selm-Beifang","stationCode":"ESEB","uicCode":"8021120"},{"coordinate":{"lat":51.66988,"lng":7.45664},"countryCode":"D","name":"Bork (Westf)","stationCode":"EBOK","uicCode":"8021111"},{"coordinate":{"lat":51.61713,"lng":7.52949},"countryCode":"D","name":"Lünen Hbf","stationCode":"ELUE","uicCode":"8010098"},{"coordinate":{"lat":51.58833,"lng":7.53933},"countryCode":"D","name":"Preussen","stationCode":"EPRN","uicCode":"8010100"},{"coordinate":{"lat":51.56754,"lng":7.52855},"countryCode":"D","name":"Dortmund-Derne","stationCode":"EDD","uicCode":"8010101"},{"coordinate":{"lat":51.547076,"lng":7.510099},"countryCode":"D","name":"Dortmund-Kirchderne","stationCode":"EDKD","uicCode":"8010102"},{"coordinate":{"lat":51.517896,"lng":7.45929},"countryCode":"D","name":"Dortmund Hbf","stationCode":"EDO","uicCode":"8010053"}],"direction":"BOTH","operators":["DB"]},"consequence":{"section":{"stations":[{"coordinate":{"lat":51.61713,"lng":7.52949},"countryCode":"D","name":"Lünen Hbf","stationCode":"ELUE","uicCode":"8010098"},{"coordinate":{"lat":51.58833,"lng":7.53933},"countryCode":"D","name":"Preussen","stationCode":"EPRN","uicCode":"8010100"},{"coordinate":{"lat":51.56754,"lng":7.52855},"countryCode":"D","name":"Dortmund-Derne","stationCode":"EDD","uicCode":"8010101"},{"coordinate":{"lat":51.547076,"lng":7.510099},"countryCode":"D","name":"Dortmund-Kirchderne","stationCode":"EDKD","uicCode":"8010102"},{"coordinate":{"lat":51.517896,"lng":7.45929},"countryCode":"D","name":"Dortmund Hbf","stationCode":"EDO","uicCode":"8010053"}],"direction":"BOTH","operators":["DB"]},"description":"er rijden bussen","level":"LESS_TRAINS"},"sectionType":"NEIGHBORING_COUNTRY"}],"summaryAdditionalTravelTime":{"label":"De extra reistijd kan oplopen tot 45 minuten.","shortLabel":"Extra reistijd tot 45 min.","maximumDurationInMinutes":45},"timespans":[{"start":"2025-06-20T21:00:00+0200","end":"2025-08-25T21:00:00+0200","period":"Vrijdag 20 juni 21:00 uur t/m maandag 25 augustus 21:00 uur.","situation":{"label":"Door werkzaamheden: tussen Lünen Hbf en Dortmund Hbf rijden er bussen."},"cause":{"label":"werkzaamheden","type":"OTHER"},"additionalTravelTime":{"label":"De extra reistijd kan oplopen tot 45 minuten.","shortLabel":"Extra reistijd tot 45 min.","maximumDurationInMinutes":45},"advices":["In deze periode rijden op verschillende tijden bussen tussen Lüdinghausen/Lünen en Dortmund Hbf. Raadpleeg ook zuginfo.nrw."]}],"alternativeTransportTimespans":[]},{"type":"MAINTENANCE","id":"7006555","title":"Arnhem - Duisburg - Düsseldorf.","isActive":true,"local":false,"titleSections":[[{"type":"STATION","value":"Arnhem C."},{"type":"ICON","value":"MAINTENANCE"},{"type":"STATION","value":"Oberhausen Hbf"},{"type":"STATION","value":"Düsseldorf Hbf"}]],"registrationTime":"2025-06-25T13:28:35+0200","start":"2025-06-27T19:50:00+0200","releaseTime":"2025-06-25T13:28:35+0200","end":"2025-08-25T00:00:00+0200","period":"Vrijdag 27 juni 19:50 uur t/m maandag 25 augustus 0:00 uur.","impact":{"value":3},"publicationSections":[{"section":{"stations":[{"coordinate":{"lat":51.9850006103516,"lng":5.89916658401489},"countryCode":"NL","name":"Arnhem Centraal","stationCode":"AH","uicCode":"8400071"},{"coordinate":{"lat":51.985279083252,"lng":5.91944456100464},"countryCode":"NL","name":"Arnhem Velperpoort","stationCode":"AHP","uicCode":"8400072"},{"coordinate":{"lat":51.96286,"lng":5.9695},"countryCode":"NL","name":"Westervoort","stationCode":"WTV","uicCode":"8400688"},{"coordinate":{"lat":51.9433326721191,"lng":6.01472234725952},"countryCode":"NL","name":"Duiven","stationCode":"DVN","uicCode":"8400193"},{"coordinate":{"lat":51.9230537414551,"lng":6.07194423675537},"countryCode":"NL","name":"Zevenaar","stationCode":"ZV","uicCode":"8400735"},{"coordinate":{"lat":51.8743,"lng":6.15417},"countryCode":"D","name":"Emmerich-Elten","stationCode":"EL","uicCode":"8033415"},{"coordinate":{"lat":51.834283,"lng":6.255718},"countryCode":"D","name":"Emmerich","stationCode":"EM","uicCode":"8010288"},{"coordinate":{"lat":51.655833,"lng":6.627222},"countryCode":"D","name":"Wesel","stationCode":"WESEL","uicCode":"8010275"},{"coordinate":{"lat":51.47512,"lng":6.852038},"countryCode":"D","name":"Oberhausen Hbf","stationCode":"OBERH","uicCode":"8010263"},{"coordinate":{"lat":51.4297785713316,"lng":6.77590370178222},"countryCode":"D","name":"Duisburg Hbf","stationCode":"DUISB","uicCode":"8010316"},{"coordinate":{"lat":51.292009,"lng":6.786836},"countryCode":"D","name":"Düsseldorf Flughafen","stationCode":"KDFFH","uicCode":"8039904"},{"coordinate":{"lat":51.220146,"lng":6.793137},"countryCode":"D","name":"Düsseldorf Hbf","stationCode":"DUSSEL","uicCode":"8008094"}],"direction":"BOTH","operators":["VIAS"]},"consequence":{"section":{"stations":[{"coordinate":{"lat":51.9850006103516,"lng":5.89916658401489},"countryCode":"NL","name":"Arnhem Centraal","stationCode":"AH","uicCode":"8400071"},{"coordinate":{"lat":51.985279083252,"lng":5.91944456100464},"countryCode":"NL","name":"Arnhem Velperpoort","stationCode":"AHP","uicCode":"8400072"},{"coordinate":{"lat":51.96286,"lng":5.9695},"countryCode":"NL","name":"Westervoort","stationCode":"WTV","uicCode":"8400688"},{"coordinate":{"lat":51.9433326721191,"lng":6.01472234725952},"countryCode":"NL","name":"Duiven","stationCode":"DVN","uicCode":"8400193"},{"coordinate":{"lat":51.9230537414551,"lng":6.07194423675537},"countryCode":"NL","name":"Zevenaar","stationCode":"ZV","uicCode":"8400735"},{"coordinate":{"lat":51.8743,"lng":6.15417},"countryCode":"D","name":"Emmerich-Elten","stationCode":"EL","uicCode":"8033415"},{"coordinate":{"lat":51.834283,"lng":6.255718},"countryCode":"D","name":"Emmerich","stationCode":"EM","uicCode":"8010288"},{"coordinate":{"lat":51.655833,"lng":6.627222},"countryCode":"D","name":"Wesel","stationCode":"WESEL","uicCode":"8010275"},{"coordinate":{"lat":51.47512,"lng":6.852038},"countryCode":"D","name":"Oberhausen Hbf","stationCode":"OBERH","uicCode":"8010263"}],"direction":"BOTH","operators":["VIAS"]},"description":"er rijden bussen","level":"LESS_TRAINS"},"sectionType":"NEIGHBORING_COUNTRY"}],"summaryAdditionalTravelTime":{"label":"De extra reistijd is ongeveer 45 minuten.","shortLabel":"Extra reistijd 45 min.","minimumDurationInMinutes":45,"maximumDurationInMinutes":45},"timespans":[{"start":"2025-06-27T19:50:00+0200","end":"2025-08-25T00:00:00+0200","period":"Vrijdag 27 juni 19:50 uur t/m maandag 25 augustus 0:00 uur.","situation":{"label":"Door werkzaamheden: tussen Arnhem Centraal en Oberhausen Hbf rijden er bussen."},"cause":{"label":"werkzaamheden","type":"OTHER"},"additionalTravelTime":{"label":"De extra reistijd is ongeveer 45 minuten.","shortLabel":"Extra reistijd 45 min.","minimumDurationInMinutes":45,"maximumDurationInMinutes":45},"alternativeTransport":{"label":"er rijden bussen","shortLabel":"er rijden bussen"},"advices":["Vanaf Emmerich rijden ook stopbussen naar Wesel en Oberhausen Hbf. Ook ICE International rijdt niet via deze grensovergang, wel via Venlo."]}],"alternativeTransportTimespans":[{"start":"2025-06-27T19:50:00+0200","end":"2025-08-25T00:00:00+0200","alternativeTransport":{"location":[{"station":{"coordinate":{"lat":51.9850006103516,"lng":5.89916658401489},"countryCode":"NL","name":"Arnhem Centraal","stationCode":"AH","uicCode":"8400071"},"description":"vanaf bushalte L of H"},{"station":{"coordinate":{"lat":51.9230537414551,"lng":6.07194423675537},"countryCode":"NL","name":"Zevenaar","stationCode":"ZV","uicCode":"8400735"},"description":"vanaf het stationsplein bij de Kiss & Ride plaatsen, aan beide zijden van de weg"},{"station":{"coordinate":{"lat":51.8743,"lng":6.15417},"countryCode":"D","name":"Emmerich-Elten","stationCode":"EL","uicCode":"8033415"},"description":"volg de aanwijzingen op het station"},{"station":{"coordinate":{"lat":51.834283,"lng":6.255718},"countryCode":"D","name":"Emmerich","stationCode":"EM","uicCode":"8010288"},"description":"volg de aanwijzingen op het station"},{"station":{"coordinate":{"lat":51.655833,"lng":6.627222},"countryCode":"D","name":"Wesel","stationCode":"WESEL","uicCode":"8010275"},"description":"volg de aanwijzingen op het station"},{"station":{"coordinate":{"lat":51.47512,"lng":6.852038},"countryCode":"D","name":"Oberhausen Hbf","stationCode":"OBERH","uicCode":"8010263"},"description":"volg de aanwijzingen op het station"}],"label":"Er rijden bussen tussen Arnhem Centraal, Zevenaar, Emmerich-Elten, Emmerich, Wesel en Oberhausen Hbf.","shortLabel":"Er rijden bussen Arnhem C. - Zevenaar - Emmerich-Elten - Emmerich - Wesel - Oberhausen Hbf."}}]},{"type":"MAINTENANCE","id":"7006398","title":"Venlo - Mönchengladbach - Düsseldorf.","isActive":true,"local":false,"titleSections":[[{"type":"STATION","value":"Venlo"},{"type":"ICON","value":"MAINTENANCE"},{"type":"STATION","value":"Mönchengladbach"},{"type":"STATION","value":"Düsseldorf Hbf"}]],"registrationTime":"2025-07-10T13:25:00+0200","start":"2025-06-27T21:00:00+0200","releaseTime":"2025-07-10T13:25:00+0200","end":"2025-08-25T02:00:00+0200","period":"Vrijdag 27 juni 21:00 uur t/m maandag 25 augustus 2:00 uur.","impact":{"value":2},"publicationSections":[{"section":{"stations":[{"coordinate":{"lat":51.3636093139648,"lng":6.17277765274048},"countryCode":"NL","name":"Venlo","stationCode":"VL","uicCode":"8400644"},{"coordinate":{"lat":51.327184,"lng":6.203225},"countryCode":"D","name":"Kaldenkirchen","stationCode":"KN","uicCode":"8015130"},{"coordinate":{"lat":51.294615,"lng":6.241174},"countryCode":"D","name":"Breyell","stationCode":"KBRY","uicCode":"8015129"},{"coordinate":{"lat":51.274323,"lng":6.274591},"countryCode":"D","name":"Boisheim","stationCode":"KBOI","uicCode":"8015128"},{"coordinate":{"lat":51.257149,"lng":6.33793},"countryCode":"D","name":"Dülken","stationCode":"KDUL","uicCode":"8015125"},{"coordinate":{"lat":51.25516,"lng":6.40388},"countryCode":"D","name":"Viersen","stationCode":"VIERS","uicCode":"8015122"},{"coordinate":{"lat":51.196583,"lng":6.446111},"countryCode":"D","name":"Mönchengladbach Hbf","stationCode":"MCGB","uicCode":"8015165"},{"coordinate":{"lat":51.20444,"lng":6.68468},"countryCode":"D","name":"Neuss Hbf","stationCode":"NEUSS","uicCode":"8015149"},{"coordinate":{"lat":51.220146,"lng":6.793137},"countryCode":"D","name":"Düsseldorf Hbf","stationCode":"DUSSEL","uicCode":"8008094"}],"direction":"BOTH","operators":["Eurobahn"]},"consequence":{"section":{"stations":[{"coordinate":{"lat":51.3636093139648,"lng":6.17277765274048},"countryCode":"NL","name":"Venlo","stationCode":"VL","uicCode":"8400644"},{"coordinate":{"lat":51.327184,"lng":6.203225},"countryCode":"D","name":"Kaldenkirchen","stationCode":"KN","uicCode":"8015130"},{"coordinate":{"lat":51.294615,"lng":6.241174},"countryCode":"D","name":"Breyell","stationCode":"KBRY","uicCode":"8015129"},{"coordinate":{"lat":51.274323,"lng":6.274591},"countryCode":"D","name":"Boisheim","stationCode":"KBOI","uicCode":"8015128"},{"coordinate":{"lat":51.257149,"lng":6.33793},"countryCode":"D","name":"Dülken","stationCode":"KDUL","uicCode":"8015125"},{"coordinate":{"lat":51.25516,"lng":6.40388},"countryCode":"D","name":"Viersen","stationCode":"VIERS","uicCode":"8015122"},{"coordinate":{"lat":51.196583,"lng":6.446111},"countryCode":"D","name":"Mönchengladbach Hbf","stationCode":"MCGB","uicCode":"8015165"}],"direction":"BOTH","operators":["Eurobahn"]},"description":"aangepaste internationale dienstregeling","level":"LESS_TRAINS"},"sectionType":"NEIGHBORING_COUNTRY"}],"summaryAdditionalTravelTime":{"label":"De extra reistijd kan oplopen tot 30 minuten.","shortLabel":"Extra reistijd tot 30 min.","maximumDurationInMinutes":30},"timespans":[{"start":"2025-06-27T21:00:00+0200","end":"2025-08-25T02:00:00+0200","period":"Vrijdag 27 juni 21:00 uur t/m maandag 25 augustus 2:00 uur.","situation":{"label":"Door werkzaamheden: tussen Venlo en Mönchengladbach Hbf is de internationale dienstregeling aangepast."},"cause":{"label":"werkzaamheden","type":"OTHER"},"additionalTravelTime":{"label":"De extra reistijd kan oplopen tot 30 minuten.","shortLabel":"Extra reistijd tot 30 min.","maximumDurationInMinutes":30},"advices":["In deze periode zijn doordeweeks werkzaamheden tussen Venlo en Mönchengladbach. Er rijden bussen voor Eurobahn. ICE International rijdt wel."]}],"alternativeTransportTimespans":[]},{"type":"MAINTENANCE","id":"7006595","title":"Groningen - Bad Nieuweschans.","isActive":true,"local":false,"titleSections":[[{"type":"STATION","value":"Groningen"},{"type":"STATION","value":"Zuidbroek"},{"type":"ICON","value":"MAINTENANCE"},{"type":"STATION","value":"Bad Nieuweschans"}]],"registrationTime":"2025-07-07T16:19:29+0200","start":"2025-08-11T05:00:00+0200","releaseTime":"2025-07-07T16:19:29+0200","end":"2025-08-23T01:10:00+0200","period":"Maandag 11 augustus 5:00 uur t/m zaterdag 23 augustus 1:10 uur.","impact":{"value":3},"publicationSections":[{"section":{"stations":[{"coordinate":{"lat":53.2105560302734,"lng":6.56472206115723},"countryCode":"NL","name":"Groningen","stationCode":"GN","uicCode":"8400263"},{"coordinate":{"lat":53.20480027,"lng":6.5854178},"countryCode":"NL","name":"Groningen Europapark","stationCode":"GERP","uicCode":"8400238"},{"coordinate":{"lat":53.1617362,"lng":6.7220882},"countryCode":"NL","name":"Kropswolde","stationCode":"KW","uicCode":"8400369"},{"coordinate":{"lat":53.1607232,"lng":6.7402989},"countryCode":"NL","name":"Martenshoek","stationCode":"MTH","uicCode":"8400430"},{"coordinate":{"lat":53.1598181316756,"lng":6.77075386047363},"countryCode":"NL","name":"Hoogezand-Sappemeer","stationCode":"HGZ","uicCode":"8400331"},{"coordinate":{"lat":53.1596122800056,"lng":6.8679141998291},"countryCode":"NL","name":"Zuidbroek","stationCode":"ZB","uicCode":"8400742"},{"coordinate":{"lat":53.1655362,"lng":6.9777775},"countryCode":"NL","name":"Scheemda","stationCode":"SDA","uicCode":"8400551"},{"coordinate":{"lat":53.1392377,"lng":7.035101},"countryCode":"NL","name":"Winschoten","stationCode":"WS","uicCode":"8400696"},{"coordinate":{"lat":53.1844,"lng":7.19937},"countryCode":"NL","name":"Bad Nieuweschans","stationCode":"NSCH","uicCode":"8400457"}],"direction":"BOTH","operators":["Arriva"]},"consequence":{"section":{"stations":[{"coordinate":{"lat":53.1596122800056,"lng":6.8679141998291},"countryCode":"NL","name":"Zuidbroek","stationCode":"ZB","uicCode":"8400742"},{"coordinate":{"lat":53.1655362,"lng":6.9777775},"countryCode":"NL","name":"Scheemda","stationCode":"SDA","uicCode":"8400551"},{"coordinate":{"lat":53.1392377,"lng":7.035101},"countryCode":"NL","name":"Winschoten","stationCode":"WS","uicCode":"8400696"},{"coordinate":{"lat":53.1844,"lng":7.19937},"countryCode":"NL","name":"Bad Nieuweschans","stationCode":"NSCH","uicCode":"8400457"}],"direction":"BOTH","operators":["Arriva"]},"description":"er rijden bussen","level":"LESS_TRAINS"},"sectionType":"NL"}],"summaryAdditionalTravelTime":{"label":"De extra reistijd kan oplopen tot 30 minuten.","shortLabel":"Extra reistijd tot 30 min.","maximumDurationInMinutes":30},"timespans":[{"start":"2025-08-11T05:00:00+0200","end":"2025-08-23T01:10:00+0200","period":"Maandag 11 augustus 5:00 uur t/m zaterdag 23 augustus 1:10 uur.","situation":{"label":"Door werkzaamheden: tussen Zuidbroek en Bad Nieuweschans rijden er bussen."},"cause":{"label":"werkzaamheden","type":"OTHER"},"additionalTravelTime":{"label":"De extra reistijd kan oplopen tot 30 minuten.","shortLabel":"Extra reistijd tot 30 min.","maximumDurationInMinutes":30},"alternativeTransport":{"label":"er rijden stopbussen","shortLabel":"er rijden stopbussen"},"advices":[]}],"alternativeTransportTimespans":[{"start":"2025-08-11T05:00:00+0200","end":"2025-08-23T01:10:00+0200","alternativeTransport":{"location":[{"station":{"coordinate":{"lat":53.1596122800056,"lng":6.8679141998291},"countryCode":"NL","name":"Zuidbroek","stationCode":"ZB","uicCode":"8400742"},"description":"vanaf de bushalte"},{"station":{"coordinate":{"lat":53.1655362,"lng":6.9777775},"countryCode":"NL","name":"Scheemda","stationCode":"SDA","uicCode":"8400551"},"description":"vanaf de bushalte"},{"station":{"coordinate":{"lat":53.1392377,"lng":7.035101},"countryCode":"NL","name":"Winschoten","stationCode":"WS","uicCode":"8400696"},"description":"vanaf het busstation"},{"station":{"coordinate":{"lat":53.1844,"lng":7.19937},"countryCode":"NL","name":"Bad Nieuweschans","stationCode":"NSCH","uicCode":"8400457"},"description":"vanaf de voorzijde van het station"}],"label":"Er rijden stopbussen tussen Zuidbroek, Scheemda, Winschoten en Bad Nieuweschans.","shortLabel":"Er rijden stopbussen Zuidbroek - Scheemda - Winschoten - Bad Nieuweschans."}}]},{"type":"MAINTENANCE","id":"7006738","title":"Schiphol - Leiden.","isActive":true,"local":false,"titleSections":[[{"type":"STATION","value":"Schiphol Airport"},{"type":"ICON","value":"MAINTENANCE"},{"type":"STATION","value":"Leiden C."}]],"registrationTime":"2025-08-21T18:53:14+0200","start":"2025-08-22T01:00:00+0200","releaseTime":"2025-08-21T18:53:14+0200","end":"2025-08-22T03:40:00+0200","period":"Vrijdag 22 augustus 1:00 uur t/m vrijdag 22 augustus 3:40 uur.","impact":{"value":3},"publicationSections":[{"section":{"stations":[{"coordinate":{"lat":52.3094444274902,"lng":4.76194429397583},"countryCode":"NL","name":"Schiphol Airport","stationCode":"SHL","uicCode":"8400561"},{"coordinate":{"lat":52.2933349609375,"lng":4.70055532455444},"countryCode":"NL","name":"Hoofddorp","stationCode":"HFD","uicCode":"8400332"},{"coordinate":{"lat":52.2588882446289,"lng":4.64555549621582},"countryCode":"NL","name":"Nieuw Vennep","stationCode":"NVP","uicCode":"8400460"},{"coordinate":{"lat":52.215278,"lng":4.517222},"countryCode":"NL","name":"Sassenheim","stationCode":"SSH","uicCode":"8400603"},{"coordinate":{"lat":52.1661109924316,"lng":4.48166656494141},"countryCode":"NL","name":"Leiden Centraal","stationCode":"LEDN","uicCode":"8400390"}],"direction":"BOTH","operators":["NS"]},"consequence":{"section":{"stations":[{"coordinate":{"lat":52.3094444274902,"lng":4.76194429397583},"countryCode":"NL","name":"Schiphol Airport","stationCode":"SHL","uicCode":"8400561"},{"coordinate":{"lat":52.2933349609375,"lng":4.70055532455444},"countryCode":"NL","name":"Hoofddorp","stationCode":"HFD","uicCode":"8400332"},{"coordinate":{"lat":52.2588882446289,"lng":4.64555549621582},"countryCode":"NL","name":"Nieuw Vennep","stationCode":"NVP","uicCode":"8400460"},{"coordinate":{"lat":52.215278,"lng":4.517222},"countryCode":"NL","name":"Sassenheim","stationCode":"SSH","uicCode":"8400603"},{"coordinate":{"lat":52.1661109924316,"lng":4.48166656494141},"countryCode":"NL","name":"Leiden Centraal","stationCode":"LEDN","uicCode":"8400390"}],"direction":"BOTH","operators":["NS"]},"description":"er rijden bussen","level":"LESS_TRAINS"},"sectionType":"NL"}],"summaryAdditionalTravelTime":{"label":"De extra reistijd is meer dan 15 minuten.","shortLabel":"Extra reistijd meer dan 15 min.","minimumDurationInMinutes":15},"timespans":[{"start":"2025-08-22T01:00:00+0200","end":"2025-08-22T03:40:00+0200","period":"Vrijdag 22 augustus 1:00 uur t/m vrijdag 22 augustus 3:40 uur.","situation":{"label":"Door herstelwerkzaamheden: tussen Leiden Centraal en Schiphol Airport rijden er bussen."},"cause":{"label":"herstelwerkzaamheden","type":"OTHER"},"additionalTravelTime":{"label":"De extra reistijd is meer dan 15 minuten.","shortLabel":"Extra reistijd meer dan 15 min.","minimumDurationInMinutes":15},"alternativeTransport":{"label":"er rijden snelbussen","shortLabel":"er rijden snelbussen"},"advices":["Plan uw reis in de app."]}],"alternativeTransportTimespans":[{"start":"2025-08-22T01:00:00+0200","end":"2025-08-22T03:40:00+0200","alternativeTransport":{"location":[{"station":{"coordinate":{"lat":52.1661109924316,"lng":4.48166656494141},"countryCode":"NL","name":"Leiden Centraal","stationCode":"LEDN","uicCode":"8400390"},"description":"vanaf het stadsbusstation"},{"station":{"coordinate":{"lat":52.3094444274902,"lng":4.76194429397583},"countryCode":"NL","name":"Schiphol Airport","stationCode":"SHL","uicCode":"8400561"},"description":"vanaf het GOS busstation"}],"label":"Er rijden snelbussen tussen Leiden Centraal en Schiphol Airport.","shortLabel":"Er rijden snelbussen Leiden C. - Schiphol Airport."}}]},{"type":"MAINTENANCE","id":"7006607","title":"Zwolle - Groningen.","isActive":true,"local":false,"titleSections":[[{"type":"STATION","value":"Zwolle"},{"type":"STATION","value":"Hoogeveen"},{"type":"ICON","value":"MAINTENANCE"},{"type":"STATION","value":"Assen"},{"type":"STATION","value":"Groningen"}]],"registrationTime":"2025-08-20T14:42:54+0200","start":"2025-08-22T01:00:00+0200","releaseTime":"2025-08-20T14:42:54+0200","end":"2025-08-25T03:00:00+0200","period":"Vrijdag 22 augustus 1:00 uur t/m maandag 25 augustus 3:00 uur.","impact":{"value":3},"publicationSections":[{"section":{"stations":[{"coordinate":{"lat":52.5047225952148,"lng":6.09194421768188},"countryCode":"NL","name":"Zwolle","stationCode":"ZL","uicCode":"8400747"},{"coordinate":{"lat":52.6908340454102,"lng":6.19750022888184},"countryCode":"NL","name":"Meppel","stationCode":"MP","uicCode":"8400435"},{"coordinate":{"lat":52.7338905334473,"lng":6.47361087799072},"countryCode":"NL","name":"Hoogeveen","stationCode":"HGV","uicCode":"8400330"},{"coordinate":{"lat":52.8547210693359,"lng":6.52111101150513},"countryCode":"NL","name":"Beilen","stationCode":"BL","uicCode":"8400100"},{"coordinate":{"lat":52.9916648864746,"lng":6.57083320617676},"countryCode":"NL","name":"Assen","stationCode":"ASN","uicCode":"8400073"},{"coordinate":{"lat":53.1761093139648,"lng":6.61722230911255},"countryCode":"NL","name":"Haren","stationCode":"HRN","uicCode":"8400297"},{"coordinate":{"lat":53.20480027,"lng":6.5854178},"countryCode":"NL","name":"Groningen Europapark","stationCode":"GERP","uicCode":"8400238"},{"coordinate":{"lat":53.2105560302734,"lng":6.56472206115723},"countryCode":"NL","name":"Groningen","stationCode":"GN","uicCode":"8400263"}],"direction":"BOTH","operators":["NS"]},"consequence":{"section":{"stations":[{"coordinate":{"lat":52.7338905334473,"lng":6.47361087799072},"countryCode":"NL","name":"Hoogeveen","stationCode":"HGV","uicCode":"8400330"},{"coordinate":{"lat":52.8547210693359,"lng":6.52111101150513},"countryCode":"NL","name":"Beilen","stationCode":"BL","uicCode":"8400100"},{"coordinate":{"lat":52.9916648864746,"lng":6.57083320617676},"countryCode":"NL","name":"Assen","stationCode":"ASN","uicCode":"8400073"}],"direction":"BOTH","operators":["NS"]},"description":"er rijden bussen","level":"LESS_TRAINS"},"sectionType":"NL"}],"summaryAdditionalTravelTime":{"label":"De extra reistijd kan oplopen tot 30 minuten.","shortLabel":"Extra reistijd tot 30 min.","maximumDurationInMinutes":30},"timespans":[{"start":"2025-08-22T01:00:00+0200","end":"2025-08-25T03:00:00+0200","period":"Vrijdag 22 augustus 1:00 uur t/m maandag 25 augustus 3:00 uur.","situation":{"label":"Door werkzaamheden: tussen Hoogeveen en Assen rijden er bussen."},"cause":{"label":"werkzaamheden","type":"OTHER"},"additionalTravelTime":{"label":"De extra reistijd kan oplopen tot 30 minuten.","shortLabel":"Extra reistijd tot 30 min.","maximumDurationInMinutes":30},"alternativeTransport":{"label":"maak gebruik van het vervangende vervoer","shortLabel":"gebruik het vervangende vervoer"},"advices":[]}],"alternativeTransportTimespans":[{"start":"2025-08-22T01:00:00+0200","end":"2025-08-25T03:00:00+0200","alternativeTransport":{"location":[{"station":{"coordinate":{"lat":53.2105560302734,"lng":6.56472206115723},"countryCode":"NL","name":"Groningen","stationCode":"GN","uicCode":"8400263"},"description":"vanaf de voorzijde van het station"},{"station":{"coordinate":{"lat":52.7338905334473,"lng":6.47361087799072},"countryCode":"NL","name":"Hoogeveen","stationCode":"HGV","uicCode":"8400330"},"description":"vanaf de voorzijde van het station"}],"label":"Er rijden snelbussen tussen Groningen en Hoogeveen.","shortLabel":"Er rijden snelbussen Groningen - Hoogeveen."}},{"start":"2025-08-22T01:00:00+0200","end":"2025-08-25T03:00:00+0200","alternativeTransport":{"location":[{"station":{"coordinate":{"lat":52.9916648864746,"lng":6.57083320617676},"countryCode":"NL","name":"Assen","stationCode":"ASN","uicCode":"8400073"},"description":"vanaf het busstation"},{"station":{"coordinate":{"lat":52.7338905334473,"lng":6.47361087799072},"countryCode":"NL","name":"Hoogeveen","stationCode":"HGV","uicCode":"8400330"},"description":"vanaf de voorzijde van het station"}],"label":"Er rijden snelbussen tussen Assen en Hoogeveen.","shortLabel":"Er rijden snelbussen Assen - Hoogeveen."}},{"start":"2025-08-22T01:00:00+0200","end":"2025-08-25T03:00:00+0200","alternativeTransport":{"location":[{"station":{"coordinate":{"lat":52.9916648864746,"lng":6.57083320617676},"countryCode":"NL","name":"Assen","stationCode":"ASN","uicCode":"8400073"},"description":"vanaf het busstation"},{"station":{"coordinate":{"lat":52.8547210693359,"lng":6.52111101150513},"countryCode":"NL","name":"Beilen","stationCode":"BL","uicCode":"8400100"},"description":"vanaf de voorzijde van het station"}],"label":"Er rijden taxibusjes tussen Assen en Beilen.","shortLabel":"Er rijden taxibusjes Assen - Beilen."}},{"start":"2025-08-22T01:00:00+0200","end":"2025-08-25T03:00:00+0200","alternativeTransport":{"location":[{"station":{"coordinate":{"lat":52.7338905334473,"lng":6.47361087799072},"countryCode":"NL","name":"Hoogeveen","stationCode":"HGV","uicCode":"8400330"},"description":"vanaf de voorzijde van het station"},{"station":{"coordinate":{"lat":52.8547210693359,"lng":6.52111101150513},"countryCode":"NL","name":"Beilen","stationCode":"BL","uicCode":"8400100"},"description":"vanaf de voorzijde van het station"}],"label":"Er rijden taxibusjes tussen Hoogeveen en Beilen.","shortLabel":"Er rijden taxibusjes Hoogeveen - Beilen."}}]},{"type":"MAINTENANCE","id":"7006657","title":"Hengelo - Bielefeld.","isActive":false,"local":false,"titleSections":[[{"type":"STATION","value":"Hengelo"},{"type":"ICON","value":"MAINTENANCE"},{"type":"STATION","value":"Osnabrück Hbf"},{"type":"STATION","value":"Bielefeld Hbf"}]],"registrationTime":"2025-08-15T19:35:32+0200","start":"2025-08-22T04:00:40+0200","releaseTime":"2025-08-15T19:35:32+0200","end":"2025-08-29T23:58:15+0200","period":"Vrijdag 22 augustus 4:00 uur t/m vrijdag 29 augustus 23:58 uur.","impact":{"value":3},"publicationSections":[{"section":{"stations":[{"coordinate":{"lat":52.2616653442383,"lng":6.79388904571533},"countryCode":"NL","name":"Hengelo","stationCode":"HGL","uicCode":"8400316"},{"coordinate":{"lat":52.2688903808594,"lng":6.81944465637207},"countryCode":"NL","name":"Hengelo Oost","stationCode":"HGLO","uicCode":"8400312"},{"coordinate":{"lat":52.3063888549805,"lng":6.93472242355347},"countryCode":"NL","name":"Oldenzaal","stationCode":"ODZ","uicCode":"8400483"},{"coordinate":{"lat":52.309685595156,"lng":7.15853691101074},"countryCode":"D","name":"Bad Bentheim","stationCode":"BH","uicCode":"8021156"},{"coordinate":{"lat":52.276299,"lng":7.434255},"countryCode":"D","name":"Rheine","stationCode":"RHEINE","uicCode":"8021067"},{"coordinate":{"lat":52.272851,"lng":8.061781},"countryCode":"D","name":"Osnabrück Hbf","stationCode":"OSNH","uicCode":"8021025"},{"coordinate":{"lat":52.202075,"lng":8.573876},"countryCode":"D","name":"Bünde (Westf)","stationCode":"BUENDE","uicCode":"8021173"},{"coordinate":{"lat":52.029261,"lng":8.532722},"countryCode":"D","name":"Bielefeld Hbf","stationCode":"BIELEF","uicCode":"8013597"}],"direction":"BOTH","operators":["Eurobahn"]},"consequence":{"section":{"stations":[{"coordinate":{"lat":52.2616653442383,"lng":6.79388904571533},"countryCode":"NL","name":"Hengelo","stationCode":"HGL","uicCode":"8400316"},{"coordinate":{"lat":52.2688903808594,"lng":6.81944465637207},"countryCode":"NL","name":"Hengelo Oost","stationCode":"HGLO","uicCode":"8400312"},{"coordinate":{"lat":52.3063888549805,"lng":6.93472242355347},"countryCode":"NL","name":"Oldenzaal","stationCode":"ODZ","uicCode":"8400483"},{"coordinate":{"lat":52.309685595156,"lng":7.15853691101074},"countryCode":"D","name":"Bad Bentheim","stationCode":"BH","uicCode":"8021156"},{"coordinate":{"lat":52.276299,"lng":7.434255},"countryCode":"D","name":"Rheine","stationCode":"RHEINE","uicCode":"8021067"},{"coordinate":{"lat":52.272851,"lng":8.061781},"countryCode":"D","name":"Osnabrück Hbf","stationCode":"OSNH","uicCode":"8021025"}],"direction":"BOTH","operators":["Eurobahn"]},"description":"aangepaste internationale dienstregeling","level":"LESS_TRAINS"},"sectionType":"NEIGHBORING_COUNTRY"}],"summaryAdditionalTravelTime":{"label":"De extra reistijd is ongeveer 45 minuten.","shortLabel":"Extra reistijd 45 min.","minimumDurationInMinutes":45,"maximumDurationInMinutes":45},"timespans":[{"start":"2025-08-22T04:00:40+0200","end":"2025-08-29T23:58:15+0200","period":"Vrijdag 22 augustus 4:00 uur t/m vrijdag 29 augustus 23:58 uur.","situation":{"label":"Door werkzaamheden: tussen Hengelo en Osnabrück Hbf is de internationale dienstregeling aangepast."},"cause":{"label":"werkzaamheden","type":"OTHER"},"additionalTravelTime":{"label":"De extra reistijd is ongeveer 45 minuten.","shortLabel":"Extra reistijd 45 min.","minimumDurationInMinutes":45,"maximumDurationInMinutes":45},"alternativeTransport":{"label":"er rijden bussen","shortLabel":"er rijden bussen"},"advices":["Er vallen op verschillende tijden treinen uit tussen Ibbenbüren en Osnabrück Hbf. Raadpleeg zuginfo.nrw"]}],"alternativeTransportTimespans":[{"start":"2025-08-22T04:00:40+0200","end":"2025-08-29T23:58:15+0200","alternativeTransport":{"location":[{"station":{"coordinate":{"lat":52.272851,"lng":8.061781},"countryCode":"D","name":"Osnabrück Hbf","stationCode":"OSNH","uicCode":"8021025"},"description":"volg de aanwijzingen op het station"},{"station":{"coordinate":{"lat":52.280935,"lng":8.045902},"countryCode":"D","name":"Osnabrück Altstadt","stationCode":"HOHT","uicCode":"8021031"},"description":"volg de aanwijzingen op het station"},{"station":{"coordinate":{"lat":52.276944,"lng":7.721389},"countryCode":"D","name":"Ibbenbüren","stationCode":"IBBENB","uicCode":"8021162"},"description":"volg de aanwijzingen op het station"}],"label":"Er rijden bussen tussen Osnabrück Hbf, Osnabrück Altstadt en Ibbenbüren.","shortLabel":"Er rijden bussen Osnabrück Hbf - Osnabr. Altstadt - Ibbenbüren."}}]},{"type":"MAINTENANCE","id":"7006618","title":"Dordrecht - Geldermalsen.","isActive":false,"local":false,"titleSections":[[{"type":"STATION","value":"Dordrecht"},{"type":"STATION","value":"Gorinchem"},{"type":"ICON","value":"MAINTENANCE"},{"type":"STATION","value":"Geldermalsen"}]],"registrationTime":"2025-07-14T09:43:22+0200","start":"2025-08-22T05:00:00+0200","releaseTime":"2025-07-14T09:43:22+0200","end":"2025-08-24T02:30:00+0200","period":"Vrijdag 22 augustus 5:00 uur t/m zondag 24 augustus 2:30 uur.","impact":{"value":4},"publicationSections":[{"section":{"stations":[{"coordinate":{"lat":51.8072204589844,"lng":4.66833353042603},"countryCode":"NL","name":"Dordrecht","stationCode":"DDR","uicCode":"8400180"},{"coordinate":{"lat":51.801944732666,"lng":4.71666669845581},"countryCode":"NL","name":"Dordrecht Stadspolders","stationCode":"DDRS","uicCode":"8400186"},{"coordinate":{"lat":51.829722,"lng":4.743333},"countryCode":"NL","name":"Sliedrecht Baanhoek","stationCode":"SDTB","uicCode":"8400497"},{"coordinate":{"lat":51.8297233581543,"lng":4.77833318710327},"countryCode":"NL","name":"Sliedrecht","stationCode":"SDT","uicCode":"8400565"},{"coordinate":{"lat":51.82944,"lng":4.815663},"countryCode":"NL","name":"Hardinxveld Blauwe Zoom","stationCode":"HBZM","uicCode":"8400438"},{"coordinate":{"lat":51.8305549621582,"lng":4.83583354949951},"countryCode":"NL","name":"Hardinxveld-Giessendam","stationCode":"GND","uicCode":"8400295"},{"coordinate":{"lat":51.832222,"lng":4.878056},"countryCode":"NL","name":"Boven-Hardinxveld","stationCode":"BHDV","uicCode":"8400236"},{"coordinate":{"lat":51.8338890075684,"lng":4.96833324432373},"countryCode":"NL","name":"Gorinchem","stationCode":"GR","uicCode":"8400256"},{"coordinate":{"lat":51.8719444274902,"lng":4.99277782440186},"countryCode":"NL","name":"Arkel","stationCode":"AKL","uicCode":"8400068"},{"coordinate":{"lat":51.8947219848633,"lng":5.09138870239258},"countryCode":"NL","name":"Leerdam","stationCode":"LDM","uicCode":"8400386"},{"coordinate":{"lat":51.8994445800781,"lng":5.19444465637207},"countryCode":"NL","name":"Beesd","stationCode":"BSD","uicCode":"8400097"},{"coordinate":{"lat":51.88301,"lng":5.27127},"countryCode":"NL","name":"Geldermalsen","stationCode":"GDM","uicCode":"8400244"}],"direction":"BOTH","operators":["R-net"]},"consequence":{"section":{"stations":[{"coordinate":{"lat":51.8338890075684,"lng":4.96833324432373},"countryCode":"NL","name":"Gorinchem","stationCode":"GR","uicCode":"8400256"},{"coordinate":{"lat":51.8719444274902,"lng":4.99277782440186},"countryCode":"NL","name":"Arkel","stationCode":"AKL","uicCode":"8400068"},{"coordinate":{"lat":51.8947219848633,"lng":5.09138870239258},"countryCode":"NL","name":"Leerdam","stationCode":"LDM","uicCode":"8400386"},{"coordinate":{"lat":51.8994445800781,"lng":5.19444465637207},"countryCode":"NL","name":"Beesd","stationCode":"BSD","uicCode":"8400097"},{"coordinate":{"lat":51.88301,"lng":5.27127},"countryCode":"NL","name":"Geldermalsen","stationCode":"GDM","uicCode":"8400244"}],"direction":"BOTH","operators":["R-net"]},"description":"er rijden bussen","level":"LESS_TRAINS"},"sectionType":"NL"}],"summaryAdditionalTravelTime":{"label":"De extra reistijd is ongeveer 30 minuten.","shortLabel":"Extra reistijd 30 min.","minimumDurationInMinutes":30,"maximumDurationInMinutes":30},"timespans":[{"start":"2025-08-22T05:00:00+0200","end":"2025-08-24T02:30:00+0200","period":"Vrijdag 22 augustus 5:00 uur t/m zondag 24 augustus 2:30 uur.","situation":{"label":"Door werkzaamheden: tussen Gorinchem en Geldermalsen rijden er bussen."},"cause":{"label":"werkzaamheden","type":"OTHER"},"additionalTravelTime":{"label":"De extra reistijd is ongeveer 30 minuten.","shortLabel":"Extra reistijd 30 min.","minimumDurationInMinutes":30,"maximumDurationInMinutes":30},"alternativeTransport":{"label":"er rijden stopbussen","shortLabel":"er rijden stopbussen"},"advices":["Vervangende bus heeft lijnnummer 971"]}],"alternativeTransportTimespans":[{"start":"2025-08-22T05:00:00+0200","end":"2025-08-24T02:30:00+0200","alternativeTransport":{"location":[{"station":{"coordinate":{"lat":51.8338890075684,"lng":4.96833324432373},"countryCode":"NL","name":"Gorinchem","stationCode":"GR","uicCode":"8400256"},"description":"vanaf de voorzijde van het station"},{"station":{"coordinate":{"lat":51.8719444274902,"lng":4.99277782440186},"countryCode":"NL","name":"Arkel","stationCode":"AKL","uicCode":"8400068"},"description":"vanaf de bushalte"},{"station":{"coordinate":{"lat":51.8947219848633,"lng":5.09138870239258},"countryCode":"NL","name":"Leerdam","stationCode":"LDM","uicCode":"8400386"},"description":"vanaf de bushalte"},{"station":{"coordinate":{"lat":51.8994445800781,"lng":5.19444465637207},"countryCode":"NL","name":"Beesd","stationCode":"BSD","uicCode":"8400097"},"description":"vanaf het voorplein"},{"station":{"coordinate":{"lat":51.88301,"lng":5.27127},"countryCode":"NL","name":"Geldermalsen","stationCode":"GDM","uicCode":"8400244"},"description":"vanaf de bushalte"}],"label":"Er rijden stopbussen tussen Gorinchem, Arkel, Leerdam, Beesd en Geldermalsen.","shortLabel":"Er rijden stopbussen Gorinchem - Arkel - Leerdam - Beesd - Geldermalsen."}}]},{"type":"MAINTENANCE","id":"7006713","title":"Amsterdam - Venlo - Mönchengladbach - Köln.","isActive":false,"local":false,"titleSections":[[{"type":"STATION","value":"Amsterdam C."},{"type":"STATION","value":"Venlo"},{"type":"ICON","value":"MAINTENANCE"},{"type":"STATION","value":"Kaldenkirchen"},{"type":"STATION","value":"Köln Hbf"}]],"registrationTime":"2025-08-15T19:30:56+0200","start":"2025-08-22T19:00:00+0200","releaseTime":"2025-08-15T19:30:56+0200","end":"2025-08-22T22:00:00+0200","period":"Vrijdag 22 augustus 19:00 uur t/m vrijdag 22 augustus 22:00 uur.","impact":{"value":2},"publicationSections":[{"section":{"stations":[{"coordinate":{"lat":52.3788871765137,"lng":4.90027761459351},"countryCode":"NL","name":"Amsterdam Centraal","stationCode":"ASD","uicCode":"8400058"},{"coordinate":{"lat":52.3605537414551,"lng":4.93111133575439},"countryCode":"NL","name":"Amsterdam Muiderpoort","stationCode":"ASDM","uicCode":"8400060"},{"coordinate":{"lat":52.3466682434082,"lng":4.91777801513672},"countryCode":"NL","name":"Amsterdam Amstel","stationCode":"ASA","uicCode":"8400057"},{"coordinate":{"lat":52.3233337402344,"lng":4.93638896942139},"countryCode":"NL","name":"Duivendrecht","stationCode":"DVD","uicCode":"8400194"},{"coordinate":{"lat":52.3122215270996,"lng":4.94694423675537},"countryCode":"NL","name":"Amsterdam Bijlmer ArenA","stationCode":"ASB","uicCode":"8400074"},{"coordinate":{"lat":52.29844,"lng":4.95972},"countryCode":"NL","name":"Amsterdam Holendrecht","stationCode":"ASHD","uicCode":"8400231"},{"coordinate":{"lat":52.2785,"lng":4.977},"countryCode":"NL","name":"Abcoude","stationCode":"AC","uicCode":"8400047"},{"coordinate":{"lat":52.17149,"lng":4.9906},"countryCode":"NL","name":"Breukelen","stationCode":"BKL","uicCode":"8400133"},{"coordinate":{"lat":52.1352767944336,"lng":5.03361129760742},"countryCode":"NL","name":"Maarssen","stationCode":"MAS","uicCode":"8400419"},{"coordinate":{"lat":52.103055,"lng":5.09},"countryCode":"NL","name":"Utrecht Zuilen","stationCode":"UTZL","uicCode":"8400613"},{"coordinate":{"lat":52.0888900756836,"lng":5.11027765274048},"countryCode":"NL","name":"Utrecht Centraal","stationCode":"UT","uicCode":"8400621"},{"coordinate":{"lat":52.078889,"lng":5.121667},"countryCode":"NL","name":"Utrecht Vaartsche Rijn","stationCode":"UTVR","uicCode":"8400606"},{"coordinate":{"lat":52.0655555725098,"lng":5.14416646957397},"countryCode":"NL","name":"Utrecht Lunetten","stationCode":"UTLN","uicCode":"8400623"},{"coordinate":{"lat":52.03402,"lng":5.16821},"countryCode":"NL","name":"Houten","stationCode":"HTN","uicCode":"8400340"},{"coordinate":{"lat":52.01701,"lng":5.17949},"countryCode":"NL","name":"Houten Castellum","stationCode":"HTNC","uicCode":"8400335"},{"coordinate":{"lat":51.9466667175293,"lng":5.22694444656372},"countryCode":"NL","name":"Culemborg","stationCode":"CL","uicCode":"8400154"},{"coordinate":{"lat":51.88301,"lng":5.27127},"countryCode":"NL","name":"Geldermalsen","stationCode":"GDM","uicCode":"8400244"},{"coordinate":{"lat":51.8088874816895,"lng":5.26333332061768},"countryCode":"NL","name":"Zaltbommel","stationCode":"ZBM","uicCode":"8400732"},{"coordinate":{"lat":51.69048,"lng":5.29362},"countryCode":"NL","name":"'s-Hertogenbosch","stationCode":"HT","uicCode":"8400319"},{"coordinate":{"lat":51.6555557250977,"lng":5.29194450378418},"countryCode":"NL","name":"Vught","stationCode":"VG","uicCode":"8400667"},{"coordinate":{"lat":51.58433,"lng":5.31912},"countryCode":"NL","name":"Boxtel","stationCode":"BTL","uicCode":"8400129"},{"coordinate":{"lat":51.5099983215332,"lng":5.38916683197022},"countryCode":"NL","name":"Best","stationCode":"BET","uicCode":"8400112"},{"coordinate":{"lat":51.4511108398438,"lng":5.45583343505859},"countryCode":"NL","name":"Eindhoven Strijp-S","stationCode":"EHS","uicCode":"8400196"},{"coordinate":{"lat":51.4433326721191,"lng":5.48138904571533},"countryCode":"NL","name":"Eindhoven Centraal","stationCode":"EHV","uicCode":"8400206"},{"coordinate":{"lat":51.4622230529785,"lng":5.60722208023071},"countryCode":"NL","name":"Helmond Brandevoort","stationCode":"HMBV","uicCode":"8400242"},{"coordinate":{"lat":51.46794,"lng":5.63085},"countryCode":"NL","name":"Helmond 't Hout","stationCode":"HMH","uicCode":"8400300"},{"coordinate":{"lat":51.4755554199219,"lng":5.66194438934326},"countryCode":"NL","name":"Helmond","stationCode":"HM","uicCode":"8400313"},{"coordinate":{"lat":51.47068,"lng":5.70177},"countryCode":"NL","name":"Helmond Brouwhuis","stationCode":"HMBH","uicCode":"8400299"},{"coordinate":{"lat":51.4558334350586,"lng":5.78888893127441},"countryCode":"NL","name":"Deurne","stationCode":"DN","uicCode":"8400172"},{"coordinate":{"lat":51.4263877868652,"lng":6.04222202301025},"countryCode":"NL","name":"Horst-Sevenum","stationCode":"HRT","uicCode":"8400339"},{"coordinate":{"lat":51.372501373291,"lng":6.15500020980835},"countryCode":"NL","name":"Blerick","stationCode":"BR","uicCode":"8400117"},{"coordinate":{"lat":51.3636093139648,"lng":6.17277765274048},"countryCode":"NL","name":"Venlo","stationCode":"VL","uicCode":"8400644"},{"coordinate":{"lat":51.327184,"lng":6.203225},"countryCode":"D","name":"Kaldenkirchen","stationCode":"KN","uicCode":"8015130"},{"coordinate":{"lat":51.294615,"lng":6.241174},"countryCode":"D","name":"Breyell","stationCode":"KBRY","uicCode":"8015129"},{"coordinate":{"lat":51.274323,"lng":6.274591},"countryCode":"D","name":"Boisheim","stationCode":"KBOI","uicCode":"8015128"},{"coordinate":{"lat":51.257149,"lng":6.33793},"countryCode":"D","name":"Dülken","stationCode":"KDUL","uicCode":"8015125"},{"coordinate":{"lat":51.25516,"lng":6.40388},"countryCode":"D","name":"Viersen","stationCode":"VIERS","uicCode":"8015122"},{"coordinate":{"lat":51.196583,"lng":6.446111},"countryCode":"D","name":"Mönchengladbach Hbf","stationCode":"MCGB","uicCode":"8015165"},{"coordinate":{"lat":51.20444,"lng":6.68468},"countryCode":"D","name":"Neuss Hbf","stationCode":"NEUSS","uicCode":"8015149"},{"coordinate":{"lat":51.220146,"lng":6.793137},"countryCode":"D","name":"Düsseldorf Hbf","stationCode":"DUSSEL","uicCode":"8008094"},{"coordinate":{"lat":50.940874,"lng":6.975001},"countryCode":"D","name":"Köln Messe/Deutz","stationCode":"KKD","uicCode":"8015561"},{"coordinate":{"lat":50.9432158,"lng":6.9589214},"countryCode":"D","name":"Köln Hbf","stationCode":"KOLN","uicCode":"8015458"}],"direction":"ONE_WAY","operators":["NS"]},"consequence":{"section":{"stations":[{"coordinate":{"lat":51.3636093139648,"lng":6.17277765274048},"countryCode":"NL","name":"Venlo","stationCode":"VL","uicCode":"8400644"},{"coordinate":{"lat":51.327184,"lng":6.203225},"countryCode":"D","name":"Kaldenkirchen","stationCode":"KN","uicCode":"8015130"}],"direction":"ONE_WAY","operators":["NS"]},"description":"aangepaste internationale dienstregeling","level":"LESS_TRAINS"},"sectionType":"NEIGHBORING_COUNTRY"}],"summaryAdditionalTravelTime":{"label":"U heeft geen langere reistijd.","shortLabel":"Geen extra reistijd."},"timespans":[{"start":"2025-08-22T19:00:00+0200","end":"2025-08-22T22:00:00+0200","period":"Vrijdag 22 augustus 19:00 uur t/m vrijdag 22 augustus 22:00 uur.","situation":{"label":"Door een aangepaste dienstregeling: van Venlo naar Kaldenkirchen is de internationale dienstregeling aangepast."},"cause":{"label":"aangepaste dienstregeling","type":"OTHER"},"additionalTravelTime":{"label":"U heeft geen langere reistijd.","shortLabel":"Geen extra reistijd."},"advices":["Nightjet 421 naar Zürich rijdt via Utrecht Centraal en 's-Hertogenbosch, met aangepaste vertrektijden. "]}],"alternativeTransportTimespans":[]},{"type":"MAINTENANCE","id":"7006684","title":"Amsterdam - Schiphol - Hoofddorp.","isActive":false,"local":false,"titleSections":[[{"type":"STATION","value":"Amsterdam C."},{"type":"ICON","value":"MAINTENANCE"},{"type":"STATION","value":"Hoofddorp"}]],"registrationTime":"2025-08-18T10:28:03+0200","start":"2025-08-23T09:00:00+0200","releaseTime":"2025-08-18T10:28:03+0200","end":"2025-08-23T13:00:00+0200","period":"Zaterdag 23 augustus 9:00 uur t/m zaterdag 23 augustus 13:00 uur.","impact":{"value":2},"publicationSections":[{"section":{"stations":[{"coordinate":{"lat":52.3788871765137,"lng":4.90027761459351},"countryCode":"NL","name":"Amsterdam Centraal","stationCode":"ASD","uicCode":"8400058"},{"coordinate":{"lat":52.3888893127441,"lng":4.83777761459351},"countryCode":"NL","name":"Amsterdam Sloterdijk","stationCode":"ASS","uicCode":"8400059"},{"coordinate":{"lat":52.3577766418457,"lng":4.83388900756836},"countryCode":"NL","name":"Amsterdam Lelylaan","stationCode":"ASDL","uicCode":"8400079"},{"coordinate":{"lat":52.3094444274902,"lng":4.76194429397583},"countryCode":"NL","name":"Schiphol Airport","stationCode":"SHL","uicCode":"8400561"},{"coordinate":{"lat":52.2933349609375,"lng":4.70055532455444},"countryCode":"NL","name":"Hoofddorp","stationCode":"HFD","uicCode":"8400332"}],"direction":"ONE_WAY","operators":["NS"]},"consequence":{"section":{"stations":[{"coordinate":{"lat":52.3788871765137,"lng":4.90027761459351},"countryCode":"NL","name":"Amsterdam Centraal","stationCode":"ASD","uicCode":"8400058"},{"coordinate":{"lat":52.3888893127441,"lng":4.83777761459351},"countryCode":"NL","name":"Amsterdam Sloterdijk","stationCode":"ASS","uicCode":"8400059"},{"coordinate":{"lat":52.3577766418457,"lng":4.83388900756836},"countryCode":"NL","name":"Amsterdam Lelylaan","stationCode":"ASDL","uicCode":"8400079"},{"coordinate":{"lat":52.3094444274902,"lng":4.76194429397583},"countryCode":"NL","name":"Schiphol Airport","stationCode":"SHL","uicCode":"8400561"},{"coordinate":{"lat":52.2933349609375,"lng":4.70055532455444},"countryCode":"NL","name":"Hoofddorp","stationCode":"HFD","uicCode":"8400332"}],"direction":"ONE_WAY","operators":["NS"]},"description":"extra drukte vanwege een omreisroute","level":"LESS_TRAINS"},"sectionType":"NL"}],"summaryAdditionalTravelTime":{"label":"U heeft geen langere reistijd.","shortLabel":"Geen extra reistijd."},"timespans":[{"start":"2025-08-23T09:00:00+0200","end":"2025-08-23T13:00:00+0200","period":"Zaterdag 23 augustus 9:00 uur t/m zaterdag 23 augustus 13:00 uur.","situation":{"label":"Door een evenement: van Hoofddorp naar Amsterdam Centraal zijn er volle treinen en mogelijk een langere reistijd."},"cause":{"label":"evenement","type":"OTHER"},"additionalTravelTime":{"label":"U heeft geen langere reistijd.","shortLabel":"Geen extra reistijd."},"advices":["NS verwacht enorme drukte in treinen naar Amsterdam. Ga eerder op reis of reis na 13.00 uur.","Tussen Leiden C. en Amsterdam C. reis via Haarlem."]}],"alternativeTransportTimespans":[]},{"type":"MAINTENANCE","id":"7006369","title":"Amsterdam - Hannover - Berlin.","isActive":false,"local":false,"titleSections":[[{"type":"STATION","value":"Amsterdam C."},{"type":"ICON","value":"MAINTENANCE"},{"type":"STATION","value":"Berlin Hbf"}]],"registrationTime":"2025-08-05T14:58:21+0200","start":"2025-08-23T17:50:00+0200","releaseTime":"2025-08-05T14:58:21+0200","end":"2025-08-23T19:42:00+0200","period":"Zaterdag 23 augustus 17:50 uur t/m zaterdag 23 augustus 19:42 uur.","impact":{"value":1},"publicationSections":[{"section":{"stations":[{"coordinate":{"lat":52.3788871765137,"lng":4.90027761459351},"countryCode":"NL","name":"Amsterdam Centraal","stationCode":"ASD","uicCode":"8400058"},{"coordinate":{"lat":52.3605537414551,"lng":4.93111133575439},"countryCode":"NL","name":"Amsterdam Muiderpoort","stationCode":"ASDM","uicCode":"8400060"},{"coordinate":{"lat":52.35274,"lng":4.94855},"countryCode":"NL","name":"Amsterdam Science Park","stationCode":"ASSP","uicCode":"8400235"},{"coordinate":{"lat":52.34515,"lng":4.967566},"countryCode":"NL","name":"Diemen","stationCode":"DMN","uicCode":"8400165"},{"coordinate":{"lat":52.3127784729004,"lng":5.04305553436279},"countryCode":"NL","name":"Weesp","stationCode":"WP","uicCode":"8400685"},{"coordinate":{"lat":52.2802772521973,"lng":5.15694427490234},"countryCode":"NL","name":"Naarden-Bussum","stationCode":"NDB","uicCode":"8400452"},{"coordinate":{"lat":52.2658348083496,"lng":5.16305541992188},"countryCode":"NL","name":"Bussum Zuid","stationCode":"BSMZ","uicCode":"8400145"},{"coordinate":{"lat":52.2380561828613,"lng":5.17388868331909},"countryCode":"NL","name":"Hilversum Media Park","stationCode":"HVSM","uicCode":"8400324"},{"coordinate":{"lat":52.2258338928223,"lng":5.18194437026978},"countryCode":"NL","name":"Hilversum","stationCode":"HVS","uicCode":"8400322"},{"coordinate":{"lat":52.2083320617676,"lng":5.28083324432373},"countryCode":"NL","name":"Baarn","stationCode":"BRN","uicCode":"8400086"},{"coordinate":{"lat":52.1538887023926,"lng":5.37055540084839},"countryCode":"NL","name":"Amersfoort Centraal","stationCode":"AMF","uicCode":"8400055"},{"coordinate":{"lat":52.16652,"lng":5.45718},"countryCode":"NL","name":"Hoevelaken","stationCode":"HVL","uicCode":"8400490"},{"coordinate":{"lat":52.2091674804687,"lng":5.97027778625488},"countryCode":"NL","name":"Apeldoorn","stationCode":"APD","uicCode":"8400066"},{"coordinate":{"lat":52.2152786254883,"lng":6.00444459915161},"countryCode":"NL","name":"Apeldoorn Osseveld","stationCode":"APDO","uicCode":"8400229"},{"coordinate":{"lat":52.2377777099609,"lng":6.09861087799072},"countryCode":"NL","name":"Twello","stationCode":"TWL","uicCode":"8400599"},{"coordinate":{"lat":52.2574996948242,"lng":6.16055536270142},"countryCode":"NL","name":"Deventer","stationCode":"DV","uicCode":"8400173"},{"coordinate":{"lat":52.2502784729004,"lng":6.21444463729858},"countryCode":"NL","name":"Deventer Colmschate","stationCode":"DVC","uicCode":"8400185"},{"coordinate":{"lat":52.2838897705078,"lng":6.42027759552002},"countryCode":"NL","name":"Holten","stationCode":"HON","uicCode":"8400328"},{"coordinate":{"lat":52.3122215270996,"lng":6.52027797698975},"countryCode":"NL","name":"Rijssen","stationCode":"RSN","uicCode":"8400538"},{"coordinate":{"lat":52.3613891601562,"lng":6.59166669845581},"countryCode":"NL","name":"Wierden","stationCode":"WDN","uicCode":"8400691"},{"coordinate":{"lat":52.3580551147461,"lng":6.65388870239258},"countryCode":"NL","name":"Almelo","stationCode":"AML","uicCode":"8400051"},{"coordinate":{"lat":52.3419456481934,"lng":6.66666650772095},"countryCode":"NL","name":"Almelo de Riet","stationCode":"AMRI","uicCode":"8400520"},{"coordinate":{"lat":52.2988891601562,"lng":6.74805545806885},"countryCode":"NL","name":"Borne","stationCode":"BN","uicCode":"8400124"},{"coordinate":{"lat":52.2616653442383,"lng":6.79388904571533},"countryCode":"NL","name":"Hengelo","stationCode":"HGL","uicCode":"8400316"},{"coordinate":{"lat":52.2688903808594,"lng":6.81944465637207},"countryCode":"NL","name":"Hengelo Oost","stationCode":"HGLO","uicCode":"8400312"},{"coordinate":{"lat":52.3063888549805,"lng":6.93472242355347},"countryCode":"NL","name":"Oldenzaal","stationCode":"ODZ","uicCode":"8400483"},{"coordinate":{"lat":52.309685595156,"lng":7.15853691101074},"countryCode":"D","name":"Bad Bentheim","stationCode":"BH","uicCode":"8021156"},{"coordinate":{"lat":52.276299,"lng":7.434255},"countryCode":"D","name":"Rheine","stationCode":"RHEINE","uicCode":"8021067"},{"coordinate":{"lat":52.272851,"lng":8.061781},"countryCode":"D","name":"Osnabrück Hbf","stationCode":"OSNH","uicCode":"8021025"},{"coordinate":{"lat":52.3770401,"lng":9.7416759},"countryCode":"D","name":"Hannover Hbf","stationCode":"HANN","uicCode":"8013552"},{"coordinate":{"lat":52.52503,"lng":13.36946},"countryCode":"D","name":"Berlin Hbf","stationCode":"BERHBL","uicCode":"8065969"}],"direction":"ONE_WAY","operators":["NS Int"]},"consequence":{"section":{"stations":[{"coordinate":{"lat":52.3788871765137,"lng":4.90027761459351},"countryCode":"NL","name":"Amsterdam Centraal","stationCode":"ASD","uicCode":"8400058"},{"coordinate":{"lat":52.3605537414551,"lng":4.93111133575439},"countryCode":"NL","name":"Amsterdam Muiderpoort","stationCode":"ASDM","uicCode":"8400060"},{"coordinate":{"lat":52.35274,"lng":4.94855},"countryCode":"NL","name":"Amsterdam Science Park","stationCode":"ASSP","uicCode":"8400235"},{"coordinate":{"lat":52.34515,"lng":4.967566},"countryCode":"NL","name":"Diemen","stationCode":"DMN","uicCode":"8400165"},{"coordinate":{"lat":52.3127784729004,"lng":5.04305553436279},"countryCode":"NL","name":"Weesp","stationCode":"WP","uicCode":"8400685"},{"coordinate":{"lat":52.2802772521973,"lng":5.15694427490234},"countryCode":"NL","name":"Naarden-Bussum","stationCode":"NDB","uicCode":"8400452"},{"coordinate":{"lat":52.2658348083496,"lng":5.16305541992188},"countryCode":"NL","name":"Bussum Zuid","stationCode":"BSMZ","uicCode":"8400145"},{"coordinate":{"lat":52.2380561828613,"lng":5.17388868331909},"countryCode":"NL","name":"Hilversum Media Park","stationCode":"HVSM","uicCode":"8400324"},{"coordinate":{"lat":52.2258338928223,"lng":5.18194437026978},"countryCode":"NL","name":"Hilversum","stationCode":"HVS","uicCode":"8400322"},{"coordinate":{"lat":52.2083320617676,"lng":5.28083324432373},"countryCode":"NL","name":"Baarn","stationCode":"BRN","uicCode":"8400086"},{"coordinate":{"lat":52.1538887023926,"lng":5.37055540084839},"countryCode":"NL","name":"Amersfoort Centraal","stationCode":"AMF","uicCode":"8400055"},{"coordinate":{"lat":52.16652,"lng":5.45718},"countryCode":"NL","name":"Hoevelaken","stationCode":"HVL","uicCode":"8400490"},{"coordinate":{"lat":52.2091674804687,"lng":5.97027778625488},"countryCode":"NL","name":"Apeldoorn","stationCode":"APD","uicCode":"8400066"},{"coordinate":{"lat":52.2152786254883,"lng":6.00444459915161},"countryCode":"NL","name":"Apeldoorn Osseveld","stationCode":"APDO","uicCode":"8400229"},{"coordinate":{"lat":52.2377777099609,"lng":6.09861087799072},"countryCode":"NL","name":"Twello","stationCode":"TWL","uicCode":"8400599"},{"coordinate":{"lat":52.2574996948242,"lng":6.16055536270142},"countryCode":"NL","name":"Deventer","stationCode":"DV","uicCode":"8400173"},{"coordinate":{"lat":52.2502784729004,"lng":6.21444463729858},"countryCode":"NL","name":"Deventer Colmschate","stationCode":"DVC","uicCode":"8400185"},{"coordinate":{"lat":52.2838897705078,"lng":6.42027759552002},"countryCode":"NL","name":"Holten","stationCode":"HON","uicCode":"8400328"},{"coordinate":{"lat":52.3122215270996,"lng":6.52027797698975},"countryCode":"NL","name":"Rijssen","stationCode":"RSN","uicCode":"8400538"},{"coordinate":{"lat":52.3613891601562,"lng":6.59166669845581},"countryCode":"NL","name":"Wierden","stationCode":"WDN","uicCode":"8400691"},{"coordinate":{"lat":52.3580551147461,"lng":6.65388870239258},"countryCode":"NL","name":"Almelo","stationCode":"AML","uicCode":"8400051"},{"coordinate":{"lat":52.3419456481934,"lng":6.66666650772095},"countryCode":"NL","name":"Almelo de Riet","stationCode":"AMRI","uicCode":"8400520"},{"coordinate":{"lat":52.2988891601562,"lng":6.74805545806885},"countryCode":"NL","name":"Borne","stationCode":"BN","uicCode":"8400124"},{"coordinate":{"lat":52.2616653442383,"lng":6.79388904571533},"countryCode":"NL","name":"Hengelo","stationCode":"HGL","uicCode":"8400316"},{"coordinate":{"lat":52.2688903808594,"lng":6.81944465637207},"countryCode":"NL","name":"Hengelo Oost","stationCode":"HGLO","uicCode":"8400312"},{"coordinate":{"lat":52.3063888549805,"lng":6.93472242355347},"countryCode":"NL","name":"Oldenzaal","stationCode":"ODZ","uicCode":"8400483"},{"coordinate":{"lat":52.309685595156,"lng":7.15853691101074},"countryCode":"D","name":"Bad Bentheim","stationCode":"BH","uicCode":"8021156"},{"coordinate":{"lat":52.276299,"lng":7.434255},"countryCode":"D","name":"Rheine","stationCode":"RHEINE","uicCode":"8021067"},{"coordinate":{"lat":52.272851,"lng":8.061781},"countryCode":"D","name":"Osnabrück Hbf","stationCode":"OSNH","uicCode":"8021025"},{"coordinate":{"lat":52.3770401,"lng":9.7416759},"countryCode":"D","name":"Hannover Hbf","stationCode":"HANN","uicCode":"8013552"},{"coordinate":{"lat":52.52503,"lng":13.36946},"countryCode":"D","name":"Berlin Hbf","stationCode":"BERHBL","uicCode":"8065969"}],"direction":"ONE_WAY","operators":["NS Int"]},"description":"aangepaste internationale dienstregeling","level":"LESS_TRAINS"},"sectionType":"NEIGHBORING_COUNTRY"}],"summaryAdditionalTravelTime":{"label":"U heeft geen langere reistijd.","shortLabel":"Geen extra reistijd."},"timespans":[{"start":"2025-08-23T17:50:00+0200","end":"2025-08-23T19:42:00+0200","period":"Zaterdag 23 augustus 17:50 uur t/m zaterdag 23 augustus 19:42 uur.","situation":{"label":"Door werkzaamheden: van Amsterdam Centraal naar Berlin Hbf is de internationale dienstregeling aangepast."},"cause":{"label":"werkzaamheden","type":"OTHER"},"additionalTravelTime":{"label":"U heeft geen langere reistijd.","shortLabel":"Geen extra reistijd."},"advices":["IC Berlijn 243 rijdt niet."]}],"alternativeTransportTimespans":[]},{"type":"MAINTENANCE","id":"7006683","title":"Amsterdam - Haarlem.","isActive":false,"local":false,"titleSections":[[{"type":"STATION","value":"Amsterdam C."},{"type":"ICON","value":"MAINTENANCE"},{"type":"STATION","value":"Haarlem"}]],"registrationTime":"2025-08-05T11:06:10+0200","start":"2025-08-24T01:30:00+0200","releaseTime":"2025-08-05T11:06:10+0200","end":"2025-08-24T04:10:00+0200","period":"Zondag 24 augustus 1:30 uur t/m zondag 24 augustus 4:10 uur.","impact":{"value":3},"publicationSections":[{"section":{"stations":[{"coordinate":{"lat":52.3788871765137,"lng":4.90027761459351},"countryCode":"NL","name":"Amsterdam Centraal","stationCode":"ASD","uicCode":"8400058"},{"coordinate":{"lat":52.3888893127441,"lng":4.83777761459351},"countryCode":"NL","name":"Amsterdam Sloterdijk","stationCode":"ASS","uicCode":"8400059"},{"coordinate":{"lat":52.385935,"lng":4.747165},"countryCode":"NL","name":"Halfweg-Zwanenburg","stationCode":"HWZB","uicCode":"8400400"},{"coordinate":{"lat":52.3827781677246,"lng":4.67305564880371},"countryCode":"NL","name":"Haarlem Spaarnwoude","stationCode":"HLMS","uicCode":"8400270"},{"coordinate":{"lat":52.3877792358398,"lng":4.63833332061768},"countryCode":"NL","name":"Haarlem","stationCode":"HLM","uicCode":"8400285"}],"direction":"BOTH","operators":["NS"]},"consequence":{"section":{"stations":[{"coordinate":{"lat":52.3788871765137,"lng":4.90027761459351},"countryCode":"NL","name":"Amsterdam Centraal","stationCode":"ASD","uicCode":"8400058"},{"coordinate":{"lat":52.3888893127441,"lng":4.83777761459351},"countryCode":"NL","name":"Amsterdam Sloterdijk","stationCode":"ASS","uicCode":"8400059"},{"coordinate":{"lat":52.385935,"lng":4.747165},"countryCode":"NL","name":"Halfweg-Zwanenburg","stationCode":"HWZB","uicCode":"8400400"},{"coordinate":{"lat":52.3827781677246,"lng":4.67305564880371},"countryCode":"NL","name":"Haarlem Spaarnwoude","stationCode":"HLMS","uicCode":"8400270"},{"coordinate":{"lat":52.3877792358398,"lng":4.63833332061768},"countryCode":"NL","name":"Haarlem","stationCode":"HLM","uicCode":"8400285"}],"direction":"BOTH","operators":["NS"]},"description":"er rijden bussen","level":"LESS_TRAINS"},"sectionType":"NL"}],"summaryAdditionalTravelTime":{"label":"De extra reistijd is ongeveer 15 minuten.","shortLabel":"Extra reistijd 15 min.","minimumDurationInMinutes":15,"maximumDurationInMinutes":15},"timespans":[{"start":"2025-08-24T01:30:00+0200","end":"2025-08-24T04:10:00+0200","period":"Zondag 24 augustus 1:30 uur t/m zondag 24 augustus 4:10 uur.","situation":{"label":"Door werkzaamheden: tussen Amsterdam Centraal en Haarlem rijden er bussen."},"cause":{"label":"werkzaamheden","type":"OTHER"},"additionalTravelTime":{"label":"De extra reistijd is ongeveer 15 minuten.","shortLabel":"Extra reistijd 15 min.","minimumDurationInMinutes":15,"maximumDurationInMinutes":15},"alternativeTransport":{"label":"er rijden snelbussen","shortLabel":"er rijden snelbussen"},"advices":[]}],"alternativeTransportTimespans":[{"start":"2025-08-24T01:30:00+0200","end":"2025-08-24T04:10:00+0200","alternativeTransport":{"location":[{"station":{"coordinate":{"lat":52.3877792358398,"lng":4.63833332061768},"countryCode":"NL","name":"Haarlem","stationCode":"HLM","uicCode":"8400285"},"description":"vanaf de Jansweg"},{"station":{"coordinate":{"lat":52.3788871765137,"lng":4.90027761459351},"countryCode":"NL","name":"Amsterdam Centraal","stationCode":"ASD","uicCode":"8400058"},"description":"vanaf het busstation"}],"label":"Er rijden snelbussen tussen Haarlem en Amsterdam Centraal.","shortLabel":"Er rijden snelbussen Haarlem - Amsterdam C."}}]},{"type":"MAINTENANCE","id":"7006651","title":"Rotterdam - Dordrecht.","isActive":false,"local":false,"titleSections":[[{"type":"STATION","value":"Rotterdam C."},{"type":"ICON","value":"MAINTENANCE"},{"type":"STATION","value":"Dordrecht"}]],"registrationTime":"2025-08-13T12:47:26+0200","start":"2025-08-24T01:34:00+0200","releaseTime":"2025-08-13T12:47:26+0200","end":"2025-08-24T07:15:00+0200","period":"Zondag 24 augustus 1:34 uur t/m zondag 24 augustus 7:15 uur.","impact":{"value":3},"publicationSections":[{"section":{"stations":[{"coordinate":{"lat":51.9249992370605,"lng":4.46888875961304},"countryCode":"NL","name":"Rotterdam Centraal","stationCode":"RTD","uicCode":"8400530"},{"coordinate":{"lat":51.9202766418457,"lng":4.48888874053955},"countryCode":"NL","name":"Rotterdam Blaak","stationCode":"RTB","uicCode":"8400529"},{"coordinate":{"lat":51.9044456481934,"lng":4.51027774810791},"countryCode":"NL","name":"Rotterdam Zuid","stationCode":"RTZ","uicCode":"8400533"},{"coordinate":{"lat":51.8800010681152,"lng":4.53138875961304},"countryCode":"NL","name":"Rotterdam Lombardijen","stationCode":"RLB","uicCode":"8400542"},{"coordinate":{"lat":51.8547210693359,"lng":4.5533332824707},"countryCode":"NL","name":"Barendrecht","stationCode":"BRD","uicCode":"8400090"},{"coordinate":{"lat":51.814998626709,"lng":4.64166688919067},"countryCode":"NL","name":"Zwijndrecht","stationCode":"ZWD","uicCode":"8400752"},{"coordinate":{"lat":51.8072204589844,"lng":4.66833353042603},"countryCode":"NL","name":"Dordrecht","stationCode":"DDR","uicCode":"8400180"}],"direction":"BOTH","operators":["NS"]},"consequence":{"section":{"stations":[{"coordinate":{"lat":51.9249992370605,"lng":4.46888875961304},"countryCode":"NL","name":"Rotterdam Centraal","stationCode":"RTD","uicCode":"8400530"},{"coordinate":{"lat":51.9202766418457,"lng":4.48888874053955},"countryCode":"NL","name":"Rotterdam Blaak","stationCode":"RTB","uicCode":"8400529"},{"coordinate":{"lat":51.9044456481934,"lng":4.51027774810791},"countryCode":"NL","name":"Rotterdam Zuid","stationCode":"RTZ","uicCode":"8400533"},{"coordinate":{"lat":51.8800010681152,"lng":4.53138875961304},"countryCode":"NL","name":"Rotterdam Lombardijen","stationCode":"RLB","uicCode":"8400542"},{"coordinate":{"lat":51.8547210693359,"lng":4.5533332824707},"countryCode":"NL","name":"Barendrecht","stationCode":"BRD","uicCode":"8400090"},{"coordinate":{"lat":51.814998626709,"lng":4.64166688919067},"countryCode":"NL","name":"Zwijndrecht","stationCode":"ZWD","uicCode":"8400752"},{"coordinate":{"lat":51.8072204589844,"lng":4.66833353042603},"countryCode":"NL","name":"Dordrecht","stationCode":"DDR","uicCode":"8400180"}],"direction":"BOTH","operators":["NS"]},"description":"er rijden bussen","level":"LESS_TRAINS"},"sectionType":"NL"}],"summaryAdditionalTravelTime":{"label":"De extra reistijd kan oplopen tot 30 minuten.","shortLabel":"Extra reistijd tot 30 min.","maximumDurationInMinutes":30},"timespans":[{"start":"2025-08-24T01:34:00+0200","end":"2025-08-24T07:15:00+0200","period":"Zondag 24 augustus 1:34 uur t/m zondag 24 augustus 7:15 uur.","situation":{"label":"Door werkzaamheden: tussen Rotterdam Centraal en Dordrecht rijden er bussen."},"cause":{"label":"werkzaamheden","type":"OTHER"},"additionalTravelTime":{"label":"De extra reistijd kan oplopen tot 30 minuten.","shortLabel":"Extra reistijd tot 30 min.","maximumDurationInMinutes":30},"alternativeTransport":{"label":"er rijden stop- en snelbussen","shortLabel":"er rijden stop- en snelbussen"},"advices":[]}],"alternativeTransportTimespans":[{"start":"2025-08-24T01:34:00+0200","end":"2025-08-24T02:34:00+0200","alternativeTransport":{"location":[{"station":{"coordinate":{"lat":51.8072204589844,"lng":4.66833353042603},"countryCode":"NL","name":"Dordrecht","stationCode":"DDR","uicCode":"8400180"},"description":"vanaf de Burgemeester de Raadtsingel"},{"station":{"coordinate":{"lat":51.9249992370605,"lng":4.46888875961304},"countryCode":"NL","name":"Rotterdam Centraal","stationCode":"RTD","uicCode":"8400530"},"description":"vanaf de Conradstraat aan de centrumzijde"}],"label":"Er rijden snelbussen tussen Dordrecht en Rotterdam Centraal.","shortLabel":"Er rijden snelbussen Dordrecht - Rotterdam C."}},{"start":"2025-08-24T02:35:00+0200","end":"2025-08-24T07:15:00+0200","alternativeTransport":{"location":[{"station":{"coordinate":{"lat":51.9249992370605,"lng":4.46888875961304},"countryCode":"NL","name":"Rotterdam Centraal","stationCode":"RTD","uicCode":"8400530"},"description":"vanaf de Conradstraat aan de centrumzijde"},{"station":{"coordinate":{"lat":51.9202766418457,"lng":4.48888874053955},"countryCode":"NL","name":"Rotterdam Blaak","stationCode":"RTB","uicCode":"8400529"},"description":"vanaf de voorzijde van het station"},{"station":{"coordinate":{"lat":51.9044456481934,"lng":4.51027774810791},"countryCode":"NL","name":"Rotterdam Zuid","stationCode":"RTZ","uicCode":"8400533"},"description":"vanaf de Rosestraat"},{"station":{"coordinate":{"lat":51.8800010681152,"lng":4.53138875961304},"countryCode":"NL","name":"Rotterdam Lombardijen","stationCode":"RLB","uicCode":"8400542"},"description":"vanaf de bushalte"},{"station":{"coordinate":{"lat":51.8547210693359,"lng":4.5533332824707},"countryCode":"NL","name":"Barendrecht","stationCode":"BRD","uicCode":"8400090"},"description":"vanaf de achterzijde van het station"},{"station":{"coordinate":{"lat":51.814998626709,"lng":4.64166688919067},"countryCode":"NL","name":"Zwijndrecht","stationCode":"ZWD","uicCode":"8400752"},"description":"vanaf het Stationsplein"},{"station":{"coordinate":{"lat":51.8072204589844,"lng":4.66833353042603},"countryCode":"NL","name":"Dordrecht","stationCode":"DDR","uicCode":"8400180"},"description":"vanaf de Burgemeester de Raadtsingel"}],"label":"Er rijden stopbussen tussen Rotterdam Centraal, Rotterdam Blaak, Rotterdam Zuid, Rotterdam Lombardijen, Barendrecht, Zwijndrecht en Dordrecht.","shortLabel":"Er rijden stopbussen Rotterdam C. - Blaak - Rotterdam Zuid - Lombardijen - Barendrecht - Zwijndrecht - Dordrecht."}}]},{"type":"MAINTENANCE","id":"7006370","title":"Amsterdam - Hannover - Berlin.","isActive":false,"local":false,"titleSections":[[{"type":"STATION","value":"Amsterdam C."},{"type":"ICON","value":"MAINTENANCE"},{"type":"STATION","value":"Berlin Hbf"}]],"registrationTime":"2025-08-15T19:26:22+0200","start":"2025-08-24T08:00:00+0200","releaseTime":"2025-08-15T19:26:22+0200","end":"2025-08-24T09:49:00+0200","period":"Zondag 24 augustus 8:00 uur t/m zondag 24 augustus 9:49 uur.","impact":{"value":1},"publicationSections":[{"section":{"stations":[{"coordinate":{"lat":52.3788871765137,"lng":4.90027761459351},"countryCode":"NL","name":"Amsterdam Centraal","stationCode":"ASD","uicCode":"8400058"},{"coordinate":{"lat":52.3605537414551,"lng":4.93111133575439},"countryCode":"NL","name":"Amsterdam Muiderpoort","stationCode":"ASDM","uicCode":"8400060"},{"coordinate":{"lat":52.35274,"lng":4.94855},"countryCode":"NL","name":"Amsterdam Science Park","stationCode":"ASSP","uicCode":"8400235"},{"coordinate":{"lat":52.34515,"lng":4.967566},"countryCode":"NL","name":"Diemen","stationCode":"DMN","uicCode":"8400165"},{"coordinate":{"lat":52.3127784729004,"lng":5.04305553436279},"countryCode":"NL","name":"Weesp","stationCode":"WP","uicCode":"8400685"},{"coordinate":{"lat":52.2802772521973,"lng":5.15694427490234},"countryCode":"NL","name":"Naarden-Bussum","stationCode":"NDB","uicCode":"8400452"},{"coordinate":{"lat":52.2658348083496,"lng":5.16305541992188},"countryCode":"NL","name":"Bussum Zuid","stationCode":"BSMZ","uicCode":"8400145"},{"coordinate":{"lat":52.2380561828613,"lng":5.17388868331909},"countryCode":"NL","name":"Hilversum Media Park","stationCode":"HVSM","uicCode":"8400324"},{"coordinate":{"lat":52.2258338928223,"lng":5.18194437026978},"countryCode":"NL","name":"Hilversum","stationCode":"HVS","uicCode":"8400322"},{"coordinate":{"lat":52.2083320617676,"lng":5.28083324432373},"countryCode":"NL","name":"Baarn","stationCode":"BRN","uicCode":"8400086"},{"coordinate":{"lat":52.1538887023926,"lng":5.37055540084839},"countryCode":"NL","name":"Amersfoort Centraal","stationCode":"AMF","uicCode":"8400055"},{"coordinate":{"lat":52.16652,"lng":5.45718},"countryCode":"NL","name":"Hoevelaken","stationCode":"HVL","uicCode":"8400490"},{"coordinate":{"lat":52.2091674804687,"lng":5.97027778625488},"countryCode":"NL","name":"Apeldoorn","stationCode":"APD","uicCode":"8400066"},{"coordinate":{"lat":52.2152786254883,"lng":6.00444459915161},"countryCode":"NL","name":"Apeldoorn Osseveld","stationCode":"APDO","uicCode":"8400229"},{"coordinate":{"lat":52.2377777099609,"lng":6.09861087799072},"countryCode":"NL","name":"Twello","stationCode":"TWL","uicCode":"8400599"},{"coordinate":{"lat":52.2574996948242,"lng":6.16055536270142},"countryCode":"NL","name":"Deventer","stationCode":"DV","uicCode":"8400173"},{"coordinate":{"lat":52.2502784729004,"lng":6.21444463729858},"countryCode":"NL","name":"Deventer Colmschate","stationCode":"DVC","uicCode":"8400185"},{"coordinate":{"lat":52.2838897705078,"lng":6.42027759552002},"countryCode":"NL","name":"Holten","stationCode":"HON","uicCode":"8400328"},{"coordinate":{"lat":52.3122215270996,"lng":6.52027797698975},"countryCode":"NL","name":"Rijssen","stationCode":"RSN","uicCode":"8400538"},{"coordinate":{"lat":52.3613891601562,"lng":6.59166669845581},"countryCode":"NL","name":"Wierden","stationCode":"WDN","uicCode":"8400691"},{"coordinate":{"lat":52.3580551147461,"lng":6.65388870239258},"countryCode":"NL","name":"Almelo","stationCode":"AML","uicCode":"8400051"},{"coordinate":{"lat":52.3419456481934,"lng":6.66666650772095},"countryCode":"NL","name":"Almelo de Riet","stationCode":"AMRI","uicCode":"8400520"},{"coordinate":{"lat":52.2988891601562,"lng":6.74805545806885},"countryCode":"NL","name":"Borne","stationCode":"BN","uicCode":"8400124"},{"coordinate":{"lat":52.2616653442383,"lng":6.79388904571533},"countryCode":"NL","name":"Hengelo","stationCode":"HGL","uicCode":"8400316"},{"coordinate":{"lat":52.2688903808594,"lng":6.81944465637207},"countryCode":"NL","name":"Hengelo Oost","stationCode":"HGLO","uicCode":"8400312"},{"coordinate":{"lat":52.3063888549805,"lng":6.93472242355347},"countryCode":"NL","name":"Oldenzaal","stationCode":"ODZ","uicCode":"8400483"},{"coordinate":{"lat":52.309685595156,"lng":7.15853691101074},"countryCode":"D","name":"Bad Bentheim","stationCode":"BH","uicCode":"8021156"},{"coordinate":{"lat":52.276299,"lng":7.434255},"countryCode":"D","name":"Rheine","stationCode":"RHEINE","uicCode":"8021067"},{"coordinate":{"lat":52.272851,"lng":8.061781},"countryCode":"D","name":"Osnabrück Hbf","stationCode":"OSNH","uicCode":"8021025"},{"coordinate":{"lat":52.3770401,"lng":9.7416759},"countryCode":"D","name":"Hannover Hbf","stationCode":"HANN","uicCode":"8013552"},{"coordinate":{"lat":52.52503,"lng":13.36946},"countryCode":"D","name":"Berlin Hbf","stationCode":"BERHBL","uicCode":"8065969"}],"direction":"ONE_WAY","operators":["NS Int"]},"consequence":{"section":{"stations":[{"coordinate":{"lat":52.3788871765137,"lng":4.90027761459351},"countryCode":"NL","name":"Amsterdam Centraal","stationCode":"ASD","uicCode":"8400058"},{"coordinate":{"lat":52.3605537414551,"lng":4.93111133575439},"countryCode":"NL","name":"Amsterdam Muiderpoort","stationCode":"ASDM","uicCode":"8400060"},{"coordinate":{"lat":52.35274,"lng":4.94855},"countryCode":"NL","name":"Amsterdam Science Park","stationCode":"ASSP","uicCode":"8400235"},{"coordinate":{"lat":52.34515,"lng":4.967566},"countryCode":"NL","name":"Diemen","stationCode":"DMN","uicCode":"8400165"},{"coordinate":{"lat":52.3127784729004,"lng":5.04305553436279},"countryCode":"NL","name":"Weesp","stationCode":"WP","uicCode":"8400685"},{"coordinate":{"lat":52.2802772521973,"lng":5.15694427490234},"countryCode":"NL","name":"Naarden-Bussum","stationCode":"NDB","uicCode":"8400452"},{"coordinate":{"lat":52.2658348083496,"lng":5.16305541992188},"countryCode":"NL","name":"Bussum Zuid","stationCode":"BSMZ","uicCode":"8400145"},{"coordinate":{"lat":52.2380561828613,"lng":5.17388868331909},"countryCode":"NL","name":"Hilversum Media Park","stationCode":"HVSM","uicCode":"8400324"},{"coordinate":{"lat":52.2258338928223,"lng":5.18194437026978},"countryCode":"NL","name":"Hilversum","stationCode":"HVS","uicCode":"8400322"},{"coordinate":{"lat":52.2083320617676,"lng":5.28083324432373},"countryCode":"NL","name":"Baarn","stationCode":"BRN","uicCode":"8400086"},{"coordinate":{"lat":52.1538887023926,"lng":5.37055540084839},"countryCode":"NL","name":"Amersfoort Centraal","stationCode":"AMF","uicCode":"8400055"},{"coordinate":{"lat":52.16652,"lng":5.45718},"countryCode":"NL","name":"Hoevelaken","stationCode":"HVL","uicCode":"8400490"},{"coordinate":{"lat":52.2091674804687,"lng":5.97027778625488},"countryCode":"NL","name":"Apeldoorn","stationCode":"APD","uicCode":"8400066"},{"coordinate":{"lat":52.2152786254883,"lng":6.00444459915161},"countryCode":"NL","name":"Apeldoorn Osseveld","stationCode":"APDO","uicCode":"8400229"},{"coordinate":{"lat":52.2377777099609,"lng":6.09861087799072},"countryCode":"NL","name":"Twello","stationCode":"TWL","uicCode":"8400599"},{"coordinate":{"lat":52.2574996948242,"lng":6.16055536270142},"countryCode":"NL","name":"Deventer","stationCode":"DV","uicCode":"8400173"},{"coordinate":{"lat":52.2502784729004,"lng":6.21444463729858},"countryCode":"NL","name":"Deventer Colmschate","stationCode":"DVC","uicCode":"8400185"},{"coordinate":{"lat":52.2838897705078,"lng":6.42027759552002},"countryCode":"NL","name":"Holten","stationCode":"HON","uicCode":"8400328"},{"coordinate":{"lat":52.3122215270996,"lng":6.52027797698975},"countryCode":"NL","name":"Rijssen","stationCode":"RSN","uicCode":"8400538"},{"coordinate":{"lat":52.3613891601562,"lng":6.59166669845581},"countryCode":"NL","name":"Wierden","stationCode":"WDN","uicCode":"8400691"},{"coordinate":{"lat":52.3580551147461,"lng":6.65388870239258},"countryCode":"NL","name":"Almelo","stationCode":"AML","uicCode":"8400051"},{"coordinate":{"lat":52.3419456481934,"lng":6.66666650772095},"countryCode":"NL","name":"Almelo de Riet","stationCode":"AMRI","uicCode":"8400520"},{"coordinate":{"lat":52.2988891601562,"lng":6.74805545806885},"countryCode":"NL","name":"Borne","stationCode":"BN","uicCode":"8400124"},{"coordinate":{"lat":52.2616653442383,"lng":6.79388904571533},"countryCode":"NL","name":"Hengelo","stationCode":"HGL","uicCode":"8400316"},{"coordinate":{"lat":52.2688903808594,"lng":6.81944465637207},"countryCode":"NL","name":"Hengelo Oost","stationCode":"HGLO","uicCode":"8400312"},{"coordinate":{"lat":52.3063888549805,"lng":6.93472242355347},"countryCode":"NL","name":"Oldenzaal","stationCode":"ODZ","uicCode":"8400483"},{"coordinate":{"lat":52.309685595156,"lng":7.15853691101074},"countryCode":"D","name":"Bad Bentheim","stationCode":"BH","uicCode":"8021156"},{"coordinate":{"lat":52.276299,"lng":7.434255},"countryCode":"D","name":"Rheine","stationCode":"RHEINE","uicCode":"8021067"},{"coordinate":{"lat":52.272851,"lng":8.061781},"countryCode":"D","name":"Osnabrück Hbf","stationCode":"OSNH","uicCode":"8021025"},{"coordinate":{"lat":52.3770401,"lng":9.7416759},"countryCode":"D","name":"Hannover Hbf","stationCode":"HANN","uicCode":"8013552"},{"coordinate":{"lat":52.52503,"lng":13.36946},"countryCode":"D","name":"Berlin Hbf","stationCode":"BERHBL","uicCode":"8065969"}],"direction":"ONE_WAY","operators":["NS Int"]},"description":"aangepaste internationale dienstregeling","level":"LESS_TRAINS"},"sectionType":"NEIGHBORING_COUNTRY"}],"summaryAdditionalTravelTime":{"label":"U heeft geen langere reistijd.","shortLabel":"Geen extra reistijd."},"timespans":[{"start":"2025-08-24T08:00:00+0200","end":"2025-08-24T09:49:00+0200","period":"Zondag 24 augustus 8:00 uur t/m zondag 24 augustus 9:49 uur.","situation":{"label":"Door werkzaamheden: van Berlin Hbf naar Amsterdam Centraal is de internationale dienstregeling aangepast."},"cause":{"label":"werkzaamheden","type":"OTHER"},"additionalTravelTime":{"label":"U heeft geen langere reistijd.","shortLabel":"Geen extra reistijd."},"advices":["IC Berlijn 242 rijdt niet."]}],"alternativeTransportTimespans":[]},{"type":"MAINTENANCE","id":"7006585","title":"Utrecht - Gouda; Gouda - Den Haag.","isActive":false,"local":false,"titleSections":[[{"type":"STATION","value":"Gouda"},{"type":"ICON","value":"MAINTENANCE"},{"type":"STATION","value":"Den Haag C."}],[{"type":"STATION","value":"Utrecht C."},{"type":"ICON","value":"MAINTENANCE"},{"type":"STATION","value":"Gouda"}],[{"type":"STATION","value":"Gouda"},{"type":"STATION","value":"Voorburg"},{"type":"ICON","value":"MAINTENANCE"},{"type":"STATION","value":"Den Haag C."}]],"registrationTime":"2025-08-01T15:49:14+0200","start":"2025-08-25T04:00:00+0200","releaseTime":"2025-08-01T15:49:14+0200","end":"2025-08-27T02:00:00+0200","period":"Maandag 25 augustus 4:00 uur t/m woensdag 27 augustus 2:00 uur.","impact":{"value":4},"publicationSections":[{"section":{"stations":[{"coordinate":{"lat":52.0175018310547,"lng":4.70444440841675},"countryCode":"NL","name":"Gouda","stationCode":"GD","uicCode":"8400258"},{"coordinate":{"lat":52.042222,"lng":4.517222},"countryCode":"NL","name":"Lansingerland-Zoetermeer","stationCode":"LLZM","uicCode":"8400135"},{"coordinate":{"lat":52.0463905334473,"lng":4.49277782440186},"countryCode":"NL","name":"Zoetermeer Oost","stationCode":"ZTMO","uicCode":"8400740"},{"coordinate":{"lat":52.0475006103516,"lng":4.47722244262695},"countryCode":"NL","name":"Zoetermeer","stationCode":"ZTM","uicCode":"8400741"},{"coordinate":{"lat":52.0552787780762,"lng":4.39222240447998},"countryCode":"NL","name":"Den Haag Ypenburg","stationCode":"YPB","uicCode":"8400379"},{"coordinate":{"lat":52.0666656494141,"lng":4.3594446182251},"countryCode":"NL","name":"Voorburg","stationCode":"VB","uicCode":"8400658"},{"coordinate":{"lat":52.0802764892578,"lng":4.32499980926514},"countryCode":"NL","name":"Den Haag Centraal","stationCode":"GVC","uicCode":"8400282"}],"direction":"BOTH","operators":["NS"]},"consequence":{"section":{"stations":[{"coordinate":{"lat":52.0175018310547,"lng":4.70444440841675},"countryCode":"NL","name":"Gouda","stationCode":"GD","uicCode":"8400258"},{"coordinate":{"lat":52.042222,"lng":4.517222},"countryCode":"NL","name":"Lansingerland-Zoetermeer","stationCode":"LLZM","uicCode":"8400135"},{"coordinate":{"lat":52.0463905334473,"lng":4.49277782440186},"countryCode":"NL","name":"Zoetermeer Oost","stationCode":"ZTMO","uicCode":"8400740"},{"coordinate":{"lat":52.0475006103516,"lng":4.47722244262695},"countryCode":"NL","name":"Zoetermeer","stationCode":"ZTM","uicCode":"8400741"},{"coordinate":{"lat":52.0552787780762,"lng":4.39222240447998},"countryCode":"NL","name":"Den Haag Ypenburg","stationCode":"YPB","uicCode":"8400379"},{"coordinate":{"lat":52.0666656494141,"lng":4.3594446182251},"countryCode":"NL","name":"Voorburg","stationCode":"VB","uicCode":"8400658"},{"coordinate":{"lat":52.0802764892578,"lng":4.32499980926514},"countryCode":"NL","name":"Den Haag Centraal","stationCode":"GVC","uicCode":"8400282"}],"direction":"BOTH","operators":["NS"]},"description":"er rijden bussen","level":"LESS_TRAINS"},"sectionType":"NL"},{"section":{"stations":[{"coordinate":{"lat":52.0888900756836,"lng":5.11027765274048},"countryCode":"NL","name":"Utrecht Centraal","stationCode":"UT","uicCode":"8400621"},{"coordinate":{"lat":52.09896,"lng":5.06523},"countryCode":"NL","name":"Utrecht Leidsche Rijn","stationCode":"UTLR","uicCode":"8400607"},{"coordinate":{"lat":52.1000753,"lng":5.0439547},"countryCode":"NL","name":"Utrecht Terwijde","stationCode":"UTT","uicCode":"8400614"},{"coordinate":{"lat":52.103056,"lng":5.007404},"countryCode":"NL","name":"Vleuten","stationCode":"VTN","uicCode":"8400651"},{"coordinate":{"lat":52.0849990844727,"lng":4.89361095428467},"countryCode":"NL","name":"Woerden","stationCode":"WD","uicCode":"8400702"},{"coordinate":{"lat":52.0149993896484,"lng":4.7408332824707},"countryCode":"NL","name":"Gouda Goverwelle","stationCode":"GDG","uicCode":"8400257"},{"coordinate":{"lat":52.0175018310547,"lng":4.70444440841675},"countryCode":"NL","name":"Gouda","stationCode":"GD","uicCode":"8400258"}],"direction":"BOTH","operators":["NS"]},"consequence":{"section":{"stations":[{"coordinate":{"lat":52.0888900756836,"lng":5.11027765274048},"countryCode":"NL","name":"Utrecht Centraal","stationCode":"UT","uicCode":"8400621"},{"coordinate":{"lat":52.09896,"lng":5.06523},"countryCode":"NL","name":"Utrecht Leidsche Rijn","stationCode":"UTLR","uicCode":"8400607"},{"coordinate":{"lat":52.1000753,"lng":5.0439547},"countryCode":"NL","name":"Utrecht Terwijde","stationCode":"UTT","uicCode":"8400614"},{"coordinate":{"lat":52.103056,"lng":5.007404},"countryCode":"NL","name":"Vleuten","stationCode":"VTN","uicCode":"8400651"},{"coordinate":{"lat":52.0849990844727,"lng":4.89361095428467},"countryCode":"NL","name":"Woerden","stationCode":"WD","uicCode":"8400702"},{"coordinate":{"lat":52.0149993896484,"lng":4.7408332824707},"countryCode":"NL","name":"Gouda Goverwelle","stationCode":"GDG","uicCode":"8400257"},{"coordinate":{"lat":52.0175018310547,"lng":4.70444440841675},"countryCode":"NL","name":"Gouda","stationCode":"GD","uicCode":"8400258"}],"direction":"BOTH","operators":["NS"]},"description":"minder Intercity's","level":"LESS_TRAINS"},"sectionType":"NL"},{"section":{"stations":[{"coordinate":{"lat":52.0175018310547,"lng":4.70444440841675},"countryCode":"NL","name":"Gouda","stationCode":"GD","uicCode":"8400258"},{"coordinate":{"lat":52.042222,"lng":4.517222},"countryCode":"NL","name":"Lansingerland-Zoetermeer","stationCode":"LLZM","uicCode":"8400135"},{"coordinate":{"lat":52.0463905334473,"lng":4.49277782440186},"countryCode":"NL","name":"Zoetermeer Oost","stationCode":"ZTMO","uicCode":"8400740"},{"coordinate":{"lat":52.0475006103516,"lng":4.47722244262695},"countryCode":"NL","name":"Zoetermeer","stationCode":"ZTM","uicCode":"8400741"},{"coordinate":{"lat":52.0552787780762,"lng":4.39222240447998},"countryCode":"NL","name":"Den Haag Ypenburg","stationCode":"YPB","uicCode":"8400379"},{"coordinate":{"lat":52.0666656494141,"lng":4.3594446182251},"countryCode":"NL","name":"Voorburg","stationCode":"VB","uicCode":"8400658"},{"coordinate":{"lat":52.0802764892578,"lng":4.32499980926514},"countryCode":"NL","name":"Den Haag Centraal","stationCode":"GVC","uicCode":"8400282"}],"direction":"BOTH","operators":["NS"]},"consequence":{"section":{"stations":[{"coordinate":{"lat":52.0666656494141,"lng":4.3594446182251},"countryCode":"NL","name":"Voorburg","stationCode":"VB","uicCode":"8400658"},{"coordinate":{"lat":52.0802764892578,"lng":4.32499980926514},"countryCode":"NL","name":"Den Haag Centraal","stationCode":"GVC","uicCode":"8400282"}],"direction":"BOTH","operators":["NS"]},"description":"geen treinen","level":"LESS_TRAINS"},"sectionType":"NL"}],"summaryAdditionalTravelTime":{"label":"De extra reistijd kan oplopen tot 30 minuten.","shortLabel":"Extra reistijd tot 30 min.","minimumDurationInMinutes":30,"maximumDurationInMinutes":30},"timespans":[{"start":"2025-08-25T04:00:00+0200","end":"2025-08-26T02:00:00+0200","period":"Maandag 25 augustus 4:00 uur t/m dinsdag 26 augustus 2:00 uur.","situation":{"label":"Door werkzaamheden: tussen Gouda en Den Haag Centraal rijden er bussen en tussen Utrecht Centraal en Gouda rijden er minder Intercity's."},"cause":{"label":"werkzaamheden","type":"OTHER"},"additionalTravelTime":{"label":"De extra reistijd is ongeveer 30 minuten.","shortLabel":"Extra reistijd 30 min.","minimumDurationInMinutes":30,"maximumDurationInMinutes":30},"alternativeTransport":{"label":"er rijden stopbussen","shortLabel":"er rijden stopbussen"},"advices":["Tussen Gouda en Den Haag C. reis via Rotterdam C. en Laan v NOI.","Tussen Utrecht C. en Den Haag C. reis via Leiden C."]},{"start":"2025-08-26T04:00:00+0200","end":"2025-08-27T02:00:00+0200","period":"Dinsdag 26 augustus 4:00 uur t/m woensdag 27 augustus 2:00 uur.","situation":{"label":"Door werkzaamheden: tussen Voorburg en Den Haag Centraal rijden er geen treinen."},"cause":{"label":"werkzaamheden","type":"OTHER"},"additionalTravelTime":{"label":"De extra reistijd is ongeveer 15 minuten.","shortLabel":"Extra reistijd 15 min.","minimumDurationInMinutes":15,"maximumDurationInMinutes":15},"advices":["Treinen rijden naar Den Haag HS i.p.v. Den Haag Centraal. Reis via Den Haag HS en Laan van NOI naar Den Haag Centraal.","Tussen Voorburg en Den Haag C. reis via Den Haag HS en Laan v NOI.","Tussen Utrecht C. en Den Haag C. reis via Leiden C. en Laan v NOI."]}],"alternativeTransportTimespans":[{"start":"2025-08-25T04:00:00+0200","end":"2025-08-26T02:00:00+0200","alternativeTransport":{"location":[{"station":{"coordinate":{"lat":52.0175018310547,"lng":4.70444440841675},"countryCode":"NL","name":"Gouda","stationCode":"GD","uicCode":"8400258"},"description":"vanaf de Bloemendaalzijde"},{"station":{"coordinate":{"lat":52.042222,"lng":4.517222},"countryCode":"NL","name":"Lansingerland-Zoetermeer","stationCode":"LLZM","uicCode":"8400135"},"description":"vanaf het Spoorpad halte A"},{"station":{"coordinate":{"lat":52.0463905334473,"lng":4.49277782440186},"countryCode":"NL","name":"Zoetermeer Oost","stationCode":"ZTMO","uicCode":"8400740"},"description":"vanaf het busstation"},{"station":{"coordinate":{"lat":52.0475006103516,"lng":4.47722244262695},"countryCode":"NL","name":"Zoetermeer","stationCode":"ZTM","uicCode":"8400741"},