[{"id":"6020086","type":"DISRUPTION","registrationTime":"2022-11-29T12:44:42+0100","releaseTime":"2022-11-29T12:44:42+0100","local":false,"title":"Maastricht-Liège / Luik","titleSections":[[{"type":"STATION","value":"Maastricht"},{"type":"ICON","value":"DISRUPTION"},{"type":"STATION","value":"Eijsden"},{"type":"STATION","value":"Liège-Guillemins"}]],"topic":"disruption_6020086_nl","isActive":true,"start":"2022-11-28T20:11:29+0100","end":"2022-12-02T02:00:00+0100","phase":{"id":"3","label":"Vervangend vervoer"},"impact":{"value":2},"expectedDuration":{"description":"Dit duurt tot ongeveer vrijdag 2 december 02:00 uur.","endTime":"2022-12-02T02:00:00+0100"},"summaryAdditionalTravelTime":{"label":"De extra reistijd kan oplopen tot 15 minuten.","shortLabel":"Extra reistijd tot 15 min.","maximumDurationInMinutes":15},"publicationSections":[{"section":{"stations":[{"uicCode":"8400424","stationCode":"MT","name":"Maastricht","coordinate":{"lat":50.8502769470215,"lng":5.70555543899536},"countryCode":"NL"},{"uicCode":"8400426","stationCode":"MTR","name":"Maastricht Randwyck","coordinate":{"lat":50.8386116027832,"lng":5.71722221374512},"countryCode":"NL"},{"uicCode":"8400219","stationCode":"EDN","name":"Eijsden","coordinate":{"lat":50.7719459533691,"lng":5.71000003814697},"countryCode":"NL"},{"uicCode":"8846201","stationCode":"FVS","name":"Visé","coordinate":{"lat":50.73781,"lng":5.69232},"countryCode":"B"},{"uicCode":"8843901","stationCode":"BRESSX","name":"Bressoux","coordinate":{"lat":50.643829,"lng":5.6112542},"countryCode":"B"},{"uicCode":"8841004","stationCode":"LUIK","name":"Liège-Guillemins","coordinate":{"lat":50.62436,"lng":5.56648},"countryCode":"B"}],"direction":"BOTH"},"consequence":{"section":{"stations":[{"uicCode":"8400424","stationCode":"MT","name":"Maastricht","coordinate":{"lat":50.8502769470215,"lng":5.70555543899536},"countryCode":"NL"},{"uicCode":"8400426","stationCode":"MTR","name":"Maastricht Randwyck","coordinate":{"lat":50.8386116027832,"lng":5.71722221374512},"countryCode":"NL"},{"uicCode":"8400219","stationCode":"EDN","name":"Eijsden","coordinate":{"lat":50.7719459533691,"lng":5.71000003814697},"countryCode":"NL"}],"direction":"ONE_WAY"},"description":"minder treinen","level":"LESS_TRAINS"},"sectionType":"NEIGHBORING_COUNTRY"}],"timespans":[{"start":"2022-11-28T20:11:29+0100","end":"2022-12-02T02:00:00+0100","situation":{"label":"Tussen Maastricht en Eijsden rijden er minder treinen door acties in het buitenland."},"cause":{"label":"Acties in het buitenland"},"additionalTravelTime":{"label":"De extra reistijd kan oplopen tot 15 minuten.","shortLabel":"Extra reistijd tot 15 min.","maximumDurationInMinutes":15},"alternativeTransport":{"label":"Er rijden ook stopbussen.","shortLabel":"Er rijden ook stopbussen"},"advices":[]}],"alternativeTransportTimespans":[{"start":"2022-11-28T20:11:29+0100","end":"2022-12-02T02:00:00+0100","alternativeTransport":{"location":[{"station":{"uicCode":"8400424","stationCode":"MT","name":"Maastricht","coordinate":{"lat":50.8502769470215,"lng":5.70555543899536},"countryCode":"NL"},"description":"vanaf het Stationsplein"},{"station":{"uicCode":"8400426","stationCode":"MTR","name":"Maastricht Randwyck","coordinate":{"lat":50.8386116027832,"lng":5.71722221374512},"countryCode":"NL"},"description":"vanaf de Universiteitssingel"},{"station":{"uicCode":"8400219","stationCode":"EDN","name":"Eijsden","coordinate":{"lat":50.7719459533691,"lng":5.71000003814697},"countryCode":"NL"},"description":"vanaf de voorzijde van het station"}],"label":"Er rijden ook stopbussen tussen Maastricht, Maastricht Randwyck en Eijsden.","shortLabel":"Er rijden ook stopbussen: Maastricht, Randwyck, Eijsden"}}]},{"id":"6020089","type":"DISRUPTION","registrationTime":"2022-11-29T20:43:26+0100","releaseTime":"2022-11-29T20:43:26+0100","local":false,"title":"Utrecht-Amersfoort Schothorst","titleSections":[[{"type":"STATION","value":"Utrecht C."},{"type":"STATION","value":"Den Dolder"},{"type":"ICON","value":"DISRUPTION"},{"type":"STATION","value":"Amersfoort C."},{"type":"STATION","value":"Schothorst"}]],"topic":"disruption_6020089_nl","isActive":true,"start":"2022-11-29T20:13:20+0100","end":"2022-11-29T23:45:00+0100","phase":{"id":"2","label":"Impact bekend"},"impact":{"value":4},"expectedDuration":{"description":"Dit duurt tot ongeveer dinsdag 29 november 23:45 uur.","endTime":"2022-11-29T23:45:00+0100"},"publicationSections":[{"section":{"stations":[{"uicCode":"8400621","stationCode":"UT","name":"Utrecht Centraal","coordinate":{"lat":52.0888900756836,"lng":5.11027765274048},"countryCode":"NL"},{"uicCode":"8400620","stationCode":"UTO","name":"Utrecht Overvecht","coordinate":{"lat":52.1100006103516,"lng":5.12472200393677},"countryCode":"NL"},{"uicCode":"8400114","stationCode":"BHV","name":"Bilthoven","coordinate":{"lat":52.1300010681152,"lng":5.20388889312744},"countryCode":"NL"},{"uicCode":"8400179","stationCode":"DLD","name":"Den Dolder","coordinate":{"lat":52.1402778625488,"lng":5.24277782440186},"countryCode":"NL"},{"uicCode":"8400055","stationCode":"AMF","name":"Amersfoort Centraal","coordinate":{"lat":52.1538887023926,"lng":5.37055540084839},"countryCode":"NL"},{"uicCode":"8400054","stationCode":"AMFS","name":"Amersfoort Schothorst","coordinate":{"lat":52.1748221374512,"lng":5.40388870239258},"countryCode":"NL"}],"direction":"BOTH"},"consequence":{"section":{"stations":[{"uicCode":"8400179","stationCode":"DLD","name":"Den Dolder","coordinate":{"lat":52.1402778625488,"lng":5.24277782440186},"countryCode":"NL"},{"uicCode":"8400055","stationCode":"AMF","name":"Amersfoort Centraal","coordinate":{"lat":52.1538887023926,"lng":5.37055540084839},"countryCode":"NL"}],"direction":"ONE_WAY"},"description":"geen treinen","level":"NO_OR_MUCH_LESS_TRAINS"},"sectionType":"NL"}],"timespans":[{"start":"2022-11-29T20:13:20+0100","end":"2022-11-29T23:45:00+0100","situation":{"label":"Tussen Den Dolder en Amersfoort Centraal rijden er geen treinen door een aanrijding."},"cause":{"label":"Aanrijding"},"advices":[]}],"alternativeTransportTimespans":[]},{"id":"6020092","type":"DISRUPTION","registrationTime":"2022-11-29T20:38:42+0100","releaseTime":"2022-11-29T20:38:42+0100","local":false,"title":"Amersfoort-Zwolle","titleSections":[[{"type":"STATION","value":"Amersfoort C."},{"type":"ICON","value":"DISRUPTION"},{"type":"STATION","value":"Zwolle"}]],"topic":"disruption_6020092_nl","isActive":true,"start":"2022-11-29T20:33:15+0100","end":"2022-11-29T23:15:00+0100","phase":{"id":"1b","label":"Gevolgen bekend"},"impact":{"value":2},"expectedDuration":{"description":"Dit duurt tot ongeveer dinsdag 29 november 23:15 uur.","endTime":"2022-11-29T23:15:00+0100"},"summaryAdditionalTravelTime":{"label":"De extra reistijd kan oplopen tot 30 minuten.","shortLabel":"Extra reistijd tot 30 min.","maximumDurationInMinutes":30},"publicationSections":[{"section":{"stations":[{"uicCode":"8400055","stationCode":"AMF","name":"Amersfoort Centraal","coordinate":{"lat":52.1538887023926,"lng":5.37055540084839},"countryCode":"NL"},{"uicCode":"8400054","stationCode":"AMFS","name":"Amersfoort Schothorst","coordinate":{"lat":52.1748221374512,"lng":5.40388870239258},"countryCode":"NL"},{"uicCode":"8400228","stationCode":"AVAT","name":"Amersfoort Vathorst","coordinate":{"lat":52.1927795410156,"lng":5.43388891220093},"countryCode":"NL"},{"uicCode":"8400469","stationCode":"NKK","name":"Nijkerk","coordinate":{"lat":52.2222213745117,"lng":5.49388885498047},"countryCode":"NL"},{"uicCode":"8400509","stationCode":"PT","name":"Putten","coordinate":{"lat":52.2649993896484,"lng":5.57527780532837},"countryCode":"NL"},{"uicCode":"8400216","stationCode":"EML","name":"Ermelo","coordinate":{"lat":52.3016662597656,"lng":5.61472225189209},"countryCode":"NL"},{"uicCode":"8400294","stationCode":"HD","name":"Harderwijk","coordinate":{"lat":52.3375015258789,"lng":5.61972236633301},"countryCode":"NL"},{"uicCode":"8400466","stationCode":"NS","name":"Nunspeet","coordinate":{"lat":52.3708343505859,"lng":5.78527784347534},"countryCode":"NL"},{"uicCode":"8400388","stationCode":"HDE","name":"'t Harde","coordinate":{"lat":52.4091682,"lng":5.893611},"countryCode":"NL"},{"uicCode":"8400690","stationCode":"WZ","name":"Wezep","coordinate":{"lat":52.4541664123535,"lng":6.00250005722046},"countryCode":"NL"},{"uicCode":"8400747","stationCode":"ZL","name":"Zwolle","coordinate":{"lat":52.5047225952148,"lng":6.09194421768188},"countryCode":"NL"}],"direction":"BOTH"},"consequence":{"section":{"stations":[{"uicCode":"8400055","stationCode":"AMF","name":"Amersfoort Centraal","coordinate":{"lat":52.1538887023926,"lng":5.37055540084839},"countryCode":"NL"},{"uicCode":"8400054","stationCode":"AMFS","name":"Amersfoort Schothorst","coordinate":{"lat":52.1748221374512,"lng":5.40388870239258},"countryCode":"NL"},{"uicCode":"8400228","stationCode":"AVAT","name":"Amersfoort Vathorst","coordinate":{"lat":52.1927795410156,"lng":5.43388891220093},"countryCode":"NL"},{"uicCode":"8400469","stationCode":"NKK","name":"Nijkerk","coordinate":{"lat":52.2222213745117,"lng":5.49388885498047},"countryCode":"NL"},{"uicCode":"8400509","stationCode":"PT","name":"Putten","coordinate":{"lat":52.2649993896484,"lng":5.57527780532837},"countryCode":"NL"},{"uicCode":"8400216","stationCode":"EML","name":"Ermelo","coordinate":{"lat":52.3016662597656,"lng":5.61472225189209},"countryCode":"NL"},{"uicCode":"8400294","stationCode":"HD","name":"Harderwijk","coordinate":{"lat":52.3375015258789,"lng":5.61972236633301},"countryCode":"NL"},{"uicCode":"8400466","stationCode":"NS","name":"Nunspeet","coordinate":{"lat":52.3708343505859,"lng":5.78527784347534},"countryCode":"NL"},{"uicCode":"8400388","stationCode":"HDE","name":"'t Harde","coordinate":{"lat":52.4091682,"lng":5.893611},"countryCode":"NL"},{"uicCode":"8400690","stationCode":"WZ","name":"Wezep","coordinate":{"lat":52.4541664123535,"lng":6.00250005722046},"countryCode":"NL"},{"uicCode":"8400747","stationCode":"ZL","name":"Zwolle","coordinate":{"lat":52.5047225952148,"lng":6.09194421768188},"countryCode":"NL"}],"direction":"ONE_WAY"},"description":"minder Intercity's","level":"LESS_TRAINS"},"sectionType":"NL"}],"timespans":[{"start":"2022-11-29T20:33:15+0100","end":"2022-11-29T23:15:00+0100","situation":{"label":"Tussen Amersfoort Centraal en Zwolle rijden er minder Intercity's door een seinstoring."},"cause":{"label":"Seinstoring"},"additionalTravelTime":{"label":"De extra reistijd kan oplopen tot 30 minuten.","shortLabel":"Extra reistijd tot 30 min.","maximumDurationInMinutes":30},"advices":[]}],"alternativeTransportTimespans":[]},{"id":"b1c19f21-795c-4e7c-80a9-5b6b10ede08b","title":"Van en naar België","topic":"disruption_b1c19f21-795c-4e7c-80a9-5b6b10ede08b_nl","description":"Van 28 november 22.00 uur tot en met 2 december 03.00 uur is er een staking van het binnenlands openbaar vervoer in België.\r\nHierdoor zal het binnenlands openbaar vervoer niet of zeer beperkt rijden.","priority":"PRIO_3","lastUpdated":"2022-11-28T20:38:00+0100","bodyItems":[],"buttons":{"position":["BOTTOM"],"items":[{"label":"Actuele reisinfo","type":"EXTERNAL","accessibilityLabel":"Actuele reisinfo","url":"https://www.nsinternational.com/nl/actuele-reisinformatie"},{"label":"Plan je reis","type":"EXTERNAL","accessibilityLabel":"Plan je reis","url":"https://www.ns.nl/"},{"label":"site Belgische Spoorwegen","type":"EXTERNAL","accessibilityLabel":"site Belgische Spoorwegen","url":"https://www.belgiantrain.be/nl"}]},"url":"https://www.ns.nl/reisinformatie/calamiteiten/van-en-naar-belgie.html","type":"CALAMITY","isActive":true}]