[{"type":"CALAMITY","id":"b26689e7-2cbb-4688-acb5-7de983a427ab","title":"Staking in België van 21 februari t/m 2 maart","isActive":true,"topic":"disruption_b26689e7-2cbb-4688-acb5-7de983a427ab_nl","description":"Vanaf vrijdag 21 februari 22:00 uur tot en met zondag 2 maart is er een staking van spoorwegpersoneel in België. Houd rekening met uitval van treinen. Kijk voor meer informatie op de site van NS International.\r\n\r\nPlan je reis kort voor vertrek in de reisplanner voor het meest actuele advies.","url":"https://www.ns.nl/reisinformatie/calamiteiten/staking-in-belgie-van-21-februari-t-m-2-maart.html","priority":"PRIO_3","lastUpdated":"2025-02-19T21:00:00+0100","bodyItems":[],"buttons":{"position":["BOTTOM"],"items":[{"label":"Meer informatie","accessibilityLabel":"Meer informatie","url":"https://www.nsinternational.com/nl/actuele-reisinformatie/DiuUhfCFhqTnH3kbEVOMB","type":"EXTERNAL"}]}},{"type":"MAINTENANCE","id":"7004492","title":"Groningen - Leer.","isActive":true,"local":false,"titleSections":[[{"type":"STATION","value":"Groningen"},{"type":"STATION","value":"Bad Nieuweschans"},{"type":"ICON","value":"MAINTENANCE"},{"type":"STATION","value":"Weener"},{"type":"STATION","value":"Leer (Ostfr.)"}]],"registrationTime":"2024-11-27T12:15:04+0100","start":"2024-02-01T04:00:00+0100","releaseTime":"2024-11-27T12:15:04+0100","end":"2025-08-24T23:59:00+0200","period":"Donderdag 1 februari 4:00 uur t/m zondag 24 augustus 2025 23:59 uur.","impact":{"value":3},"publicationSections":[{"section":{"stations":[{"coordinate":{"lat":53.2105560302734,"lng":6.56472206115723},"countryCode":"NL","name":"Groningen","stationCode":"GN","uicCode":"8400263"},{"coordinate":{"lat":53.20480027,"lng":6.5854178},"countryCode":"NL","name":"Groningen Europapark","stationCode":"GERP","uicCode":"8400238"},{"coordinate":{"lat":53.1617362,"lng":6.7220882},"countryCode":"NL","name":"Kropswolde","stationCode":"KW","uicCode":"8400369"},{"coordinate":{"lat":53.1607232,"lng":6.7402989},"countryCode":"NL","name":"Martenshoek","stationCode":"MTH","uicCode":"8400430"},{"coordinate":{"lat":53.1598181316756,"lng":6.77075386047363},"countryCode":"NL","name":"Hoogezand-Sappemeer","stationCode":"HGZ","uicCode":"8400331"},{"coordinate":{"lat":53.1596122800056,"lng":6.8679141998291},"countryCode":"NL","name":"Zuidbroek","stationCode":"ZB","uicCode":"8400742"},{"coordinate":{"lat":53.1655362,"lng":6.9777775},"countryCode":"NL","name":"Scheemda","stationCode":"SDA","uicCode":"8400551"},{"coordinate":{"lat":53.1392377,"lng":7.035101},"countryCode":"NL","name":"Winschoten","stationCode":"WS","uicCode":"8400696"},{"coordinate":{"lat":53.1844,"lng":7.19937},"countryCode":"NL","name":"Bad Nieuweschans","stationCode":"NSCH","uicCode":"8400457"},{"coordinate":{"lat":53.16311,"lng":7.3442},"countryCode":"D","name":"Weener","stationCode":"WR","uicCode":"8021239"},{"coordinate":{"lat":53.23165,"lng":7.465283},"countryCode":"D","name":"Leer (Ostfriesl)","stationCode":"LEER","uicCode":"8021091"}],"direction":"BOTH","operators":["Arriva"]},"consequence":{"section":{"stations":[{"coordinate":{"lat":53.1844,"lng":7.19937},"countryCode":"NL","name":"Bad Nieuweschans","stationCode":"NSCH","uicCode":"8400457"},{"coordinate":{"lat":53.16311,"lng":7.3442},"countryCode":"D","name":"Weener","stationCode":"WR","uicCode":"8021239"}],"direction":"BOTH","operators":["Arriva"]},"description":"er rijden bussen","level":"LESS_TRAINS"},"sectionType":"NEIGHBORING_COUNTRY"}],"summaryAdditionalTravelTime":{"label":"De extra reistijd kan oplopen tot 30 minuten.","shortLabel":"Extra reistijd tot 30 min.","maximumDurationInMinutes":30},"timespans":[{"start":"2024-02-01T04:00:00+0100","end":"2025-08-24T23:59:00+0200","period":"Donderdag 1 februari 4:00 uur t/m zondag 24 augustus 2025 23:59 uur.","situation":{"label":"Door een aangepaste dienstregeling: tussen Bad Nieuweschans en Weener rijden er bussen."},"cause":{"label":"aangepaste dienstregeling"},"additionalTravelTime":{"label":"De extra reistijd kan oplopen tot 30 minuten.","shortLabel":"Extra reistijd tot 30 min.","maximumDurationInMinutes":30},"alternativeTransport":{"label":"er rijden stopbussen","shortLabel":"er rijden stopbussen"},"advices":["Op dit moment is er nog geen exacte einddatum bekend."]}],"alternativeTransportTimespans":[{"start":"2024-02-01T04:00:00+0100","end":"2025-08-24T23:59:00+0200","alternativeTransport":{"location":[{"station":{"coordinate":{"lat":53.1844,"lng":7.19937},"countryCode":"NL","name":"Bad Nieuweschans","stationCode":"NSCH","uicCode":"8400457"},"description":"vanaf de voorzijde van het station"},{"station":{"coordinate":{"lat":53.16311,"lng":7.3442},"countryCode":"D","name":"Weener","stationCode":"WR","uicCode":"8021239"},"description":"vanaf de voorzijde van het station"},{"station":{"coordinate":{"lat":53.23165,"lng":7.465283},"countryCode":"D","name":"Leer (Ostfriesl)","stationCode":"LEER","uicCode":"8021091"},"description":"vanaf het busstation"}],"label":"Er rijden stopbussen tussen Bad Nieuweschans, Weener en Leer (Ostfriesl).","shortLabel":"Er rijden stopbussen Bad Nieuweschans - Weener - Leer (Ostfr.)."}}]},{"type":"MAINTENANCE","id":"7005838","title":"Groningen - Bad Nieuweschans; Groningen - Veendam.","isActive":true,"local":false,"titleSections":[[{"type":"STATION","value":"Groningen"},{"type":"ICON","value":"MAINTENANCE"},{"type":"STATION","value":"Bad Nieuweschans"}],[{"type":"STATION","value":"Groningen"},{"type":"ICON","value":"MAINTENANCE"},{"type":"STATION","value":"Veendam"}]],"registrationTime":"2025-02-05T14:56:23+0100","start":"2025-02-15T00:15:00+0100","releaseTime":"2025-02-05T14:56:23+0100","end":"2025-02-24T02:00:00+0100","period":"Zaterdag 15 februari 0:15 uur t/m maandag 24 februari 2:00 uur.","impact":{"value":4},"publicationSections":[{"section":{"stations":[{"coordinate":{"lat":53.2105560302734,"lng":6.56472206115723},"countryCode":"NL","name":"Groningen","stationCode":"GN","uicCode":"8400263"},{"coordinate":{"lat":53.20480027,"lng":6.5854178},"countryCode":"NL","name":"Groningen Europapark","stationCode":"GERP","uicCode":"8400238"},{"coordinate":{"lat":53.1617362,"lng":6.7220882},"countryCode":"NL","name":"Kropswolde","stationCode":"KW","uicCode":"8400369"},{"coordinate":{"lat":53.1607232,"lng":6.7402989},"countryCode":"NL","name":"Martenshoek","stationCode":"MTH","uicCode":"8400430"},{"coordinate":{"lat":53.1598181316756,"lng":6.77075386047363},"countryCode":"NL","name":"Hoogezand-Sappemeer","stationCode":"HGZ","uicCode":"8400331"},{"coordinate":{"lat":53.1596122800056,"lng":6.8679141998291},"countryCode":"NL","name":"Zuidbroek","stationCode":"ZB","uicCode":"8400742"},{"coordinate":{"lat":53.1655362,"lng":6.9777775},"countryCode":"NL","name":"Scheemda","stationCode":"SDA","uicCode":"8400551"},{"coordinate":{"lat":53.1392377,"lng":7.035101},"countryCode":"NL","name":"Winschoten","stationCode":"WS","uicCode":"8400696"},{"coordinate":{"lat":53.1844,"lng":7.19937},"countryCode":"NL","name":"Bad Nieuweschans","stationCode":"NSCH","uicCode":"8400457"}],"direction":"BOTH","operators":["Arriva"]},"consequence":{"section":{"stations":[{"coordinate":{"lat":53.2105560302734,"lng":6.56472206115723},"countryCode":"NL","name":"Groningen","stationCode":"GN","uicCode":"8400263"},{"coordinate":{"lat":53.20480027,"lng":6.5854178},"countryCode":"NL","name":"Groningen Europapark","stationCode":"GERP","uicCode":"8400238"},{"coordinate":{"lat":53.1617362,"lng":6.7220882},"countryCode":"NL","name":"Kropswolde","stationCode":"KW","uicCode":"8400369"},{"coordinate":{"lat":53.1607232,"lng":6.7402989},"countryCode":"NL","name":"Martenshoek","stationCode":"MTH","uicCode":"8400430"},{"coordinate":{"lat":53.1598181316756,"lng":6.77075386047363},"countryCode":"NL","name":"Hoogezand-Sappemeer","stationCode":"HGZ","uicCode":"8400331"},{"coordinate":{"lat":53.1596122800056,"lng":6.8679141998291},"countryCode":"NL","name":"Zuidbroek","stationCode":"ZB","uicCode":"8400742"},{"coordinate":{"lat":53.1655362,"lng":6.9777775},"countryCode":"NL","name":"Scheemda","stationCode":"SDA","uicCode":"8400551"},{"coordinate":{"lat":53.1392377,"lng":7.035101},"countryCode":"NL","name":"Winschoten","stationCode":"WS","uicCode":"8400696"},{"coordinate":{"lat":53.1844,"lng":7.19937},"countryCode":"NL","name":"Bad Nieuweschans","stationCode":"NSCH","uicCode":"8400457"}],"direction":"BOTH","operators":["Arriva"]},"description":"er rijden bussen","level":"LESS_TRAINS"},"sectionType":"NL"},{"section":{"stations":[{"coordinate":{"lat":53.2105560302734,"lng":6.56472206115723},"countryCode":"NL","name":"Groningen","stationCode":"GN","uicCode":"8400263"},{"coordinate":{"lat":53.20480027,"lng":6.5854178},"countryCode":"NL","name":"Groningen Europapark","stationCode":"GERP","uicCode":"8400238"},{"coordinate":{"lat":53.1617362,"lng":6.7220882},"countryCode":"NL","name":"Kropswolde","stationCode":"KW","uicCode":"8400369"},{"coordinate":{"lat":53.1607232,"lng":6.7402989},"countryCode":"NL","name":"Martenshoek","stationCode":"MTH","uicCode":"8400430"},{"coordinate":{"lat":53.1598181316756,"lng":6.77075386047363},"countryCode":"NL","name":"Hoogezand-Sappemeer","stationCode":"HGZ","uicCode":"8400331"},{"coordinate":{"lat":53.1596122800056,"lng":6.8679141998291},"countryCode":"NL","name":"Zuidbroek","stationCode":"ZB","uicCode":"8400742"},{"coordinate":{"lat":53.10324,"lng":6.88475},"countryCode":"NL","name":"Veendam","stationCode":"VDM","uicCode":"8400636"}],"direction":"BOTH","operators":["Arriva"]},"consequence":{"section":{"stations":[{"coordinate":{"lat":53.2105560302734,"lng":6.56472206115723},"countryCode":"NL","name":"Groningen","stationCode":"GN","uicCode":"8400263"},{"coordinate":{"lat":53.20480027,"lng":6.5854178},"countryCode":"NL","name":"Groningen Europapark","stationCode":"GERP","uicCode":"8400238"},{"coordinate":{"lat":53.1617362,"lng":6.7220882},"countryCode":"NL","name":"Kropswolde","stationCode":"KW","uicCode":"8400369"},{"coordinate":{"lat":53.1607232,"lng":6.7402989},"countryCode":"NL","name":"Martenshoek","stationCode":"MTH","uicCode":"8400430"},{"coordinate":{"lat":53.1598181316756,"lng":6.77075386047363},"countryCode":"NL","name":"Hoogezand-Sappemeer","stationCode":"HGZ","uicCode":"8400331"},{"coordinate":{"lat":53.1596122800056,"lng":6.8679141998291},"countryCode":"NL","name":"Zuidbroek","stationCode":"ZB","uicCode":"8400742"},{"coordinate":{"lat":53.10324,"lng":6.88475},"countryCode":"NL","name":"Veendam","stationCode":"VDM","uicCode":"8400636"}],"direction":"BOTH","operators":["Arriva"]},"description":"er rijden bussen","level":"LESS_TRAINS"},"sectionType":"NL"}],"summaryAdditionalTravelTime":{"label":"De extra reistijd ligt tussen 30 en 45 minuten.","shortLabel":"Extra reistijd: 30 - 45 min.","minimumDurationInMinutes":30,"maximumDurationInMinutes":45},"timespans":[{"start":"2025-02-15T00:15:00+0100","end":"2025-02-24T02:00:00+0100","period":"Zaterdag 15 februari 0:15 uur t/m maandag 24 februari 2:00 uur.","situation":{"label":"Door werkzaamheden: tussen Groningen en Bad Nieuweschans rijden er bussen en tussen Groningen en Veendam rijden er bussen."},"cause":{"label":"werkzaamheden"},"additionalTravelTime":{"label":"De extra reistijd ligt tussen 30 en 45 minuten.","shortLabel":"Extra reistijd: 30 - 45 min.","minimumDurationInMinutes":30,"maximumDurationInMinutes":45},"alternativeTransport":{"label":"er rijden stopbussen","shortLabel":"er rijden stopbussen"},"advices":["Van maandag 17 t/m vrijdag 21 februari rijden in de spitsuren ook Snelbussen Groningen-Scheemda-Winschoten."]}],"alternativeTransportTimespans":[{"start":"2025-02-15T00:15:00+0100","end":"2025-02-21T02:00:00+0100","alternativeTransport":{"location":[{"station":{"coordinate":{"lat":53.2105560302734,"lng":6.56472206115723},"countryCode":"NL","name":"Groningen","stationCode":"GN","uicCode":"8400263"},"description":"vanaf het busstation"},{"station":{"coordinate":{"lat":53.20480027,"lng":6.5854178},"countryCode":"NL","name":"Groningen Europapark","stationCode":"GERP","uicCode":"8400238"},"description":"volg de aanwijzingen op het station"},{"station":{"coordinate":{"lat":53.1617362,"lng":6.7220882},"countryCode":"NL","name":"Kropswolde","stationCode":"KW","uicCode":"8400369"},"description":"vanaf de provinciale weg"},{"station":{"coordinate":{"lat":53.1607232,"lng":6.7402989},"countryCode":"NL","name":"Martenshoek","stationCode":"MTH","uicCode":"8400430"},"description":"vanaf de bushalte"},{"station":{"coordinate":{"lat":53.1598181316756,"lng":6.77075386047363},"countryCode":"NL","name":"Hoogezand-Sappemeer","stationCode":"HGZ","uicCode":"8400331"},"description":"vanaf de voorzijde van het station"},{"station":{"coordinate":{"lat":53.1596122800056,"lng":6.8679141998291},"countryCode":"NL","name":"Zuidbroek","stationCode":"ZB","uicCode":"8400742"},"description":"vanaf de bushalte"},{"station":{"coordinate":{"lat":53.10324,"lng":6.88475},"countryCode":"NL","name":"Veendam","stationCode":"VDM","uicCode":"8400636"},"description":"vanaf de voorzijde van het station"}],"label":"Er rijden stopbussen tussen Groningen, Groningen Europapark, Kropswolde, Martenshoek, Hoogezand-Sappemeer, Zuidbroek en Veendam.","shortLabel":"Er rijden stopbussen Groningen - Europapark - Kropswolde - Martenshoek - Hoogezand-Sap. - Zuidbroek - Veendam."}},{"start":"2025-02-15T00:15:00+0100","end":"2025-02-21T02:00:00+0100","alternativeTransport":{"location":[{"station":{"coordinate":{"lat":53.2105560302734,"lng":6.56472206115723},"countryCode":"NL","name":"Groningen","stationCode":"GN","uicCode":"8400263"},"description":"vanaf het busstation"},{"station":{"coordinate":{"lat":53.20480027,"lng":6.5854178},"countryCode":"NL","name":"Groningen Europapark","stationCode":"GERP","uicCode":"8400238"},"description":"volg de aanwijzingen op het station"},{"station":{"coordinate":{"lat":53.1617362,"lng":6.7220882},"countryCode":"NL","name":"Kropswolde","stationCode":"KW","uicCode":"8400369"},"description":"vanaf de provinciale weg"},{"station":{"coordinate":{"lat":53.1607232,"lng":6.7402989},"countryCode":"NL","name":"Martenshoek","stationCode":"MTH","uicCode":"8400430"},"description":"vanaf de bushalte"},{"station":{"coordinate":{"lat":53.1598181316756,"lng":6.77075386047363},"countryCode":"NL","name":"Hoogezand-Sappemeer","stationCode":"HGZ","uicCode":"8400331"},"description":"vanaf de voorzijde van het station"},{"station":{"coordinate":{"lat":53.1596122800056,"lng":6.8679141998291},"countryCode":"NL","name":"Zuidbroek","stationCode":"ZB","uicCode":"8400742"},"description":"vanaf de bushalte"},{"station":{"coordinate":{"lat":53.1655362,"lng":6.9777775},"countryCode":"NL","name":"Scheemda","stationCode":"SDA","uicCode":"8400551"},"description":"vanaf de bushalte"},{"station":{"coordinate":{"lat":53.1392377,"lng":7.035101},"countryCode":"NL","name":"Winschoten","stationCode":"WS","uicCode":"8400696"},"description":"vanaf het busstation"},{"station":{"coordinate":{"lat":53.1844,"lng":7.19937},"countryCode":"NL","name":"Bad Nieuweschans","stationCode":"NSCH","uicCode":"8400457"},"description":"vanaf de voorzijde van het station"}],"label":"Er rijden stopbussen tussen Groningen, Groningen Europapark, Kropswolde, Martenshoek, Hoogezand-Sappemeer, Zuidbroek, Scheemda, Winschoten en Bad Nieuweschans.","shortLabel":"Er rijden stopbussen Groningen - Europapark - Kropswolde - Martenshoek - Hoogezand-Sap. - Zuidbroek - Scheemda - Winschoten - Bad Nieuweschans."}},{"start":"2025-02-21T04:00:00+0100","end":"2025-02-24T02:00:00+0100","alternativeTransport":{"location":[{"station":{"coordinate":{"lat":53.2105560302734,"lng":6.56472206115723},"countryCode":"NL","name":"Groningen","stationCode":"GN","uicCode":"8400263"},"description":"vanaf het busstation"},{"station":{"coordinate":{"lat":53.20480027,"lng":6.5854178},"countryCode":"NL","name":"Groningen Europapark","stationCode":"GERP","uicCode":"8400238"},"description":"volg de aanwijzingen op het station"},{"station":{"coordinate":{"lat":53.1617362,"lng":6.7220882},"countryCode":"NL","name":"Kropswolde","stationCode":"KW","uicCode":"8400369"},"description":"vanaf de provinciale weg"},{"station":{"coordinate":{"lat":53.1607232,"lng":6.7402989},"countryCode":"NL","name":"Martenshoek","stationCode":"MTH","uicCode":"8400430"},"description":"vanaf de bushalte"},{"station":{"coordinate":{"lat":53.1598181316756,"lng":6.77075386047363},"countryCode":"NL","name":"Hoogezand-Sappemeer","stationCode":"HGZ","uicCode":"8400331"},"description":"vanaf de voorzijde van het station"},{"station":{"coordinate":{"lat":53.1596122800056,"lng":6.8679141998291},"countryCode":"NL","name":"Zuidbroek","stationCode":"ZB","uicCode":"8400742"},"description":"vanaf de bushalte"},{"station":{"coordinate":{"lat":53.10324,"lng":6.88475},"countryCode":"NL","name":"Veendam","stationCode":"VDM","uicCode":"8400636"},"description":"vanaf de voorzijde van het station"}],"label":"Er rijden stopbussen tussen Groningen, Groningen Europapark, Kropswolde, Martenshoek, Hoogezand-Sappemeer, Zuidbroek en Veendam.","shortLabel":"Er rijden stopbussen Groningen - Europapark - Kropswolde - Martenshoek - Hoogezand-Sap. - Zuidbroek - Veendam."}},{"start":"2025-02-21T04:00:00+0100","end":"2025-02-24T02:00:00+0100","alternativeTransport":{"location":[{"station":{"coordinate":{"lat":53.2105560302734,"lng":6.56472206115723},"countryCode":"NL","name":"Groningen","stationCode":"GN","uicCode":"8400263"},"description":"vanaf het busstation"},{"station":{"coordinate":{"lat":53.20480027,"lng":6.5854178},"countryCode":"NL","name":"Groningen Europapark","stationCode":"GERP","uicCode":"8400238"},"description":"volg de aanwijzingen op het station"},{"station":{"coordinate":{"lat":53.1617362,"lng":6.7220882},"countryCode":"NL","name":"Kropswolde","stationCode":"KW","uicCode":"8400369"},"description":"vanaf de provinciale weg"},{"station":{"coordinate":{"lat":53.1607232,"lng":6.7402989},"countryCode":"NL","name":"Martenshoek","stationCode":"MTH","uicCode":"8400430"},"description":"vanaf de bushalte"},{"station":{"coordinate":{"lat":53.1598181316756,"lng":6.77075386047363},"countryCode":"NL","name":"Hoogezand-Sappemeer","stationCode":"HGZ","uicCode":"8400331"},"description":"vanaf de voorzijde van het station"},{"station":{"coordinate":{"lat":53.1596122800056,"lng":6.8679141998291},"countryCode":"NL","name":"Zuidbroek","stationCode":"ZB","uicCode":"8400742"},"description":"vanaf de bushalte"},{"station":{"coordinate":{"lat":53.1655362,"lng":6.9777775},"countryCode":"NL","name":"Scheemda","stationCode":"SDA","uicCode":"8400551"},"description":"vanaf de bushalte"},{"station":{"coordinate":{"lat":53.1392377,"lng":7.035101},"countryCode":"NL","name":"Winschoten","stationCode":"WS","uicCode":"8400696"},"description":"vanaf het busstation"},{"station":{"coordinate":{"lat":53.1844,"lng":7.19937},"countryCode":"NL","name":"Bad Nieuweschans","stationCode":"NSCH","uicCode":"8400457"},"description":"vanaf de voorzijde van het station"}],"label":"Er rijden stopbussen tussen Groningen, Groningen Europapark, Kropswolde, Martenshoek, Hoogezand-Sappemeer, Zuidbroek, Scheemda, Winschoten en Bad Nieuweschans.","shortLabel":"Er rijden stopbussen Groningen - Europapark - Kropswolde - Martenshoek - Hoogezand-Sap. - Zuidbroek - Scheemda - Winschoten - Bad Nieuweschans."}}]},{"type":"MAINTENANCE","id":"7005699","title":"Leiden - Den Haag; Den Haag - Rotterdam; Gouda - Den Haag.; Leiden - Den Haag.; Leiden - Den Haag HS","isActive":true,"local":false,"titleSections":[[{"type":"STATION","value":"Leiden C."},{"type":"STATION","value":"Laan v NOI"},{"type":"ICON","value":"MAINTENANCE"},{"type":"STATION","value":"Den Haag C."}],[{"type":"STATION","value":"Den Haag C."},{"type":"ICON","value":"MAINTENANCE"},{"type":"STATION","value":"Den Haag HS"},{"type":"STATION","value":"Rotterdam C."}],[{"type":"STATION","value":"Gouda"},{"type":"STATION","value":"Ypenburg"},{"type":"ICON","value":"MAINTENANCE"},{"type":"STATION","value":"Den Haag C."}],[{"type":"STATION","value":"Leiden C."},{"type":"STATION","value":"Mariahoeve"},{"type":"ICON","value":"MAINTENANCE"},{"type":"STATION","value":"Den Haag HS"}]],"registrationTime":"2025-02-17T08:42:53+0100","start":"2025-02-15T01:00:00+0100","releaseTime":"2025-02-17T08:42:53+0100","end":"2025-03-03T02:00:00+0100","period":"Zaterdag 15 februari 1:00 uur t/m maandag 3 maart 2:00 uur.","impact":{"value":5},"publicationSections":[{"section":{"stations":[{"coordinate":{"lat":52.1661109924316,"lng":4.48166656494141},"countryCode":"NL","name":"Leiden Centraal","stationCode":"LEDN","uicCode":"8400390"},{"coordinate":{"lat":52.1472206115723,"lng":4.4563889503479},"countryCode":"NL","name":"De Vink","stationCode":"DVNK","uicCode":"8400188"},{"coordinate":{"lat":52.1252784729004,"lng":4.43249988555908},"countryCode":"NL","name":"Voorschoten","stationCode":"VST","uicCode":"8400659"},{"coordinate":{"lat":52.0905570983887,"lng":4.36944437026978},"countryCode":"NL","name":"Den Haag Mariahoeve","stationCode":"GVM","uicCode":"8400278"},{"coordinate":{"lat":52.0786094665527,"lng":4.34277772903442},"countryCode":"NL","name":"Den Haag Laan v NOI","stationCode":"LAA","uicCode":"8400380"},{"coordinate":{"lat":52.0802764892578,"lng":4.32499980926514},"countryCode":"NL","name":"Den Haag Centraal","stationCode":"GVC","uicCode":"8400282"}],"direction":"BOTH","operators":["NS"]},"consequence":{"section":{"stations":[{"coordinate":{"lat":52.0786094665527,"lng":4.34277772903442},"countryCode":"NL","name":"Den Haag Laan v NOI","stationCode":"LAA","uicCode":"8400380"},{"coordinate":{"lat":52.0802764892578,"lng":4.32499980926514},"countryCode":"NL","name":"Den Haag Centraal","stationCode":"GVC","uicCode":"8400282"}],"direction":"BOTH","operators":["NS"]},"description":"geen treinen","level":"LESS_TRAINS"},"sectionType":"NL"},{"section":{"stations":[{"coordinate":{"lat":52.0802764892578,"lng":4.32499980926514},"countryCode":"NL","name":"Den Haag Centraal","stationCode":"GVC","uicCode":"8400282"},{"coordinate":{"lat":52.0697212219238,"lng":4.32250022888184},"countryCode":"NL","name":"Den Haag HS","stationCode":"GV","uicCode":"8400280"},{"coordinate":{"lat":52.0538902282715,"lng":4.3086109161377},"countryCode":"NL","name":"Den Haag Moerwijk","stationCode":"GVMW","uicCode":"8400279"},{"coordinate":{"lat":52.039722442627,"lng":4.31916666030884},"countryCode":"NL","name":"Rijswijk","stationCode":"RSW","uicCode":"8400505"},{"coordinate":{"lat":52.0066680908203,"lng":4.35638904571533},"countryCode":"NL","name":"Delft","stationCode":"DT","uicCode":"8400170"},{"coordinate":{"lat":51.9908332824707,"lng":4.36472225189209},"countryCode":"NL","name":"Delft Campus","stationCode":"DTCP","uicCode":"8400166"},{"coordinate":{"lat":51.9212438128032,"lng":4.4089937210083},"countryCode":"NL","name":"Schiedam Centrum","stationCode":"SDM","uicCode":"8400553"},{"coordinate":{"lat":51.9249992370605,"lng":4.46888875961304},"countryCode":"NL","name":"Rotterdam Centraal","stationCode":"RTD","uicCode":"8400530"}],"direction":"BOTH","operators":["Ret"]},"consequence":{"section":{"stations":[{"coordinate":{"lat":52.0802764892578,"lng":4.32499980926514},"countryCode":"NL","name":"Den Haag Centraal","stationCode":"GVC","uicCode":"8400282"},{"coordinate":{"lat":52.0697212219238,"lng":4.32250022888184},"countryCode":"NL","name":"Den Haag HS","stationCode":"GV","uicCode":"8400280"}],"direction":"BOTH","operators":["Ret"]},"description":"geen treinen","level":"LESS_TRAINS"},"sectionType":"NL"},{"section":{"stations":[{"coordinate":{"lat":52.0175018310547,"lng":4.70444440841675},"countryCode":"NL","name":"Gouda","stationCode":"GD","uicCode":"8400258"},{"coordinate":{"lat":52.042222,"lng":4.517222},"countryCode":"NL","name":"Lansingerland-Zoetermeer","stationCode":"LLZM","uicCode":"8400135"},{"coordinate":{"lat":52.0463905334473,"lng":4.49277782440186},"countryCode":"NL","name":"Zoetermeer Oost","stationCode":"ZTMO","uicCode":"8400740"},{"coordinate":{"lat":52.0475006103516,"lng":4.47722244262695},"countryCode":"NL","name":"Zoetermeer","stationCode":"ZTM","uicCode":"8400741"},{"coordinate":{"lat":52.0552787780762,"lng":4.39222240447998},"countryCode":"NL","name":"Den Haag Ypenburg","stationCode":"YPB","uicCode":"8400379"},{"coordinate":{"lat":52.0666656494141,"lng":4.3594446182251},"countryCode":"NL","name":"Voorburg","stationCode":"VB","uicCode":"8400658"},{"coordinate":{"lat":52.0802764892578,"lng":4.32499980926514},"countryCode":"NL","name":"Den Haag Centraal","stationCode":"GVC","uicCode":"8400282"}],"direction":"BOTH","operators":["NS"]},"consequence":{"section":{"stations":[{"coordinate":{"lat":52.0552787780762,"lng":4.39222240447998},"countryCode":"NL","name":"Den Haag Ypenburg","stationCode":"YPB","uicCode":"8400379"},{"coordinate":{"lat":52.0666656494141,"lng":4.3594446182251},"countryCode":"NL","name":"Voorburg","stationCode":"VB","uicCode":"8400658"},{"coordinate":{"lat":52.0802764892578,"lng":4.32499980926514},"countryCode":"NL","name":"Den Haag Centraal","stationCode":"GVC","uicCode":"8400282"}],"direction":"BOTH","operators":["NS"]},"description":"er rijden bussen","level":"LESS_TRAINS"},"sectionType":"NL"},{"section":{"stations":[{"coordinate":{"lat":52.1661109924316,"lng":4.48166656494141},"countryCode":"NL","name":"Leiden Centraal","stationCode":"LEDN","uicCode":"8400390"},{"coordinate":{"lat":52.1472206115723,"lng":4.4563889503479},"countryCode":"NL","name":"De Vink","stationCode":"DVNK","uicCode":"8400188"},{"coordinate":{"lat":52.1252784729004,"lng":4.43249988555908},"countryCode":"NL","name":"Voorschoten","stationCode":"VST","uicCode":"8400659"},{"coordinate":{"lat":52.0905570983887,"lng":4.36944437026978},"countryCode":"NL","name":"Den Haag Mariahoeve","stationCode":"GVM","uicCode":"8400278"},{"coordinate":{"lat":52.0786094665527,"lng":4.34277772903442},"countryCode":"NL","name":"Den Haag Laan v NOI","stationCode":"LAA","uicCode":"8400380"},{"coordinate":{"lat":52.0697212219238,"lng":4.32250022888184},"countryCode":"NL","name":"Den Haag HS","stationCode":"GV","uicCode":"8400280"}],"direction":"BOTH","operators":["NS"]},"consequence":{"section":{"stations":[{"coordinate":{"lat":52.0905570983887,"lng":4.36944437026978},"countryCode":"NL","name":"Den Haag Mariahoeve","stationCode":"GVM","uicCode":"8400278"},{"coordinate":{"lat":52.0786094665527,"lng":4.34277772903442},"countryCode":"NL","name":"Den Haag Laan v NOI","stationCode":"LAA","uicCode":"8400380"},{"coordinate":{"lat":52.0697212219238,"lng":4.32250022888184},"countryCode":"NL","name":"Den Haag HS","stationCode":"GV","uicCode":"8400280"}],"direction":"BOTH","operators":["NS"]},"description":"er rijden bussen","level":"LESS_TRAINS"},"sectionType":"NL"},{"section":{"stations":[{"coordinate":{"lat":52.0802764892578,"lng":4.32499980926514},"countryCode":"NL","name":"Den Haag Centraal","stationCode":"GVC","uicCode":"8400282"},{"coordinate":{"lat":52.0697212219238,"lng":4.32250022888184},"countryCode":"NL","name":"Den Haag HS","stationCode":"GV","uicCode":"8400280"},{"coordinate":{"lat":52.0538902282715,"lng":4.3086109161377},"countryCode":"NL","name":"Den Haag Moerwijk","stationCode":"GVMW","uicCode":"8400279"},{"coordinate":{"lat":52.039722442627,"lng":4.31916666030884},"countryCode":"NL","name":"Rijswijk","stationCode":"RSW","uicCode":"8400505"},{"coordinate":{"lat":52.0066680908203,"lng":4.35638904571533},"countryCode":"NL","name":"Delft","stationCode":"DT","uicCode":"8400170"},{"coordinate":{"lat":51.9908332824707,"lng":4.36472225189209},"countryCode":"NL","name":"Delft Campus","stationCode":"DTCP","uicCode":"8400166"},{"coordinate":{"lat":51.9212438128032,"lng":4.4089937210083},"countryCode":"NL","name":"Schiedam Centrum","stationCode":"SDM","uicCode":"8400553"},{"coordinate":{"lat":51.9249992370605,"lng":4.46888875961304},"countryCode":"NL","name":"Rotterdam Centraal","stationCode":"RTD","uicCode":"8400530"}],"direction":"BOTH","operators":["Ret"]},"consequence":{"section":{"stations":[{"coordinate":{"lat":52.0802764892578,"lng":4.32499980926514},"countryCode":"NL","name":"Den Haag Centraal","stationCode":"GVC","uicCode":"8400282"},{"coordinate":{"lat":52.0697212219238,"lng":4.32250022888184},"countryCode":"NL","name":"Den Haag HS","stationCode":"GV","uicCode":"8400280"}],"direction":"BOTH","operators":["Ret"]},"description":"er rijden bussen","level":"LESS_TRAINS"},"sectionType":"NL"}],"summaryAdditionalTravelTime":{"label":"De extra reistijd kan oplopen tot 30 minuten.","shortLabel":"Extra reistijd tot 30 min.","maximumDurationInMinutes":30},"timespans":[{"start":"2025-02-17T04:00:00+0100","end":"2025-02-22T01:00:00+0100","period":"Maandag 17 februari 4:00 uur t/m zaterdag 22 februari 1:00 uur.","situation":{"label":"Door werkzaamheden: tussen Den Haag Laan v NOI en Den Haag Centraal rijden er geen treinen."},"cause":{"label":"werkzaamheden"},"additionalTravelTime":{"label":"De extra reistijd is ongeveer 15 minuten.","shortLabel":"Extra reistijd 15 min.","minimumDurationInMinutes":15,"maximumDurationInMinutes":15},"advices":["Tussen Leiden Centraal en Den Haag HS rijden Intercity's en Sprinters in een aangepaste dienstregeling.","Tussen Den Haag C. en Laan v NOI/Leiden C. reis via Den Haag HS."]},{"start":"2025-02-22T01:00:00+0100","end":"2025-02-22T09:00:00+0100","period":"Zaterdag 22 februari 1:00 uur t/m zaterdag 22 februari 9:00 uur.","situation":{"label":"Door werkzaamheden: tussen Den Haag Mariahoeve en Den Haag HS rijden er bussen en tussen Den Haag Laan v NOI en Den Haag Centraal rijden er geen treinen en tussen Den Haag Centraal en Den Haag HS rijden er geen treinen en tussen Den Haag Ypenburg en Den Haag Centraal rijden er bussen."},"cause":{"label":"werkzaamheden"},"additionalTravelTime":{"label":"De extra reistijd kan oplopen tot 30 minuten.","shortLabel":"Extra reistijd tot 30 min.","maximumDurationInMinutes":30},"alternativeTransport":{"label":"maak gebruik van het vervangende vervoer","shortLabel":"gebruik het vervangende vervoer"},"advices":["Nachtnet: Snelbussen tussen Leiden C en Den Haag HS. Daarna tot ongeveer 9 uur stopbussen Mariahoeve- Laan v NOI- Den Haag HS/Centraal."]},{"start":"2025-02-22T09:00:00+0100","end":"2025-02-23T01:00:00+0100","period":"Zaterdag 22 februari 9:00 uur t/m zondag 23 februari 1:00 uur.","situation":{"label":"Door werkzaamheden: tussen Den Haag Laan v NOI en Den Haag Centraal rijden er geen treinen en tussen Den Haag Centraal en Den Haag HS rijden er geen treinen en tussen Den Haag Ypenburg en Den Haag Centraal rijden er bussen."},"cause":{"label":"werkzaamheden"},"additionalTravelTime":{"label":"De extra reistijd kan oplopen tot 30 minuten.","shortLabel":"Extra reistijd tot 30 min.","maximumDurationInMinutes":30},"alternativeTransport":{"label":"maak gebruik van het vervangende vervoer","shortLabel":"gebruik het vervangende vervoer"},"advices":["Den Haag Centraal is alleen bereikbaar vanaf Laan van NOI met metrolijn E, of met de NS-bus vanaf Ypenburg. NS-vervoerbewijs is geldig.","Tussen Den Haag C. en Den Haag HS/Delft reis via Laan v NOI."]},{"start":"2025-02-23T01:00:00+0100","end":"2025-02-23T09:00:00+0100","period":"Zondag 23 februari 1:00 uur t/m zondag 23 februari 9:00 uur.","situation":{"label":"Door werkzaamheden: tussen Den Haag Mariahoeve en Den Haag HS rijden er bussen en tussen Den Haag Laan v NOI en Den Haag Centraal rijden er geen treinen en tussen Den Haag Centraal en Den Haag HS rijden er bussen en tussen Den Haag Ypenburg en Den Haag Centraal rijden er bussen."},"cause":{"label":"werkzaamheden"},"additionalTravelTime":{"label":"De extra reistijd ligt tussen 15 en 30 minuten.","shortLabel":"Extra reistijd: 15 - 30 min.","minimumDurationInMinutes":15,"maximumDurationInMinutes":30},"alternativeTransport":{"label":"er rijden stopbussen","shortLabel":"er rijden stopbussen"},"advices":["Nachtnet: Snelbussen tussen Leiden C en Den Haag HS. Daarna tot ongeveer 9 uur stopbussen Mariahoeve- Laan v NOI- Den Haag HS/Centraal."]},{"start":"2025-02-23T09:00:00+0100","end":"2025-03-01T02:00:00+0100","period":"Zondag 23 februari 9:00 uur t/m zaterdag 1 maart 2:00 uur.","situation":{"label":"Door werkzaamheden: tussen Den Haag Laan v NOI en Den Haag Centraal rijden er geen treinen."},"cause":{"label":"werkzaamheden"},"additionalTravelTime":{"label":"De extra reistijd is ongeveer 15 minuten.","shortLabel":"Extra reistijd 15 min.","minimumDurationInMinutes":15,"maximumDurationInMinutes":15},"alternativeTransport":{"label":"er rijden snelbussen","shortLabel":"er rijden snelbussen"},"advices":["Tussen Leiden Centraal en Den Haag HS rijden Intercity's en Sprinters in een aangepaste dienstregeling.","Tussen Den Haag C. en Laan v NOI reis via Den Haag HS."]},{"start":"2025-03-01T04:00:00+0100","end":"2025-03-03T02:00:00+0100","period":"Zaterdag 1 maart 4:00 uur t/m maandag 3 maart 2:00 uur.","situation":{"label":"Door werkzaamheden: tussen Den Haag Centraal en Den Haag HS rijden er geen treinen en tussen Den Haag Laan v NOI en Den Haag Centraal rijden er geen treinen en tussen Den Haag Ypenburg en Den Haag Centraal rijden er bussen."},"cause":{"label":"werkzaamheden"},"additionalTravelTime":{"label":"De extra reistijd kan oplopen tot 30 minuten.","shortLabel":"Extra reistijd tot 30 min.","maximumDurationInMinutes":30},"alternativeTransport":{"label":"maak gebruik van het vervangende vervoer","shortLabel":"gebruik het vervangende vervoer"},"advices":["Den Haag Centraal is alleen bereikbaar vanaf Laan van NOI met metrolijn E, of met de NS-bus vanaf Ypenburg. NS-vervoerbewijs is geldig.","Tussen Den Haag C. en Den Haag HS/Delft reis via Laan v NOI."]}],"alternativeTransportTimespans":[{"start":"2025-02-15T01:00:00+0100","end":"2025-02-15T01:30:00+0100","alternativeTransport":{"location":[{"station":{"coordinate":{"lat":52.0552787780762,"lng":4.39222240447998},"countryCode":"NL","name":"Den Haag Ypenburg","stationCode":"YPB","uicCode":"8400379"},"description":"vanaf de voorzijde van het station"},{"station":{"coordinate":{"lat":52.0666656494141,"lng":4.3594446182251},"countryCode":"NL","name":"Voorburg","stationCode":"VB","uicCode":"8400658"},"description":"onder het spoorviaduct"},{"station":{"coordinate":{"lat":52.0802764892578,"lng":4.32499980926514},"countryCode":"NL","name":"Den Haag Centraal","stationCode":"GVC","uicCode":"8400282"},"description":"volg de aanwijzingen op het station"}],"label":"Er rijden stopbussen van Den Haag Ypenburg, Voorburg naar Den Haag Centraal.","shortLabel":"Er rijden stopbussen Ypenburg -> Voorburg -> Den Haag C."}},{"start":"2025-02-15T01:00:00+0100","end":"2025-02-15T01:30:00+0100","alternativeTransport":{"location":[{"station":{"coordinate":{"lat":52.0175018310547,"lng":4.70444440841675},"countryCode":"NL","name":"Gouda","stationCode":"GD","uicCode":"8400258"},"description":"vanaf de Bloemendaalzijde"},{"station":{"coordinate":{"lat":52.0802764892578,"lng":4.32499980926514},"countryCode":"NL","name":"Den Haag Centraal","stationCode":"GVC","uicCode":"8400282"},"description":"volg de aanwijzingen op het station"}],"label":"Er rijden snelbussen van Gouda naar Den Haag Centraal.","shortLabel":"Er rijden snelbussen Gouda -> Den Haag C."}},{"start":"2025-02-15T01:00:00+0100","end":"2025-02-15T01:30:00+0100","alternativeTransport":{"location":[{"station":{"coordinate":{"lat":52.0802764892578,"lng":4.32499980926514},"countryCode":"NL","name":"Den Haag Centraal","stationCode":"GVC","uicCode":"8400282"},"description":"vanaf het busplatform"},{"station":{"coordinate":{"lat":52.0175018310547,"lng":4.70444440841675},"countryCode":"NL","name":"Gouda","stationCode":"GD","uicCode":"8400258"},"description":"vanaf de Bloemendaalzijde"},{"station":{"coordinate":{"lat":52.0888900756836,"lng":5.11027765274048},"countryCode":"NL","name":"Utrecht Centraal","stationCode":"UT","uicCode":"8400621"},"description":"volg de aanwijzingen op het station"}],"label":"Er rijden snelbussen van Den Haag Centraal, Gouda naar Utrecht Centraal.","shortLabel":"Er rijden snelbussen Den Haag C. -> Gouda -> Utrecht C."}},{"start":"2025-02-15T01:00:00+0100","end":"2025-02-15T06:50:00+0100","alternativeTransport":{"location":[{"station":{"coordinate":{"lat":52.0697212219238,"lng":4.32250022888184},"countryCode":"NL","name":"Den Haag HS","stationCode":"GV","uicCode":"8400280"},"description":"vanaf de achterzijde van het station"},{"station":{"coordinate":{"lat":52.0802764892578,"lng":4.32499980926514},"countryCode":"NL","name":"Den Haag Centraal","stationCode":"GVC","uicCode":"8400282"},"description":"volg de aanwijzingen op het station"}],"label":"Er rijden stopbussen van Den Haag HS naar Den Haag Centraal.","shortLabel":"Er rijden stopbussen Den Haag HS -> Den Haag C."}},{"start":"2025-02-15T02:00:00+0100","end":"2025-02-15T02:45:00+0100","alternativeTransport":{"location":[{"station":{"coordinate":{"lat":52.1661109924316,"lng":4.48166656494141},"countryCode":"NL","name":"Leiden Centraal","stationCode":"LEDN","uicCode":"8400390"},"description":"vanaf het stadsbusstation"},{"station":{"coordinate":{"lat":52.0697212219238,"lng":4.32250022888184},"countryCode":"NL","name":"Den Haag HS","stationCode":"GV","uicCode":"8400280"},"description":"vanaf de achterzijde van het station"}],"label":"Er rijden snelbussen tussen Leiden Centraal en Den Haag HS.","shortLabel":"Er rijden snelbussen Leiden C. - Den Haag HS."}},{"start":"2025-02-15T04:00:00+0100","end":"2025-02-17T02:00:00+0100","alternativeTransport":{"location":[{"station":{"coordinate":{"lat":52.0802764892578,"lng":4.32499980926514},"countryCode":"NL","name":"Den Haag Centraal","stationCode":"GVC","uicCode":"8400282"},"description":"volg de aanwijzingen op het station"},{"station":{"coordinate":{"lat":52.0786094665527,"lng":4.34277772903442},"countryCode":"NL","name":"Den Haag Laan v NOI","stationCode":"LAA","uicCode":"8400380"},"description":"volg de aanwijzingen op het station"}],"label":"Maak gebruik van de Rotterdamse metro tussen Den Haag Centraal en Den Haag Laan v NOI.","shortLabel":"Gebruik de Rotterdamse metro Den Haag C. - Laan v NOI."}},{"start":"2025-02-15T04:00:00+0100","end":"2025-02-17T02:00:00+0100","alternativeTransport":{"location":[{"station":{"coordinate":{"lat":52.0802764892578,"lng":4.32499980926514},"countryCode":"NL","name":"Den Haag Centraal","stationCode":"GVC","uicCode":"8400282"},"description":"vanaf het busplatform"},{"station":{"coordinate":{"lat":52.0666656494141,"lng":4.3594446182251},"countryCode":"NL","name":"Voorburg","stationCode":"VB","uicCode":"8400658"},"description":"onder het spoorviaduct"},{"station":{"coordinate":{"lat":52.0552787780762,"lng":4.39222240447998},"countryCode":"NL","name":"Den Haag Ypenburg","stationCode":"YPB","uicCode":"8400379"},"description":"vanaf de voorzijde van het station"}],"label":"Er rijden stopbussen tussen Den Haag Centraal, Voorburg en Den Haag Ypenburg.","shortLabel":"Er rijden stopbussen Den Haag C. - Voorburg - Ypenburg."}},{"start":"2025-02-15T04:30:00+0100","end":"2025-02-15T06:45:00+0100","alternativeTransport":{"location":[{"station":{"coordinate":{"lat":52.0802764892578,"lng":4.32499980926514},"countryCode":"NL","name":"Den Haag Centraal","stationCode":"GVC","uicCode":"8400282"},"description":"vanaf het busplatform"},{"station":{"coordinate":{"lat":52.0697212219238,"lng":4.32250022888184},"countryCode":"NL","name":"Den Haag HS","stationCode":"GV","uicCode":"8400280"},"description":"volg de aanwijzingen op het station"}],"label":"Er rijden stopbussen van Den Haag Centraal naar Den Haag HS.","shortLabel":"Er rijden stopbussen Den Haag C. -> Den Haag HS."}},{"start":"2025-02-15T04:30:00+0100","end":"2025-02-15T06:45:00+0100","alternativeTransport":{"location":[{"station":{"coordinate":{"lat":52.0802764892578,"lng":4.32499980926514},"countryCode":"NL","name":"Den Haag Centraal","stationCode":"GVC","uicCode":"8400282"},"description":"vanaf het busplatform"},{"station":{"coordinate":{"lat":52.0786094665527,"lng":4.34277772903442},"countryCode":"NL","name":"Den Haag Laan v NOI","stationCode":"LAA","uicCode":"8400380"},"description":"volg de aanwijzingen op het station"}],"label":"Er rijden stopbussen van Den Haag Centraal naar Den Haag Laan v NOI.","shortLabel":"Er rijden stopbussen Den Haag C. -> Laan v NOI."}},{"start":"2025-02-16T00:25:00+0100","end":"2025-02-16T07:40:00+0100","alternativeTransport":{"location":[{"station":{"coordinate":{"lat":52.0697212219238,"lng":4.32250022888184},"countryCode":"NL","name":"Den Haag HS","stationCode":"GV","uicCode":"8400280"},"description":"vanaf de achterzijde van het station"},{"station":{"coordinate":{"lat":52.0802764892578,"lng":4.32499980926514},"countryCode":"NL","name":"Den Haag Centraal","stationCode":"GVC","uicCode":"8400282"},"description":"volg de aanwijzingen op het station"}],"label":"Er rijden stopbussen van Den Haag HS naar Den Haag Centraal.","shortLabel":"Er rijden stopbussen Den Haag HS -> Den Haag C."}},{"start":"2025-02-16T00:30:00+0100","end":"2025-02-16T01:05:00+0100","alternativeTransport":{"location":[{"station":{"coordinate":{"lat":52.0802764892578,"lng":4.32499980926514},"countryCode":"NL","name":"Den Haag Centraal","stationCode":"GVC","uicCode":"8400282"},"description":"vanaf het busplatform"},{"station":{"coordinate":{"lat":52.0666656494141,"lng":4.3594446182251},"countryCode":"NL","name":"Voorburg","stationCode":"VB","uicCode":"8400658"},"description":"onder het spoorviaduct"},{"station":{"coordinate":{"lat":52.0552787780762,"lng":4.39222240447998},"countryCode":"NL","name":"Den Haag Ypenburg","stationCode":"YPB","uicCode":"8400379"},"description":"vanaf de voorzijde van het station"},{"station":{"coordinate":{"lat":52.0475006103516,"lng":4.47722244262695},"countryCode":"NL","name":"Zoetermeer","stationCode":"ZTM","uicCode":"8400741"},"description":"vanaf de Mahatma Gandhisingel"},{"station":{"coordinate":{"lat":52.0463905334473,"lng":4.49277782440186},"countryCode":"NL","name":"Zoetermeer Oost","stationCode":"ZTMO","uicCode":"8400740"},"description":"vanaf het busstation"},{"station":{"coordinate":{"lat":52.042222,"lng":4.517222},"countryCode":"NL","name":"Lansingerland-Zoetermeer","stationCode":"LLZM","uicCode":"8400135"},"description":"vanaf het busstation"},{"station":{"coordinate":{"lat":52.0175018310547,"lng":4.70444440841675},"countryCode":"NL","name":"Gouda","stationCode":"GD","uicCode":"8400258"},"description":"volg de aanwijzingen op het station"}],"label":"Er rijdt een bus van Den Haag Centraal, Voorburg, Den Haag Ypenburg, Zoetermeer, Zoetermeer Oost, Lansingerland-Zoetermeer naar Gouda.","shortLabel":"Er rijdt een bus Den Haag C. -> Voorburg -> Ypenburg -> Zoetermeer -> Zoetermeer Oost -> Lansingerland -> Gouda."}},{"start":"2025-02-16T01:00:00+0100","end":"2025-02-16T01:30:00+0100","alternativeTransport":{"location":[{"station":{"coordinate":{"lat":52.0175018310547,"lng":4.70444440841675},"countryCode":"NL","name":"Gouda","stationCode":"GD","uicCode":"8400258"},"description":"vanaf de Bloemendaalzijde"},{"station":{"coordinate":{"lat":52.0802764892578,"lng":4.32499980926514},"countryCode":"NL","name":"Den Haag Centraal","stationCode":"GVC","uicCode":"8400282"},"description":"volg de aanwijzingen op het station"}],"label":"Er rijden snelbussen van Gouda naar Den Haag Centraal.","shortLabel":"Er rijden snelbussen Gouda -> Den Haag C."}},{"start":"2025-02-16T01:00:00+0100","end":"2025-02-16T01:30:00+0100","alternativeTransport":{"location":[{"station":{"coordinate":{"lat":52.0802764892578,"lng":4.32499980926514},"countryCode":"NL","name":"Den Haag Centraal","stationCode":"GVC","uicCode":"8400282"},"description":"vanaf het busplatform"},{"station":{"coordinate":{"lat":52.0175018310547,"lng":4.70444440841675},"countryCode":"NL","name":"Gouda","stationCode":"GD","uicCode":"8400258"},"description":"vanaf de Bloemendaalzijde"},{"station":{"coordinate":{"lat":52.0888900756836,"lng":5.11027765274048},"countryCode":"NL","name":"Utrecht Centraal","stationCode":"UT","uicCode":"8400621"},"description":"volg de aanwijzingen op het station"}],"label":"Er rijden snelbussen van Den Haag Centraal, Gouda naar Utrecht Centraal.","shortLabel":"Er rijden snelbussen Den Haag C. -> Gouda -> Utrecht C."}},{"start":"2025-02-16T04:30:00+0100","end":"2025-02-16T07:45:00+0100","alternativeTransport":{"location":[{"station":{"coordinate":{"lat":52.0802764892578,"lng":4.32499980926514},"countryCode":"NL","name":"Den Haag Centraal","stationCode":"GVC","uicCode":"8400282"},"description":"vanaf het busplatform"},{"station":{"coordinate":{"lat":52.0786094665527,"lng":4.34277772903442},"countryCode":"NL","name":"Den Haag Laan v NOI","stationCode":"LAA","uicCode":"8400380"},"description":"volg de aanwijzingen op het station"}],"label":"Er rijden stopbussen van Den Haag Centraal naar Den Haag Laan v NOI.","shortLabel":"Er rijden stopbussen Den Haag C. -> Laan v NOI."}},{"start":"2025-02-22T01:00:00+0100","end":"2025-02-22T09:00:00+0100","alternativeTransport":{"location":[{"station":{"coordinate":{"lat":52.0802764892578,"lng":4.32499980926514},"countryCode":"NL","name":"Den Haag Centraal","stationCode":"GVC","uicCode":"8400282"},"description":"volg de aanwijzingen op het station"},{"station":{"coordinate":{"lat":52.0786094665527,"lng":4.34277772903442},"countryCode":"NL","name":"Den Haag Laan v NOI","stationCode":"LAA","uicCode":"8400380"},"description":"volg de aanwijzingen op het station"}],"label":"Maak gebruik van de Rotterdamse metro tussen Den Haag Centraal en Den Haag Laan v NOI.","shortLabel":"Gebruik de Rotterdamse metro Den Haag C. - Laan v NOI."}},{"start":"2025-02-22T01:00:00+0100","end":"2025-02-22T09:00:00+0100","alternativeTransport":{"location":[{"station":{"coordinate":{"lat":52.0802764892578,"lng":4.32499980926514},"countryCode":"NL","name":"Den Haag Centraal","stationCode":"GVC","uicCode":"8400282"},"description":"vanaf het busplatform"},{"station":{"coordinate":{"lat":52.0666656494141,"lng":4.3594446182251},"countryCode":"NL","name":"Voorburg","stationCode":"VB","uicCode":"8400658"},"description":"onder het spoorviaduct"},{"station":{"coordinate":{"lat":52.0552787780762,"lng":4.39222240447998},"countryCode":"NL","name":"Den Haag Ypenburg","stationCode":"YPB","uicCode":"8400379"},"description":"vanaf de voorzijde van het station"}],"label":"Er rijden stopbussen tussen Den Haag Centraal, Voorburg en Den Haag Ypenburg.","shortLabel":"Er rijden stopbussen Den Haag C. - Voorburg - Ypenburg."}},{"start":"2025-02-22T01:00:00+0100","end":"2025-02-22T09:00:00+0100","alternativeTransport":{"location":[{"station":{"coordinate":{"lat":52.0802764892578,"lng":4.32499980926514},"countryCode":"NL","name":"Den Haag Centraal","stationCode":"GVC","uicCode":"8400282"},"description":"vanaf het busplatform"},{"station":{"coordinate":{"lat":52.0786094665527,"lng":4.34277772903442},"countryCode":"NL","name":"Den Haag Laan v NOI","stationCode":"LAA","uicCode":"8400380"},"description":"vanaf de Anna van Hannoverstraat"},{"station":{"coordinate":{"lat":52.0905570983887,"lng":4.36944437026978},"countryCode":"NL","name":"Den Haag Mariahoeve","stationCode":"GVM","uicCode":"8400278"},"description":"vanaf de voorzijde van het station"}],"label":"Er rijden stopbussen tussen Den Haag Centraal, Den Haag Laan v NOI en Den Haag Mariahoeve.","shortLabel":"Er rijden stopbussen Den Haag C. - Laan v NOI - Mariahoeve."}},{"start":"2025-02-22T01:00:00+0100","end":"2025-02-22T09:00:00+0100","alternativeTransport":{"location":[{"station":{"coordinate":{"lat":52.0697212219238,"lng":4.32250022888184},"countryCode":"NL","name":"Den Haag HS","stationCode":"GV","uicCode":"8400280"},"description":"vanaf de achterzijde van het station"},{"station":{"coordinate":{"lat":52.0786094665527,"lng":4.34277772903442},"countryCode":"NL","name":"Den Haag Laan v NOI","stationCode":"LAA","uicCode":"8400380"},"description":"vanaf de Anna van Hannoverstraat"},{"station":{"coordinate":{"lat":52.0905570983887,"lng":4.36944437026978},"countryCode":"NL","name":"Den Haag Mariahoeve","stationCode":"GVM","uicCode":"8400278"},"description":"vanaf de voorzijde van het station"}],"label":"Er rijden stopbussen tussen Den Haag HS, Den Haag Laan v NOI en Den Haag Mariahoeve.","shortLabel":"Er rijden stopbussen Den Haag HS - Laan v NOI - Mariahoeve."}},{"start":"2025-02-22T09:00:00+0100","end":"2025-02-23T01:00:00+0100","alternativeTransport":{"location":[{"station":{"coordinate":{"lat":52.0802764892578,"lng":4.32499980926514},"countryCode":"NL","name":"Den Haag Centraal","stationCode":"GVC","uicCode":"8400282"},"description":"volg de aanwijzingen op het station"},{"station":{"coordinate":{"lat":52.0786094665527,"lng":4.34277772903442},"countryCode":"NL","name":"Den Haag Laan v NOI","stationCode":"LAA","uicCode":"8400380"},"description":"volg de aanwijzingen op het station"}],"label":"Maak gebruik van de Rotterdamse metro tussen Den Haag Centraal en Den Haag Laan v NOI.","shortLabel":"Gebruik de Rotterdamse metro Den Haag C. - Laan v NOI."}},{"start":"2025-02-22T09:00:00+0100","end":"2025-02-23T01:00:00+0100","alternativeTransport":{"location":[{"station":{"coordinate":{"lat":52.0802764892578,"lng":4.32499980926514},"countryCode":"NL","name":"Den Haag Centraal","stationCode":"GVC","uicCode":"8400282"},"description":"vanaf het busplatform"},{"station":{"coordinate":{"lat":52.0666656494141,"lng":4.3594446182251},"countryCode":"NL","name":"Voorburg","stationCode":"VB","uicCode":"8400658"},"description":"onder het spoorviaduct"},{"station":{"coordinate":{"lat":52.0552787780762,"lng":4.39222240447998},"countryCode":"NL","name":"Den Haag Ypenburg","stationCode":"YPB","uicCode":"8400379"},"description":"vanaf de voorzijde van het station"}],"label":"Er rijden stopbussen tussen Den Haag Centraal, Voorburg en Den Haag Ypenburg.","shortLabel":"Er rijden stopbussen Den Haag C. - Voorburg - Ypenburg."}},{"start":"2025-02-23T01:00:00+0100","end":"2025-02-23T09:00:00+0100","alternativeTransport":{"location":[{"station":{"coordinate":{"lat":52.0802764892578,"lng":4.32499980926514},"countryCode":"NL","name":"Den Haag Centraal","stationCode":"GVC","uicCode":"8400282"},"description":"vanaf het busplatform"},{"station":{"coordinate":{"lat":52.0786094665527,"lng":4.34277772903442},"countryCode":"NL","name":"Den Haag Laan v NOI","stationCode":"LAA","uicCode":"8400380"},"description":"vanaf de Anna van Hannoverstraat"},{"station":{"coordinate":{"lat":52.0905570983887,"lng":4.36944437026978},"countryCode":"NL","name":"Den Haag Mariahoeve","stationCode":"GVM","uicCode":"8400278"},"description":"vanaf de voorzijde van het station"}],"label":"Er rijden stopbussen tussen Den Haag Centraal, Den Haag Laan v NOI en Den Haag Mariahoeve.","shortLabel":"Er rijden stopbussen Den Haag C. - Laan v NOI - Mariahoeve."}},{"start":"2025-02-23T01:00:00+0100","end":"2025-02-23T09:00:00+0100","alternativeTransport":{"location":[{"station":{"coordinate":{"lat":52.0697212219238,"lng":4.32250022888184},"countryCode":"NL","name":"Den Haag HS","stationCode":"GV","uicCode":"8400280"},"description":"vanaf de achterzijde van het station"},{"station":{"coordinate":{"lat":52.0786094665527,"lng":4.34277772903442},"countryCode":"NL","name":"Den Haag Laan v NOI","stationCode":"LAA","uicCode":"8400380"},"description":"vanaf de Anna van Hannoverstraat"},{"station":{"coordinate":{"lat":52.0905570983887,"lng":4.36944437026978},"countryCode":"NL","name":"Den Haag Mariahoeve","stationCode":"GVM","uicCode":"8400278"},"description":"vanaf de voorzijde van het station"}],"label":"Er rijden stopbussen tussen Den Haag HS, Den Haag Laan v NOI en Den Haag Mariahoeve.","shortLabel":"Er rijden stopbussen Den Haag HS - Laan v NOI - Mariahoeve."}},{"start":"2025-03-01T01:00:00+0100","end":"2025-03-01T01:30:00+0100","alternativeTransport":{"location":[{"station":{"coordinate":{"lat":52.0175018310547,"lng":4.70444440841675},"countryCode":"NL","name":"Gouda","stationCode":"GD","uicCode":"8400258"},"description":"vanaf de Bloemendaalzijde"},{"station":{"coordinate":{"lat":52.0802764892578,"lng":4.32499980926514},"countryCode":"NL","name":"Den Haag Centraal","stationCode":"GVC","uicCode":"8400282"},"description":"volg de aanwijzingen op het station"}],"label":"Er rijden snelbussen van Gouda naar Den Haag Centraal.","shortLabel":"Er rijden snelbussen Gouda -> Den Haag C."}},{"start":"2025-03-01T01:00:00+0100","end":"2025-03-01T01:30:00+0100","alternativeTransport":{"location":[{"station":{"coordinate":{"lat":52.0802764892578,"lng":4.32499980926514},"countryCode":"NL","name":"Den Haag Centraal","stationCode":"GVC","uicCode":"8400282"},"description":"vanaf het busplatform"},{"station":{"coordinate":{"lat":52.0175018310547,"lng":4.70444440841675},"countryCode":"NL","name":"Gouda","stationCode":"GD","uicCode":"8400258"},"description":"vanaf de Bloemendaalzijde"},{"station":{"coordinate":{"lat":52.0888900756836,"lng":5.11027765274048},"countryCode":"NL","name":"Utrecht Centraal","stationCode":"UT","uicCode":"8400621"},"description":"volg de aanwijzingen op het station"}],"label":"Er rijden snelbussen van Den Haag Centraal, Gouda naar Utrecht Centraal.","shortLabel":"Er rijden snelbussen Den Haag C. -> Gouda -> Utrecht C."}},{"start":"2025-03-01T04:00:00+0100","end":"2025-03-03T02:00:00+0100","alternativeTransport":{"location":[{"station":{"coordinate":{"lat":52.0802764892578,"lng":4.32499980926514},"countryCode":"NL","name":"Den Haag Centraal","stationCode":"GVC","uicCode":"8400282"},"description":"volg de aanwijzingen op het station"},{"station":{"coordinate":{"lat":52.0786094665527,"lng":4.34277772903442},"countryCode":"NL","name":"Den Haag Laan v NOI","stationCode":"LAA","uicCode":"8400380"},"description":"volg de aanwijzingen op het station"}],"label":"Maak gebruik van de Rotterdamse metro tussen Den Haag Centraal en Den Haag Laan v NOI.","shortLabel":"Gebruik de Rotterdamse metro Den Haag C. - Laan v NOI."}},{"start":"2025-03-01T04:00:00+0100","end":"2025-03-03T02:00:00+0100","alternativeTransport":{"location":[{"station":{"coordinate":{"lat":52.0802764892578,"lng":4.32499980926514},"countryCode":"NL","name":"Den Haag Centraal","stationCode":"GVC","uicCode":"8400282"},"description":"vanaf het busplatform"},{"station":{"coordinate":{"lat":52.0666656494141,"lng":4.3594446182251},"countryCode":"NL","name":"Voorburg","stationCode":"VB","uicCode":"8400658"},"description":"onder het spoorviaduct"},{"station":{"coordinate":{"lat":52.0552787780762,"lng":4.39222240447998},"countryCode":"NL","name":"Den Haag Ypenburg","stationCode":"YPB","uicCode":"8400379"},"description":"vanaf de voorzijde van het station"}],"label":"Er rijden stopbussen tussen Den Haag Centraal, Voorburg en Den Haag Ypenburg.","shortLabel":"Er rijden stopbussen Den Haag C. - Voorburg - Ypenburg."}},{"start":"2025-03-01T04:30:00+0100","end":"2025-03-01T06:45:00+0100","alternativeTransport":{"location":[{"station":{"coordinate":{"lat":52.0802764892578,"lng":4.32499980926514},"countryCode":"NL","name":"Den Haag Centraal","stationCode":"GVC","uicCode":"8400282"},"description":"vanaf het busplatform"},{"station":{"coordinate":{"lat":52.0697212219238,"lng":4.32250022888184},"countryCode":"NL","name":"Den Haag HS","stationCode":"GV","uicCode":"8400280"},"description":"volg de aanwijzingen op het station"}],"label":"Er rijden stopbussen van Den Haag Centraal naar Den Haag HS.","shortLabel":"Er rijden stopbussen Den Haag C. -> Den Haag HS."}},{"start":"2025-03-01T04:30:00+0100","end":"2025-03-01T06:45:00+0100","alternativeTransport":{"location":[{"station":{"coordinate":{"lat":52.0802764892578,"lng":4.32499980926514},"countryCode":"NL","name":"Den Haag Centraal","stationCode":"GVC","uicCode":"8400282"},"description":"vanaf het busplatform"},{"station":{"coordinate":{"lat":52.0786094665527,"lng":4.34277772903442},"countryCode":"NL","name":"Den Haag Laan v NOI","stationCode":"LAA","uicCode":"8400380"},"description":"volg de aanwijzingen op het station"}],"label":"Er rijden stopbussen van Den Haag Centraal naar Den Haag Laan v NOI.","shortLabel":"Er rijden stopbussen Den Haag C. -> Laan v NOI."}},{"start":"2025-03-02T01:00:00+0100","end":"2025-03-02T01:30:00+0100","alternativeTransport":{"location":[{"station":{"coordinate":{"lat":52.0175018310547,"lng":4.70444440841675},"countryCode":"NL","name":"Gouda","stationCode":"GD","uicCode":"8400258"},"description":"vanaf de Bloemendaalzijde"},{"station":{"coordinate":{"lat":52.0802764892578,"lng":4.32499980926514},"countryCode":"NL","name":"Den Haag Centraal","stationCode":"GVC","uicCode":"8400282"},"description":"volg de aanwijzingen op het station"}],"label":"Er rijden snelbussen van Gouda naar Den Haag Centraal.","shortLabel":"Er rijden snelbussen Gouda -> Den Haag C."}},{"start":"2025-03-02T01:00:00+0100","end":"2025-03-02T01:30:00+0100","alternativeTransport":{"location":[{"station":{"coordinate":{"lat":52.0802764892578,"lng":4.32499980926514},"countryCode":"NL","name":"Den Haag Centraal","stationCode":"GVC","uicCode":"8400282"},"description":"vanaf het busplatform"},{"station":{"coordinate":{"lat":52.0175018310547,"lng":4.70444440841675},"countryCode":"NL","name":"Gouda","stationCode":"GD","uicCode":"8400258"},"description":"vanaf de Bloemendaalzijde"},{"station":{"coordinate":{"lat":52.0888900756836,"lng":5.11027765274048},"countryCode":"NL","name":"Utrecht Centraal","stationCode":"UT","uicCode":"8400621"},"description":"volg de aanwijzingen op het station"}],"label":"Er rijden snelbussen van Den Haag Centraal, Gouda naar Utrecht Centraal.","shortLabel":"Er rijden snelbussen Den Haag C. -> Gouda -> Utrecht C."}},{"start":"2025-03-02T04:30:00+0100","end":"2025-03-02T07:45:00+0100","alternativeTransport":{"location":[{"station":{"coordinate":{"lat":52.0802764892578,"lng":4.32499980926514},"countryCode":"NL","name":"Den Haag Centraal","stationCode":"GVC","uicCode":"8400282"},"description":"vanaf het busplatform"},{"station":{"coordinate":{"lat":52.0697212219238,"lng":4.32250022888184},"countryCode":"NL","name":"Den Haag HS","stationCode":"GV","uicCode":"8400280"},"description":"volg de aanwijzingen op het station"}],"label":"Er rijden stopbussen van Den Haag Centraal naar Den Haag HS.","shortLabel":"Er rijden stopbussen Den Haag C. -> Den Haag HS."}},{"start":"2025-03-02T04:30:00+0100","end":"2025-03-02T07:45:00+0100","alternativeTransport":{"location":[{"station":{"coordinate":{"lat":52.0802764892578,"lng":4.32499980926514},"countryCode":"NL","name":"Den Haag Centraal","stationCode":"GVC","uicCode":"8400282"},"description":"vanaf het busplatform"},{"station":{"coordinate":{"lat":52.0786094665527,"lng":4.34277772903442},"countryCode":"NL","name":"Den Haag Laan v NOI","stationCode":"LAA","uicCode":"8400380"},"description":"volg de aanwijzingen op het station"}],"label":"Er rijden stopbussen van Den Haag Centraal naar Den Haag Laan v NOI.","shortLabel":"Er rijden stopbussen Den Haag C. -> Laan v NOI."}},{"start":"2025-03-03T00:00:00+0100","end":"2025-03-03T01:50:00+0100","alternativeTransport":{"location":[{"station":{"coordinate":{"lat":52.0802764892578,"lng":4.32499980926514},"countryCode":"NL","name":"Den Haag Centraal","stationCode":"GVC","uicCode":"8400282"},"description":"vanaf het busplatform"},{"station":{"coordinate":{"lat":52.0697212219238,"lng":4.32250022888184},"countryCode":"NL","name":"Den Haag HS","stationCode":"GV","uicCode":"8400280"},"description":"volg de aanwijzingen op het station"}],"label":"Er rijden stopbussen van Den Haag Centraal naar Den Haag HS.","shortLabel":"Er rijden stopbussen Den Haag C. -> Den Haag HS."}},{"start":"2025-03-03T00:00:00+0100","end":"2025-03-03T01:50:00+0100","alternativeTransport":{"location":[{"station":{"coordinate":{"lat":52.0802764892578,"lng":4.32499980926514},"countryCode":"NL","name":"Den Haag Centraal","stationCode":"GVC","uicCode":"8400282"},"description":"vanaf het busplatform"},{"station":{"coordinate":{"lat":52.0786094665527,"lng":4.34277772903442},"countryCode":"NL","name":"Den Haag Laan v NOI","stationCode":"LAA","uicCode":"8400380"},"description":"volg de aanwijzingen op het station"}],"label":"Er rijden stopbussen van Den Haag Centraal naar Den Haag Laan v NOI.","shortLabel":"Er rijden stopbussen Den Haag C. -> Laan v NOI."}},{"start":"2025-03-03T00:00:00+0100","end":"2025-03-03T01:50:00+0100","alternativeTransport":{"location":[{"station":{"coordinate":{"lat":52.0175018310547,"lng":4.70444440841675},"countryCode":"NL","name":"Gouda","stationCode":"GD","uicCode":"8400258"},"description":"vanaf de Bloemendaalzijde"},{"station":{"coordinate":{"lat":52.042222,"lng":4.517222},"countryCode":"NL","name":"Lansingerland-Zoetermeer","stationCode":"LLZM","uicCode":"8400135"},"description":"vanaf het busstation"},{"station":{"coordinate":{"lat":52.0463905334473,"lng":4.49277782440186},"countryCode":"NL","name":"Zoetermeer Oost","stationCode":"ZTMO","uicCode":"8400740"},"description":"vanaf het busstation"},{"station":{"coordinate":{"lat":52.0475006103516,"lng":4.47722244262695},"countryCode":"NL","name":"Zoetermeer","stationCode":"ZTM","uicCode":"8400741"},"description":"vanaf de Mahatma Gandhisingel"},{"station":{"coordinate":{"lat":52.0552787780762,"lng":4.39222240447998},"countryCode":"NL","name":"Den Haag Ypenburg","stationCode":"YPB","uicCode":"8400379"},"description":"vanaf de voorzijde van het station"},{"station":{"coordinate":{"lat":52.0666656494141,"lng":4.3594446182251},"countryCode":"NL","name":"Voorburg","stationCode":"VB","uicCode":"8400658"},"description":"onder het spoorviaduct"},{"station":{"coordinate":{"lat":52.0802764892578,"lng":4.32499980926514},"countryCode":"NL","name":"Den Haag Centraal","stationCode":"GVC","uicCode":"8400282"},"description":"volg de aanwijzingen op het station"}],"label":"Er rijden stopbussen van Gouda, Lansingerland-Zoetermeer, Zoetermeer Oost, Zoetermeer, Den Haag Ypenburg, Voorburg naar Den Haag Centraal.","shortLabel":"Er rijden stopbussen Gouda -> Lansingerland -> Zoetermeer Oost -> Zoetermeer -> Ypenburg -> Voorburg -> Den Haag C."}}]},{"type":"MAINTENANCE","id":"7005886","title":"Zwolle - Groningen.","isActive":true,"local":false,"titleSections":[[{"type":"STATION","value":"Zwolle"},{"type":"STATION","value":"Hoogeveen"},{"type":"ICON","value":"MAINTENANCE"},{"type":"STATION","value":"Assen"},{"type":"STATION","value":"Groningen"}]],"registrationTime":"2025-02-17T08:28:14+0100","start":"2025-02-15T02:00:00+0100","releaseTime":"2025-02-17T08:28:14+0100","end":"2025-02-22T03:00:00+0100","period":"Zaterdag 15 februari 2:00 uur t/m zaterdag 22 februari 3:00 uur.","impact":{"value":5},"publicationSections":[{"section":{"stations":[{"coordinate":{"lat":52.5047225952148,"lng":6.09194421768188},"countryCode":"NL","name":"Zwolle","stationCode":"ZL","uicCode":"8400747"},{"coordinate":{"lat":52.6908340454102,"lng":6.19750022888184},"countryCode":"NL","name":"Meppel","stationCode":"MP","uicCode":"8400435"},{"coordinate":{"lat":52.7338905334473,"lng":6.47361087799072},"countryCode":"NL","name":"Hoogeveen","stationCode":"HGV","uicCode":"8400330"},{"coordinate":{"lat":52.8547210693359,"lng":6.52111101150513},"countryCode":"NL","name":"Beilen","stationCode":"BL","uicCode":"8400100"},{"coordinate":{"lat":52.9916648864746,"lng":6.57083320617676},"countryCode":"NL","name":"Assen","stationCode":"ASN","uicCode":"8400073"},{"coordinate":{"lat":53.1761093139648,"lng":6.61722230911255},"countryCode":"NL","name":"Haren","stationCode":"HRN","uicCode":"8400297"},{"coordinate":{"lat":53.20480027,"lng":6.5854178},"countryCode":"NL","name":"Groningen Europapark","stationCode":"GERP","uicCode":"8400238"},{"coordinate":{"lat":53.2105560302734,"lng":6.56472206115723},"countryCode":"NL","name":"Groningen","stationCode":"GN","uicCode":"8400263"}],"direction":"BOTH","operators":["NS"]},"consequence":{"section":{"stations":[{"coordinate":{"lat":52.7338905334473,"lng":6.47361087799072},"countryCode":"NL","name":"Hoogeveen","stationCode":"HGV","uicCode":"8400330"},{"coordinate":{"lat":52.8547210693359,"lng":6.52111101150513},"countryCode":"NL","name":"Beilen","stationCode":"BL","uicCode":"8400100"},{"coordinate":{"lat":52.9916648864746,"lng":6.57083320617676},"countryCode":"NL","name":"Assen","stationCode":"ASN","uicCode":"8400073"}],"direction":"BOTH","operators":["NS"]},"description":"er rijden bussen","level":"LESS_TRAINS"},"sectionType":"NL"}],"summaryAdditionalTravelTime":{"label":"De extra reistijd is ongeveer 30 minuten.","shortLabel":"Extra reistijd 30 min.","minimumDurationInMinutes":30,"maximumDurationInMinutes":30},"timespans":[{"start":"2025-02-15T02:00:00+0100","end":"2025-02-22T03:00:00+0100","period":"Zaterdag 15 februari 2:00 uur t/m zaterdag 22 februari 3:00 uur.","situation":{"label":"Door werkzaamheden: tussen Hoogeveen en Assen rijden er bussen."},"cause":{"label":"werkzaamheden"},"additionalTravelTime":{"label":"De extra reistijd is ongeveer 30 minuten.","shortLabel":"Extra reistijd 30 min.","minimumDurationInMinutes":30,"maximumDurationInMinutes":30},"alternativeTransport":{"label":"maak gebruik van het vervangende vervoer","shortLabel":"gebruik het vervangende vervoer"},"advices":["Reis tussen Hoogeveen en Groningen met een directe Snelbus."]}],"alternativeTransportTimespans":[{"start":"2025-02-15T02:00:00+0100","end":"2025-02-22T02:20:00+0100","alternativeTransport":{"location":[{"station":{"coordinate":{"lat":53.2105560302734,"lng":6.56472206115723},"countryCode":"NL","name":"Groningen","stationCode":"GN","uicCode":"8400263"},"description":"vanaf het busstation halte AB"},{"station":{"coordinate":{"lat":52.7338905334473,"lng":6.47361087799072},"countryCode":"NL","name":"Hoogeveen","stationCode":"HGV","uicCode":"8400330"},"description":"vanaf de voorzijde van het station"}],"label":"Er rijden snelbussen tussen Groningen en Hoogeveen.","shortLabel":"Er rijden snelbussen Groningen - Hoogeveen."}},{"start":"2025-02-15T05:45:00+0100","end":"2025-02-22T02:30:00+0100","alternativeTransport":{"location":[{"station":{"coordinate":{"lat":52.8547210693359,"lng":6.52111101150513},"countryCode":"NL","name":"Beilen","stationCode":"BL","uicCode":"8400100"},"description":"vanaf de voorzijde van het station"},{"station":{"coordinate":{"lat":52.7338905334473,"lng":6.47361087799072},"countryCode":"NL","name":"Hoogeveen","stationCode":"HGV","uicCode":"8400330"},"description":"vanaf de voorzijde van het station"}],"label":"Er rijden taxibusjes tussen Beilen en Hoogeveen.","shortLabel":"Er rijden taxibusjes Beilen - Hoogeveen."}},{"start":"2025-02-15T06:00:00+0100","end":"2025-02-22T02:30:00+0100","alternativeTransport":{"location":[{"station":{"coordinate":{"lat":52.9916648864746,"lng":6.57083320617676},"countryCode":"NL","name":"Assen","stationCode":"ASN","uicCode":"8400073"},"description":"vanaf het busstation"},{"station":{"coordinate":{"lat":52.7338905334473,"lng":6.47361087799072},"countryCode":"NL","name":"Hoogeveen","stationCode":"HGV","uicCode":"8400330"},"description":"vanaf de voorzijde van het station"}],"label":"Er rijden snelbussen tussen Assen en Hoogeveen.","shortLabel":"Er rijden snelbussen Assen - Hoogeveen."}},{"start":"2025-02-15T06:00:00+0100","end":"2025-02-22T02:40:00+0100","alternativeTransport":{"location":[{"station":{"coordinate":{"lat":52.9916648864746,"lng":6.57083320617676},"countryCode":"NL","name":"Assen","stationCode":"ASN","uicCode":"8400073"},"description":"vanaf het busstation"},{"station":{"coordinate":{"lat":52.8547210693359,"lng":6.52111101150513},"countryCode":"NL","name":"Beilen","stationCode":"BL","uicCode":"8400100"},"description":"vanaf de voorzijde van het station"}],"label":"Er rijden taxibusjes tussen Assen en Beilen.","shortLabel":"Er rijden taxibusjes Assen - Beilen."}}]},{"type":"MAINTENANCE","id":"7006062","title":"Brussels Airport-Zaventem.","isActive":true,"local":false,"titleSections":[[{"type":"STATION","value":"Brussels Airport"}]],"registrationTime":"2025-02-18T10:37:11+0100","start":"2025-02-15T06:00:00+0100","releaseTime":"2025-02-18T10:37:11+0100","end":"2025-02-21T22:45:00+0100","period":"Zaterdag 15 februari 6:00 uur t/m vrijdag 21 februari 22:45 uur.","impact":{"value":2},"publicationSections":[{"section":{"stations":[{"coordinate":{"lat":51.5955543518066,"lng":4.78000020980835},"countryCode":"NL","name":"Breda","stationCode":"BD","uicCode":"8400131"},{"coordinate":{"lat":51.358088,"lng":4.633977},"countryCode":"B","name":"Noorderkempen","stationCode":"NDKP","uicCode":"8821105"},{"coordinate":{"lat":51.2449375,"lng":4.4251543},"countryCode":"B","name":"Antwerpen-Luchtbal","stationCode":"ATWLB","uicCode":"8821063"},{"coordinate":{"lat":51.21686,"lng":4.421242},"countryCode":"B","name":"Antwerpen-Centraal","stationCode":"ATW","uicCode":"8821006"},{"coordinate":{"lat":51.198914,"lng":4.4332},"countryCode":"B","name":"Antwerpen-Berchem","stationCode":"BERCH","uicCode":"8821121"},{"coordinate":{"lat":51.01758,"lng":4.48313},"countryCode":"B","name":"Mechelen","stationCode":"MECH","uicCode":"8822004"},{"coordinate":{"lat":50.896821,"lng":4.48549},"countryCode":"B","name":"Brussels Airport-Zaventem","stationCode":"FBNL","uicCode":"8819406"},{"coordinate":{"lat":50.859658,"lng":4.360854},"countryCode":"B","name":"Brussel-Noord","stationCode":"BRUSN","uicCode":"8812005"},{"coordinate":{"lat":50.845175,"lng":4.357131},"countryCode":"B","name":"Brussel-Centraal","stationCode":"BRUSC","uicCode":"8813003"},{"coordinate":{"lat":50.836782,"lng":4.336922},"countryCode":"B","name":"Brussel-Zuid","stationCode":"BRUSZ","uicCode":"8814001"}],"direction":"BOTH","operators":["NS Int"]},"consequence":{"section":{"stations":[{"coordinate":{"lat":50.896821,"lng":4.48549},"countryCode":"B","name":"Brussels Airport-Zaventem","stationCode":"FBNL","uicCode":"8819406"}],"direction":"BOTH","operators":["NS Int"]},"description":"treinen stoppen niet","level":"LESS_TRAINS"},"sectionType":"HSL"}],"summaryAdditionalTravelTime":{"label":"U heeft geen langere reistijd.","shortLabel":"Geen extra reistijd."},"timespans":[{"start":"2025-02-15T06:00:00+0100","end":"2025-02-21T22:45:00+0100","period":"Zaterdag 15 februari 6:00 uur t/m vrijdag 21 februari 22:45 uur.","situation":{"label":"Door werkzaamheden: van, via en naar Brussels Airport-Zaventem kunnen er geen treinen stoppen."},"cause":{"label":"werkzaamheden"},"additionalTravelTime":{"label":"U heeft geen langere reistijd.","shortLabel":"Geen extra reistijd."},"advices":["EuroCity stopt niet in Brussel Airport Zaventem."]}],"alternativeTransportTimespans":[]},{"type":"MAINTENANCE","id":"7005908","title":"Amsterdam - Schiphol - Hoofddorp.","isActive":true,"local":false,"titleSections":[[{"type":"STATION","value":"Amsterdam C."},{"type":"ICON","value":"MAINTENANCE"},{"type":"STATION","value":"Hoofddorp"}]],"registrationTime":"2025-01-31T12:05:39+0100","start":"2025-02-17T04:00:00+0100","releaseTime":"2025-01-31T12:05:39+0100","end":"2025-02-22T02:00:00+0100","period":"Maandag 17 februari 4:00 uur t/m zaterdag 22 februari 2:00 uur.","impact":{"value":2},"publicationSections":[{"section":{"stations":[{"coordinate":{"lat":52.3788871765137,"lng":4.90027761459351},"countryCode":"NL","name":"Amsterdam Centraal","stationCode":"ASD","uicCode":"8400058"},{"coordinate":{"lat":52.3888893127441,"lng":4.83777761459351},"countryCode":"NL","name":"Amsterdam Sloterdijk","stationCode":"ASS","uicCode":"8400059"},{"coordinate":{"lat":52.3577766418457,"lng":4.83388900756836},"countryCode":"NL","name":"Amsterdam Lelylaan","stationCode":"ASDL","uicCode":"8400079"},{"coordinate":{"lat":52.3094444274902,"lng":4.76194429397583},"countryCode":"NL","name":"Schiphol Airport","stationCode":"SHL","uicCode":"8400561"},{"coordinate":{"lat":52.2933349609375,"lng":4.70055532455444},"countryCode":"NL","name":"Hoofddorp","stationCode":"HFD","uicCode":"8400332"}],"direction":"BOTH","operators":["NS"]},"consequence":{"section":{"stations":[{"coordinate":{"lat":52.3788871765137,"lng":4.90027761459351},"countryCode":"NL","name":"Amsterdam Centraal","stationCode":"ASD","uicCode":"8400058"},{"coordinate":{"lat":52.3888893127441,"lng":4.83777761459351},"countryCode":"NL","name":"Amsterdam Sloterdijk","stationCode":"ASS","uicCode":"8400059"},{"coordinate":{"lat":52.3577766418457,"lng":4.83388900756836},"countryCode":"NL","name":"Amsterdam Lelylaan","stationCode":"ASDL","uicCode":"8400079"},{"coordinate":{"lat":52.3094444274902,"lng":4.76194429397583},"countryCode":"NL","name":"Schiphol Airport","stationCode":"SHL","uicCode":"8400561"},{"coordinate":{"lat":52.2933349609375,"lng":4.70055532455444},"countryCode":"NL","name":"Hoofddorp","stationCode":"HFD","uicCode":"8400332"}],"direction":"BOTH","operators":["NS"]},"description":"dienstregeling aangepast","level":"LESS_TRAINS"},"sectionType":"NL"}],"summaryAdditionalTravelTime":{"label":"De extra reistijd is ongeveer 15 minuten.","shortLabel":"Extra reistijd 15 min.","minimumDurationInMinutes":15,"maximumDurationInMinutes":15},"timespans":[{"start":"2025-02-17T04:00:00+0100","end":"2025-02-22T02:00:00+0100","period":"Maandag 17 februari 4:00 uur t/m zaterdag 22 februari 2:00 uur.","situation":{"label":"Door werkzaamheden elders: tussen Amsterdam Centraal en Hoofddorp is de dienstregeling aangepast."},"cause":{"label":"werkzaamheden elders"},"additionalTravelTime":{"label":"De extra reistijd is ongeveer 15 minuten.","shortLabel":"Extra reistijd 15 min.","minimumDurationInMinutes":15,"maximumDurationInMinutes":15},"advices":["NS verwacht extra drukte in de treinen."]}],"alternativeTransportTimespans":[]},{"type":"MAINTENANCE","id":"7005907","title":"Amsterdam - Utrecht.","isActive":true,"local":false,"titleSections":[[{"type":"STATION","value":"Amsterdam C."},{"type":"STATION","value":"Muiderpoort"},{"type":"ICON","value":"MAINTENANCE"},{"type":"STATION","value":"Bijlmer ArenA"},{"type":"STATION","value":"Utrecht C."}]],"registrationTime":"2025-02-17T16:25:17+0100","start":"2025-02-17T04:30:00+0100","releaseTime":"2025-02-17T16:25:17+0100","end":"2025-02-22T02:00:00+0100","period":"Maandag 17 februari 4:30 uur t/m zaterdag 22 februari 2:00 uur.","impact":{"value":4},"publicationSections":[{"section":{"stations":[{"coordinate":{"lat":52.3788871765137,"lng":4.90027761459351},"countryCode":"NL","name":"Amsterdam Centraal","stationCode":"ASD","uicCode":"8400058"},{"coordinate":{"lat":52.3605537414551,"lng":4.93111133575439},"countryCode":"NL","name":"Amsterdam Muiderpoort","stationCode":"ASDM","uicCode":"8400060"},{"coordinate":{"lat":52.3466682434082,"lng":4.91777801513672},"countryCode":"NL","name":"Amsterdam Amstel","stationCode":"ASA","uicCode":"8400057"},{"coordinate":{"lat":52.3233337402344,"lng":4.93638896942139},"countryCode":"NL","name":"Duivendrecht","stationCode":"DVD","uicCode":"8400194"},{"coordinate":{"lat":52.3122215270996,"lng":4.94694423675537},"countryCode":"NL","name":"Amsterdam Bijlmer ArenA","stationCode":"ASB","uicCode":"8400074"},{"coordinate":{"lat":52.29844,"lng":4.95972},"countryCode":"NL","name":"Amsterdam Holendrecht","stationCode":"ASHD","uicCode":"8400231"},{"coordinate":{"lat":52.2785,"lng":4.977},"countryCode":"NL","name":"Abcoude","stationCode":"AC","uicCode":"8400047"},{"coordinate":{"lat":52.17149,"lng":4.9906},"countryCode":"NL","name":"Breukelen","stationCode":"BKL","uicCode":"8400133"},{"coordinate":{"lat":52.1352767944336,"lng":5.03361129760742},"countryCode":"NL","name":"Maarssen","stationCode":"MAS","uicCode":"8400419"},{"coordinate":{"lat":52.103055,"lng":5.09},"countryCode":"NL","name":"Utrecht Zuilen","stationCode":"UTZL","uicCode":"8400613"},{"coordinate":{"lat":52.0888900756836,"lng":5.11027765274048},"countryCode":"NL","name":"Utrecht Centraal","stationCode":"UT","uicCode":"8400621"}],"direction":"BOTH","operators":["NS"]},"consequence":{"section":{"stations":[{"coordinate":{"lat":52.3605537414551,"lng":4.93111133575439},"countryCode":"NL","name":"Amsterdam Muiderpoort","stationCode":"ASDM","uicCode":"8400060"},{"coordinate":{"lat":52.3466682434082,"lng":4.91777801513672},"countryCode":"NL","name":"Amsterdam Amstel","stationCode":"ASA","uicCode":"8400057"},{"coordinate":{"lat":52.3233337402344,"lng":4.93638896942139},"countryCode":"NL","name":"Duivendrecht","stationCode":"DVD","uicCode":"8400194"},{"coordinate":{"lat":52.3122215270996,"lng":4.94694423675537},"countryCode":"NL","name":"Amsterdam Bijlmer ArenA","stationCode":"ASB","uicCode":"8400074"}],"direction":"BOTH","operators":["NS"]},"description":"geen treinen","level":"LESS_TRAINS"},"sectionType":"NL"}],"summaryAdditionalTravelTime":{"label":"De extra reistijd is ongeveer 15 minuten.","shortLabel":"Extra reistijd 15 min.","minimumDurationInMinutes":15,"maximumDurationInMinutes":15},"timespans":[{"start":"2025-02-17T04:30:00+0100","end":"2025-02-22T02:00:00+0100","period":"Maandag 17 februari 4:30 uur t/m zaterdag 22 februari 2:00 uur.","situation":{"label":"Door werkzaamheden: tussen Amsterdam Muiderpoort en Amsterdam Bijlmer ArenA rijden er geen treinen."},"cause":{"label":"werkzaamheden"},"additionalTravelTime":{"label":"De extra reistijd is ongeveer 15 minuten.","shortLabel":"Extra reistijd 15 min.","minimumDurationInMinutes":15,"maximumDurationInMinutes":15},"alternativeTransport":{"label":"maak gebruik van het vervangende vervoer","shortLabel":"gebruik het vervangende vervoer"},"advices":["Uw NS-vervoerbewijs is geldig in metro's tussen Amsterdam Bijlmer Arena en Amsterdam Centraal en tussen Amsterdam Zuid en Amsterdam Centraal.","Tussen Utrecht C. en Alkmaar/Hoorn reis via Schiphol Airport.","Tussen Utrecht C. en Amsterdam C. reis via Amsterdam Zuid."]}],"alternativeTransportTimespans":[{"start":"2025-02-17T04:30:00+0100","end":"2025-02-22T02:00:00+0100","alternativeTransport":{"location":[{"station":{"coordinate":{"lat":52.338889,"lng":4.872356},"countryCode":"NL","name":"Amsterdam Zuid","stationCode":"ASDZ","uicCode":"8400061"},"description":"volg de aanwijzingen op het station"},{"station":{"coordinate":{"lat":52.3372230529785,"lng":4.89027786254883},"countryCode":"NL","name":"Amsterdam RAI","stationCode":"RAI","uicCode":"8400056"},"description":"volg de aanwijzingen op het station"},{"station":{"coordinate":{"lat":52.3233337402344,"lng":4.93638896942139},"countryCode":"NL","name":"Duivendrecht","stationCode":"DVD","uicCode":"8400194"},"description":"volg de aanwijzingen op het station"},{"station":{"coordinate":{"lat":52.3122215270996,"lng":4.94694423675537},"countryCode":"NL","name":"Amsterdam Bijlmer ArenA","stationCode":"ASB","uicCode":"8400074"},"description":"volg de aanwijzingen op het station"}],"label":"Maak gebruik van de Amsterdamse metro tussen Amsterdam Zuid, Amsterdam RAI, Amsterdam Van der Madeweg, Duivendrecht en Amsterdam Bijlmer ArenA.","shortLabel":"Gebruik de Amsterdamse metro Amsterdam Zuid - RAI - Van der Madeweg - Duivendrecht - Bijlmer ArenA."}},{"start":"2025-02-17T04:30:00+0100","end":"2025-02-22T02:00:00+0100","alternativeTransport":{"location":[{"station":{"coordinate":{"lat":52.338889,"lng":4.872356},"countryCode":"NL","name":"Amsterdam Zuid","stationCode":"ASDZ","uicCode":"8400061"},"description":"volg de aanwijzingen op het station"},{"station":{"coordinate":{"lat":52.3372230529785,"lng":4.89027786254883},"countryCode":"NL","name":"Amsterdam RAI","stationCode":"RAI","uicCode":"8400056"},"description":"volg de aanwijzingen op het station"},{"station":{"coordinate":{"lat":52.3466682434082,"lng":4.91777801513672},"countryCode":"NL","name":"Amsterdam Amstel","stationCode":"ASA","uicCode":"8400057"},"description":"volg de aanwijzingen op het station"},{"station":{"coordinate":{"lat":52.3788871765137,"lng":4.90027761459351},"countryCode":"NL","name":"Amsterdam Centraal","stationCode":"ASD","uicCode":"8400058"},"description":"volg de aanwijzingen op het station"}],"label":"Maak gebruik van de Amsterdamse metro tussen Amsterdam Zuid, Amsterdam RAI, Amsterdam Amstel en Amsterdam Centraal.","shortLabel":"Gebruik de Amsterdamse metro Amsterdam Zuid - RAI - Amstel - Amsterdam C."}},{"start":"2025-02-17T04:30:00+0100","end":"2025-02-22T02:00:00+0100","alternativeTransport":{"location":[{"station":{"coordinate":{"lat":52.338889,"lng":4.872356},"countryCode":"NL","name":"Amsterdam Zuid","stationCode":"ASDZ","uicCode":"8400061"},"description":"volg de aanwijzingen op het station"},{"station":{"coordinate":{"lat":52.3788871765137,"lng":4.90027761459351},"countryCode":"NL","name":"Amsterdam Centraal","stationCode":"ASD","uicCode":"8400058"},"description":"volg de aanwijzingen op het station"}],"label":"Maak gebruik van de Amsterdamse metro tussen Amsterdam Zuid en Amsterdam Centraal.","shortLabel":"Gebruik de Amsterdamse metro Amsterdam Zuid - Amsterdam C."}},{"start":"2025-02-17T04:30:00+0100","end":"2025-02-22T02:00:00+0100","alternativeTransport":{"location":[{"station":{"coordinate":{"lat":52.3466682434082,"lng":4.91777801513672},"countryCode":"NL","name":"Amsterdam Amstel","stationCode":"ASA","uicCode":"8400057"},"description":"volg de aanwijzingen op het station"},{"station":{"coordinate":{"lat":52.3788871765137,"lng":4.90027761459351},"countryCode":"NL","name":"Amsterdam Centraal","stationCode":"ASD","uicCode":"8400058"},"description":"volg de aanwijzingen op het station"}],"label":"Maak gebruik van de Amsterdamse metro tussen Amsterdam Van der Madeweg, Amsterdam Amstel en Amsterdam Centraal.","shortLabel":"Gebruik de Amsterdamse metro Van der Madeweg - Amstel - Amsterdam C."}},{"start":"2025-02-17T04:30:00+0100","end":"2025-02-22T02:00:00+0100","alternativeTransport":{"location":[{"station":{"coordinate":{"lat":52.3122215270996,"lng":4.94694423675537},"countryCode":"NL","name":"Amsterdam Bijlmer ArenA","stationCode":"ASB","uicCode":"8400074"},"description":"volg de aanwijzingen op het station"},{"station":{"coordinate":{"lat":52.3233337402344,"lng":4.93638896942139},"countryCode":"NL","name":"Duivendrecht","stationCode":"DVD","uicCode":"8400194"},"description":"volg de aanwijzingen op het station"},{"station":{"coordinate":{"lat":52.3466682434082,"lng":4.91777801513672},"countryCode":"NL","name":"Amsterdam Amstel","stationCode":"ASA","uicCode":"8400057"},"description":"volg de aanwijzingen op het station"},{"station":{"coordinate":{"lat":52.3788871765137,"lng":4.90027761459351},"countryCode":"NL","name":"Amsterdam Centraal","stationCode":"ASD","uicCode":"8400058"},"description":"volg de aanwijzingen op het station"}],"label":"Maak gebruik van de Amsterdamse metro tussen Amsterdam Bijlmer ArenA, Duivendrecht, Amsterdam Amstel en Amsterdam Centraal.","shortLabel":"Gebruik de Amsterdamse metro Bijlmer ArenA - Duivendrecht - Amstel - Amsterdam C."}},{"start":"2025-02-17T04:50:00+0100","end":"2025-02-17T06:15:00+0100","alternativeTransport":{"location":[{"station":{"coordinate":{"lat":52.3788871765137,"lng":4.90027761459351},"countryCode":"NL","name":"Amsterdam Centraal","stationCode":"ASD","uicCode":"8400058"},"description":"vanaf het busstation"},{"station":{"coordinate":{"lat":52.3605537414551,"lng":4.93111133575439},"countryCode":"NL","name":"Amsterdam Muiderpoort","stationCode":"ASDM","uicCode":"8400060"},"description":"vanaf de Insulindeweg"},{"station":{"coordinate":{"lat":52.3466682434082,"lng":4.91777801513672},"countryCode":"NL","name":"Amsterdam Amstel","stationCode":"ASA","uicCode":"8400057"},"description":"vanaf het busstation"},{"station":{"coordinate":{"lat":52.3233337402344,"lng":4.93638896942139},"countryCode":"NL","name":"Duivendrecht","stationCode":"DVD","uicCode":"8400194"},"description":"vanaf het busstation"},{"station":{"coordinate":{"lat":52.3122215270996,"lng":4.94694423675537},"countryCode":"NL","name":"Amsterdam Bijlmer ArenA","stationCode":"ASB","uicCode":"8400074"},"description":"vanaf het busstation"}],"label":"Er rijden stopbussen van Amsterdam Centraal, Amsterdam Muiderpoort, Amsterdam Amstel, Duivendrecht naar Amsterdam Bijlmer ArenA.","shortLabel":"Er rijden stopbussen Amsterdam C. -> Muiderpoort -> Amstel -> Duivendrecht -> Bijlmer ArenA."}},{"start":"2025-02-18T00:15:00+0100","end":"2025-02-18T02:00:00+0100","alternativeTransport":{"location":[{"station":{"coordinate":{"lat":52.3788871765137,"lng":4.90027761459351},"countryCode":"NL","name":"Amsterdam Centraal","stationCode":"ASD","uicCode":"8400058"},"description":"vanaf het busstation"},{"station":{"coordinate":{"lat":52.3605537414551,"lng":4.93111133575439},"countryCode":"NL","name":"Amsterdam Muiderpoort","stationCode":"ASDM","uicCode":"8400060"},"description":"vanaf de Insulindeweg"},{"station":{"coordinate":{"lat":52.3466682434082,"lng":4.91777801513672},"countryCode":"NL","name":"Amsterdam Amstel","stationCode":"ASA","uicCode":"8400057"},"description":"vanaf het busstation"},{"station":{"coordinate":{"lat":52.3233337402344,"lng":4.93638896942139},"countryCode":"NL","name":"Duivendrecht","stationCode":"DVD","uicCode":"8400194"},"description":"vanaf het busstation"},{"station":{"coordinate":{"lat":52.3122215270996,"lng":4.94694423675537},"countryCode":"NL","name":"Amsterdam Bijlmer ArenA","stationCode":"ASB","uicCode":"8400074"},"description":"vanaf het busstation"}],"label":"Er rijden stopbussen tussen Amsterdam Centraal, Amsterdam Muiderpoort, Amsterdam Amstel, Duivendrecht en Amsterdam Bijlmer ArenA.","shortLabel":"Er rijden stopbussen Amsterdam C. - Muiderpoort - Amstel - Duivendrecht - Bijlmer ArenA."}},{"start":"2025-02-18T04:50:00+0100","end":"2025-02-18T06:15:00+0100","alternativeTransport":{"location":[{"station":{"coordinate":{"lat":52.3788871765137,"lng":4.90027761459351},"countryCode":"NL","name":"Amsterdam Centraal","stationCode":"ASD","uicCode":"8400058"},"description":"vanaf het busstation"},{"station":{"coordinate":{"lat":52.3605537414551,"lng":4.93111133575439},"countryCode":"NL","name":"Amsterdam Muiderpoort","stationCode":"ASDM","uicCode":"8400060"},"description":"vanaf de Insulindeweg"},{"station":{"coordinate":{"lat":52.3466682434082,"lng":4.91777801513672},"countryCode":"NL","name":"Amsterdam Amstel","stationCode":"ASA","uicCode":"8400057"},"description":"vanaf het busstation"},{"station":{"coordinate":{"lat":52.3233337402344,"lng":4.93638896942139},"countryCode":"NL","name":"Duivendrecht","stationCode":"DVD","uicCode":"8400194"},"description":"vanaf het busstation"},{"station":{"coordinate":{"lat":52.3122215270996,"lng":4.94694423675537},"countryCode":"NL","name":"Amsterdam Bijlmer ArenA","stationCode":"ASB","uicCode":"8400074"},"description":"vanaf het busstation"}],"label":"Er rijden stopbussen van Amsterdam Centraal, Amsterdam Muiderpoort, Amsterdam Amstel, Duivendrecht naar Amsterdam Bijlmer ArenA.","shortLabel":"Er rijden stopbussen Amsterdam C. -> Muiderpoort -> Amstel -> Duivendrecht -> Bijlmer ArenA."}},{"start":"2025-02-19T00:15:00+0100","end":"2025-02-19T02:00:00+0100","alternativeTransport":{"location":[{"station":{"coordinate":{"lat":52.3788871765137,"lng":4.90027761459351},"countryCode":"NL","name":"Amsterdam Centraal","stationCode":"ASD","uicCode":"8400058"},"description":"vanaf het busstation"},{"station":{"coordinate":{"lat":52.3605537414551,"lng":4.93111133575439},"countryCode":"NL","name":"Amsterdam Muiderpoort","stationCode":"ASDM","uicCode":"8400060"},"description":"vanaf de Insulindeweg"},{"station":{"coordinate":{"lat":52.3466682434082,"lng":4.91777801513672},"countryCode":"NL","name":"Amsterdam Amstel","stationCode":"ASA","uicCode":"8400057"},"description":"vanaf het busstation"},{"station":{"coordinate":{"lat":52.3233337402344,"lng":4.93638896942139},"countryCode":"NL","name":"Duivendrecht","stationCode":"DVD","uicCode":"8400194"},"description":"vanaf het busstation"},{"station":{"coordinate":{"lat":52.3122215270996,"lng":4.94694423675537},"countryCode":"NL","name":"Amsterdam Bijlmer ArenA","stationCode":"ASB","uicCode":"8400074"},"description":"vanaf het busstation"}],"label":"Er rijden stopbussen tussen Amsterdam Centraal, Amsterdam Muiderpoort, Amsterdam Amstel, Duivendrecht en Amsterdam Bijlmer ArenA.","shortLabel":"Er rijden stopbussen Amsterdam C. - Muiderpoort - Amstel - Duivendrecht - Bijlmer ArenA."}},{"start":"2025-02-19T04:50:00+0100","end":"2025-02-19T06:15:00+0100","alternativeTransport":{"location":[{"station":{"coordinate":{"lat":52.3788871765137,"lng":4.90027761459351},"countryCode":"NL","name":"Amsterdam Centraal","stationCode":"ASD","uicCode":"8400058"},"description":"vanaf het busstation"},{"station":{"coordinate":{"lat":52.3605537414551,"lng":4.93111133575439},"countryCode":"NL","name":"Amsterdam Muiderpoort","stationCode":"ASDM","uicCode":"8400060"},"description":"vanaf de Insulindeweg"},{"station":{"coordinate":{"lat":52.3466682434082,"lng":4.91777801513672},"countryCode":"NL","name":"Amsterdam Amstel","stationCode":"ASA","uicCode":"8400057"},"description":"vanaf het busstation"},{"station":{"coordinate":{"lat":52.3233337402344,"lng":4.93638896942139},"countryCode":"NL","name":"Duivendrecht","stationCode":"DVD","uicCode":"8400194"},"description":"vanaf het busstation"},{"station":{"coordinate":{"lat":52.3122215270996,"lng":4.94694423675537},"countryCode":"NL","name":"Amsterdam Bijlmer ArenA","stationCode":"ASB","uicCode":"8400074"},"description":"vanaf het busstation"}],"label":"Er rijden stopbussen van Amsterdam Centraal, Amsterdam Muiderpoort, Amsterdam Amstel, Duivendrecht naar Amsterdam Bijlmer ArenA.","shortLabel":"Er rijden stopbussen Amsterdam C. -> Muiderpoort -> Amstel -> Duivendrecht -> Bijlmer ArenA."}},{"start":"2025-02-20T00:15:00+0100","end":"2025-02-20T02:00:00+0100","alternativeTransport":{"location":[{"station":{"coordinate":{"lat":52.3788871765137,"lng":4.90027761459351},"countryCode":"NL","name":"Amsterdam Centraal","stationCode":"ASD","uicCode":"8400058"},"description":"vanaf het busstation"},{"station":{"coordinate":{"lat":52.3605537414551,"lng":4.93111133575439},"countryCode":"NL","name":"Amsterdam Muiderpoort","stationCode":"ASDM","uicCode":"8400060"},"description":"vanaf de Insulindeweg"},{"station":{"coordinate":{"lat":52.3466682434082,"lng":4.91777801513672},"countryCode":"NL","name":"Amsterdam Amstel","stationCode":"ASA","uicCode":"8400057"},"description":"vanaf het busstation"},{"station":{"coordinate":{"lat":52.3233337402344,"lng":4.93638896942139},"countryCode":"NL","name":"Duivendrecht","stationCode":"DVD","uicCode":"8400194"},"description":"vanaf het busstation"},{"station":{"coordinate":{"lat":52.3122215270996,"lng":4.94694423675537},"countryCode":"NL","name":"Amsterdam Bijlmer ArenA","stationCode":"ASB","uicCode":"8400074"},"description":"vanaf het busstation"}],"label":"Er rijden stopbussen tussen Amsterdam Centraal, Amsterdam Muiderpoort, Amsterdam Amstel, Duivendrecht en Amsterdam Bijlmer ArenA.","shortLabel":"Er rijden stopbussen Amsterdam C. - Muiderpoort - Amstel - Duivendrecht - Bijlmer ArenA."}},{"start":"2025-02-20T04:50:00+0100","end":"2025-02-20T06:15:00+0100","alternativeTransport":{"location":[{"station":{"coordinate":{"lat":52.3788871765137,"lng":4.90027761459351},"countryCode":"NL","name":"Amsterdam Centraal","stationCode":"ASD","uicCode":"8400058"},"description":"vanaf het busstation"},{"station":{"coordinate":{"lat":52.3605537414551,"lng":4.93111133575439},"countryCode":"NL","name":"Amsterdam Muiderpoort","stationCode":"ASDM","uicCode":"8400060"},"description":"vanaf de Insulindeweg"},{"station":{"coordinate":{"lat":52.3466682434082,"lng":4.91777801513672},"countryCode":"NL","name":"Amsterdam Amstel","stationCode":"ASA","uicCode":"8400057"},"description":"vanaf het busstation"},{"station":{"coordinate":{"lat":52.3233337402344,"lng":4.93638896942139},"countryCode":"NL","name":"Duivendrecht","stationCode":"DVD","uicCode":"8400194"},"description":"vanaf het busstation"},{"station":{"coordinate":{"lat":52.3122215270996,"lng":4.94694423675537},"countryCode":"NL","name":"Amsterdam Bijlmer ArenA","stationCode":"ASB","uicCode":"8400074"},"description":"vanaf het busstation"}],"label":"Er rijden stopbussen van Amsterdam Centraal, Amsterdam Muiderpoort, Amsterdam Amstel, Duivendrecht naar Amsterdam Bijlmer ArenA.","shortLabel":"Er rijden stopbussen Amsterdam C. -> Muiderpoort -> Amstel -> Duivendrecht -> Bijlmer ArenA."}},{"start":"2025-02-21T00:15:00+0100","end":"2025-02-21T02:00:00+0100","alternativeTransport":{"location":[{"station":{"coordinate":{"lat":52.3788871765137,"lng":4.90027761459351},"countryCode":"NL","name":"Amsterdam Centraal","stationCode":"ASD","uicCode":"8400058"},"description":"vanaf het busstation"},{"station":{"coordinate":{"lat":52.3605537414551,"lng":4.93111133575439},"countryCode":"NL","name":"Amsterdam Muiderpoort","stationCode":"ASDM","uicCode":"8400060"},"description":"vanaf de Insulindeweg"},{"station":{"coordinate":{"lat":52.3466682434082,"lng":4.91777801513672},"countryCode":"NL","name":"Amsterdam Amstel","stationCode":"ASA","uicCode":"8400057"},"description":"vanaf het busstation"},{"station":{"coordinate":{"lat":52.3233337402344,"lng":4.93638896942139},"countryCode":"NL","name":"Duivendrecht","stationCode":"DVD","uicCode":"8400194"},"description":"vanaf het busstation"},{"station":{"coordinate":{"lat":52.3122215270996,"lng":4.94694423675537},"countryCode":"NL","name":"Amsterdam Bijlmer ArenA","stationCode":"ASB","uicCode":"8400074"},"description":"vanaf het busstation"}],"label":"Er rijden stopbussen tussen Amsterdam Centraal, Amsterdam Muiderpoort, Amsterdam Amstel, Duivendrecht en Amsterdam Bijlmer ArenA.","shortLabel":"Er rijden stopbussen Amsterdam C. - Muiderpoort - Amstel - Duivendrecht - Bijlmer ArenA."}},{"start":"2025-02-21T04:50:00+0100","end":"2025-02-21T06:15:00+0100","alternativeTransport":{"location":[{"station":{"coordinate":{"lat":52.3788871765137,"lng":4.90027761459351},"countryCode":"NL","name":"Amsterdam Centraal","stationCode":"ASD","uicCode":"8400058"},"description":"vanaf het busstation"},{"station":{"coordinate":{"lat":52.3605537414551,"lng":4.93111133575439},"countryCode":"NL","name":"Amsterdam Muiderpoort","stationCode":"ASDM","uicCode":"8400060"},"description":"vanaf de Insulindeweg"},{"station":{"coordinate":{"lat":52.3466682434082,"lng":4.91777801513672},"countryCode":"NL","name":"Amsterdam Amstel","stationCode":"ASA","uicCode":"8400057"},"description":"vanaf het busstation"},{"station":{"coordinate":{"lat":52.3233337402344,"lng":4.93638896942139},"countryCode":"NL","name":"Duivendrecht","stationCode":"DVD","uicCode":"8400194"},"description":"vanaf het busstation"},{"station":{"coordinate":{"lat":52.3122215270996,"lng":4.94694423675537},"countryCode":"NL","name":"Amsterdam Bijlmer ArenA","stationCode":"ASB","uicCode":"8400074"},"description":"vanaf het busstation"}],"label":"Er rijden stopbussen van Amsterdam Centraal, Amsterdam Muiderpoort, Amsterdam Amstel, Duivendrecht naar Amsterdam Bijlmer ArenA.","shortLabel":"Er rijden stopbussen Amsterdam C. -> Muiderpoort -> Amstel -> Duivendrecht -> Bijlmer ArenA."}},{"start":"2025-02-22T00:15:00+0100","end":"2025-02-22T02:00:00+0100","alternativeTransport":{"location":[{"station":{"coordinate":{"lat":52.3788871765137,"lng":4.90027761459351},"countryCode":"NL","name":"Amsterdam Centraal","stationCode":"ASD","uicCode":"8400058"},"description":"vanaf het busstation"},{"station":{"coordinate":{"lat":52.3605537414551,"lng":4.93111133575439},"countryCode":"NL","name":"Amsterdam Muiderpoort","stationCode":"ASDM","uicCode":"8400060"},"description":"vanaf de Insulindeweg"},{"station":{"coordinate":{"lat":52.3466682434082,"lng":4.91777801513672},"countryCode":"NL","name":"Amsterdam Amstel","stationCode":"ASA","uicCode":"8400057"},"description":"vanaf het busstation"},{"station":{"coordinate":{"lat":52.3233337402344,"lng":4.93638896942139},"countryCode":"NL","name":"Duivendrecht","stationCode":"DVD","uicCode":"8400194"},"description":"vanaf het busstation"},{"station":{"coordinate":{"lat":52.3122215270996,"lng":4.94694423675537},"countryCode":"NL","name":"Amsterdam Bijlmer ArenA","stationCode":"ASB","uicCode":"8400074"},"description":"vanaf het busstation"}],"label":"Er rijden stopbussen tussen Amsterdam Centraal, Amsterdam Muiderpoort, Amsterdam Amstel, Duivendrecht en Amsterdam Bijlmer ArenA.","shortLabel":"Er rijden stopbussen Amsterdam C. - Muiderpoort - Amstel - Duivendrecht - Bijlmer ArenA."}}]},{"type":"MAINTENANCE","id":"7006068","title":"Utrecht - Almere.","isActive":true,"local":false,"titleSections":[[{"type":"STATION","value":"Utrecht C."},{"type":"ICON","value":"MAINTENANCE"},{"type":"STATION","value":"Almere C."}]],"registrationTime":"2025-02-17T09:03:55+0100","start":"2025-02-17T09:30:00+0100","releaseTime":"2025-02-17T09:03:55+0100","end":"2025-02-22T02:00:00+0100","period":"Maandag 17 februari 9:30 uur t/m zaterdag 22 februari 2:00 uur.","impact":{"value":3},"publicationSections":[{"section":{"stations":[{"coordinate":{"lat":52.0888900756836,"lng":5.11027765274048},"countryCode":"NL","name":"Utrecht Centraal","stationCode":"UT","uicCode":"8400621"},{"coordinate":{"lat":52.1100006103516,"lng":5.12472200393677},"countryCode":"NL","name":"Utrecht Overvecht","stationCode":"UTO","uicCode":"8400620"},{"coordinate":{"lat":52.1777763366699,"lng":5.17916679382324},"countryCode":"NL","name":"Hollandsche Rading","stationCode":"HOR","uicCode":"8400327"},{"coordinate":{"lat":52.2161102294922,"lng":5.18722200393677},"countryCode":"NL","name":"Hilversum Sportpark","stationCode":"HVSP","uicCode":"8400570"},{"coordinate":{"lat":52.2258338928223,"lng":5.18194437026978},"countryCode":"NL","name":"Hilversum","stationCode":"HVS","uicCode":"8400322"},{"coordinate":{"lat":52.2380561828613,"lng":5.17388868331909},"countryCode":"NL","name":"Hilversum Media Park","stationCode":"HVSM","uicCode":"8400324"},{"coordinate":{"lat":52.2658348083496,"lng":5.16305541992188},"countryCode":"NL","name":"Bussum Zuid","stationCode":"BSMZ","uicCode":"8400145"},{"coordinate":{"lat":52.2802772521973,"lng":5.15694427490234},"countryCode":"NL","name":"Naarden-Bussum","stationCode":"NDB","uicCode":"8400452"},{"coordinate":{"lat":52.342778,"lng":5.151944},"countryCode":"NL","name":"Almere Poort","stationCode":"AMPO","uicCode":"8400450"},{"coordinate":{"lat":52.3675003051758,"lng":5.19027757644653},"countryCode":"NL","name":"Almere Muziekwijk","stationCode":"ALMM","uicCode":"8400082"},{"coordinate":{"lat":52.37503,"lng":5.21764},"countryCode":"NL","name":"Almere Centrum","stationCode":"ALM","uicCode":"8400080"}],"direction":"BOTH","operators":["NS"]},"consequence":{"section":{"stations":[{"coordinate":{"lat":52.0888900756836,"lng":5.11027765274048},"countryCode":"NL","name":"Utrecht Centraal","stationCode":"UT","uicCode":"8400621"},{"coordinate":{"lat":52.1100006103516,"lng":5.12472200393677},"countryCode":"NL","name":"Utrecht Overvecht","stationCode":"UTO","uicCode":"8400620"},{"coordinate":{"lat":52.1777763366699,"lng":5.17916679382324},"countryCode":"NL","name":"Hollandsche Rading","stationCode":"HOR","uicCode":"8400327"},{"coordinate":{"lat":52.2161102294922,"lng":5.18722200393677},"countryCode":"NL","name":"Hilversum Sportpark","stationCode":"HVSP","uicCode":"8400570"},{"coordinate":{"lat":52.2258338928223,"lng":5.18194437026978},"countryCode":"NL","name":"Hilversum","stationCode":"HVS","uicCode":"8400322"},{"coordinate":{"lat":52.2380561828613,"lng":5.17388868331909},"countryCode":"NL","name":"Hilversum Media Park","stationCode":"HVSM","uicCode":"8400324"},{"coordinate":{"lat":52.2658348083496,"lng":5.16305541992188},"countryCode":"NL","name":"Bussum Zuid","stationCode":"BSMZ","uicCode":"8400145"},{"coordinate":{"lat":52.2802772521973,"lng":5.15694427490234},"countryCode":"NL","name":"Naarden-Bussum","stationCode":"NDB","uicCode":"8400452"},{"coordinate":{"lat":52.342778,"lng":5.151944},"countryCode":"NL","name":"Almere Poort","stationCode":"AMPO","uicCode":"8400450"},{"coordinate":{"lat":52.3675003051758,"lng":5.19027757644653},"countryCode":"NL","name":"Almere Muziekwijk","stationCode":"ALMM","uicCode":"8400082"},{"coordinate":{"lat":52.37503,"lng":5.21764},"countryCode":"NL","name":"Almere Centrum","stationCode":"ALM","uicCode":"8400080"}],"direction":"BOTH","operators":["NS"]},"description":"dienstregeling aangepast","level":"LESS_TRAINS"},"sectionType":"NL"}],"timespans":[{"start":"2025-02-17T09:30:00+0100","end":"2025-02-22T02:00:00+0100","period":"Maandag 17 februari 9:30 uur t/m zaterdag 22 februari 2:00 uur.","situation":{"label":"Door werkzaamheden elders: tussen Utrecht Centraal en Almere Centrum is de dienstregeling aangepast."},"cause":{"label":"werkzaamheden elders"},"advices":["Plan uw reis in de app."]}],"alternativeTransportTimespans":[]},