[{"id":"6028143","isActive":true,"topic":"disruption_6028143_nl","title":"Amsterdam-Utrecht-Eindhoven Centraal","type":"DISRUPTION","registrationTime":"2024-01-08T16:38:51+0100","releaseTime":"2024-01-08T16:38:51+0100","local":false,"titleSections":[[{"type":"STATION","value":"Amsterdam C."},{"type":"ICON","value":"DISRUPTION"},{"type":"STATION","value":"Eindhoven C."}]],"start":"2024-01-08T04:07:23+0100","end":"2024-01-09T13:30:00+0100","phase":{"id":"2","label":"Impact bekend"},"impact":{"value":2},"expectedDuration":{"description":"Dit duurt tot ongeveer dinsdag 9 januari 13:30 uur.","endTime":"2024-01-09T13:30:00+0100"},"publicationSections":[{"section":{"stations":[{"coordinate":{"lat":52.3788871765137,"lng":4.90027761459351},"countryCode":"NL","name":"Amsterdam Centraal","stationCode":"ASD","uicCode":"8400058"},{"coordinate":{"lat":52.3605537414551,"lng":4.93111133575439},"countryCode":"NL","name":"Amsterdam Muiderpoort","stationCode":"ASDM","uicCode":"8400060"},{"coordinate":{"lat":52.3466682434082,"lng":4.91777801513672},"countryCode":"NL","name":"Amsterdam Amstel","stationCode":"ASA","uicCode":"8400057"},{"coordinate":{"lat":52.3233337402344,"lng":4.93638896942139},"countryCode":"NL","name":"Duivendrecht","stationCode":"DVD","uicCode":"8400194"},{"coordinate":{"lat":52.3122215270996,"lng":4.94694423675537},"countryCode":"NL","name":"Amsterdam Bijlmer ArenA","stationCode":"ASB","uicCode":"8400074"},{"coordinate":{"lat":52.29844,"lng":4.95972},"countryCode":"NL","name":"Amsterdam Holendrecht","stationCode":"ASHD","uicCode":"8400231"},{"coordinate":{"lat":52.2785,"lng":4.977},"countryCode":"NL","name":"Abcoude","stationCode":"AC","uicCode":"8400047"},{"coordinate":{"lat":52.17149,"lng":4.9906},"countryCode":"NL","name":"Breukelen","stationCode":"BKL","uicCode":"8400133"},{"coordinate":{"lat":52.1352767944336,"lng":5.03361129760742},"countryCode":"NL","name":"Maarssen","stationCode":"MAS","uicCode":"8400419"},{"coordinate":{"lat":52.103055,"lng":5.09},"countryCode":"NL","name":"Utrecht Zuilen","stationCode":"UTZL","uicCode":"8400613"},{"coordinate":{"lat":52.0888900756836,"lng":5.11027765274048},"countryCode":"NL","name":"Utrecht Centraal","stationCode":"UT","uicCode":"8400621"},{"coordinate":{"lat":52.078889,"lng":5.121667},"countryCode":"NL","name":"Utrecht Vaartsche Rijn","stationCode":"UTVR","uicCode":"8400606"},{"coordinate":{"lat":52.0655555725098,"lng":5.14416646957397},"countryCode":"NL","name":"Utrecht Lunetten","stationCode":"UTLN","uicCode":"8400623"},{"coordinate":{"lat":52.03402,"lng":5.16821},"countryCode":"NL","name":"Houten","stationCode":"HTN","uicCode":"8400340"},{"coordinate":{"lat":52.01701,"lng":5.17949},"countryCode":"NL","name":"Houten Castellum","stationCode":"HTNC","uicCode":"8400335"},{"coordinate":{"lat":51.9466667175293,"lng":5.22694444656372},"countryCode":"NL","name":"Culemborg","stationCode":"CL","uicCode":"8400154"},{"coordinate":{"lat":51.88301,"lng":5.27127},"countryCode":"NL","name":"Geldermalsen","stationCode":"GDM","uicCode":"8400244"},{"coordinate":{"lat":51.8088874816895,"lng":5.26333332061768},"countryCode":"NL","name":"Zaltbommel","stationCode":"ZBM","uicCode":"8400732"},{"coordinate":{"lat":51.69048,"lng":5.29362},"countryCode":"NL","name":"'s-Hertogenbosch","stationCode":"HT","uicCode":"8400319"},{"coordinate":{"lat":51.6555557250977,"lng":5.29194450378418},"countryCode":"NL","name":"Vught","stationCode":"VG","uicCode":"8400667"},{"coordinate":{"lat":51.58433,"lng":5.31912},"countryCode":"NL","name":"Boxtel","stationCode":"BTL","uicCode":"8400129"},{"coordinate":{"lat":51.5099983215332,"lng":5.38916683197022},"countryCode":"NL","name":"Best","stationCode":"BET","uicCode":"8400112"},{"coordinate":{"lat":51.4511108398438,"lng":5.45583343505859},"countryCode":"NL","name":"Eindhoven Strijp-S","stationCode":"EHS","uicCode":"8400196"},{"coordinate":{"lat":51.4433326721191,"lng":5.48138904571533},"countryCode":"NL","name":"Eindhoven Centraal","stationCode":"EHV","uicCode":"8400206"}],"direction":"BOTH"},"consequence":{"section":{"stations":[{"coordinate":{"lat":52.3788871765137,"lng":4.90027761459351},"countryCode":"NL","name":"Amsterdam Centraal","stationCode":"ASD","uicCode":"8400058"},{"coordinate":{"lat":52.3605537414551,"lng":4.93111133575439},"countryCode":"NL","name":"Amsterdam Muiderpoort","stationCode":"ASDM","uicCode":"8400060"},{"coordinate":{"lat":52.3466682434082,"lng":4.91777801513672},"countryCode":"NL","name":"Amsterdam Amstel","stationCode":"ASA","uicCode":"8400057"},{"coordinate":{"lat":52.3233337402344,"lng":4.93638896942139},"countryCode":"NL","name":"Duivendrecht","stationCode":"DVD","uicCode":"8400194"},{"coordinate":{"lat":52.3122215270996,"lng":4.94694423675537},"countryCode":"NL","name":"Amsterdam Bijlmer ArenA","stationCode":"ASB","uicCode":"8400074"},{"coordinate":{"lat":52.29844,"lng":4.95972},"countryCode":"NL","name":"Amsterdam Holendrecht","stationCode":"ASHD","uicCode":"8400231"},{"coordinate":{"lat":52.2785,"lng":4.977},"countryCode":"NL","name":"Abcoude","stationCode":"AC","uicCode":"8400047"},{"coordinate":{"lat":52.17149,"lng":4.9906},"countryCode":"NL","name":"Breukelen","stationCode":"BKL","uicCode":"8400133"},{"coordinate":{"lat":52.1352767944336,"lng":5.03361129760742},"countryCode":"NL","name":"Maarssen","stationCode":"MAS","uicCode":"8400419"},{"coordinate":{"lat":52.103055,"lng":5.09},"countryCode":"NL","name":"Utrecht Zuilen","stationCode":"UTZL","uicCode":"8400613"},{"coordinate":{"lat":52.0888900756836,"lng":5.11027765274048},"countryCode":"NL","name":"Utrecht Centraal","stationCode":"UT","uicCode":"8400621"},{"coordinate":{"lat":52.078889,"lng":5.121667},"countryCode":"NL","name":"Utrecht Vaartsche Rijn","stationCode":"UTVR","uicCode":"8400606"},{"coordinate":{"lat":52.0655555725098,"lng":5.14416646957397},"countryCode":"NL","name":"Utrecht Lunetten","stationCode":"UTLN","uicCode":"8400623"},{"coordinate":{"lat":52.03402,"lng":5.16821},"countryCode":"NL","name":"Houten","stationCode":"HTN","uicCode":"8400340"},{"coordinate":{"lat":52.01701,"lng":5.17949},"countryCode":"NL","name":"Houten Castellum","stationCode":"HTNC","uicCode":"8400335"},{"coordinate":{"lat":51.9466667175293,"lng":5.22694444656372},"countryCode":"NL","name":"Culemborg","stationCode":"CL","uicCode":"8400154"},{"coordinate":{"lat":51.88301,"lng":5.27127},"countryCode":"NL","name":"Geldermalsen","stationCode":"GDM","uicCode":"8400244"},{"coordinate":{"lat":51.8088874816895,"lng":5.26333332061768},"countryCode":"NL","name":"Zaltbommel","stationCode":"ZBM","uicCode":"8400732"},{"coordinate":{"lat":51.69048,"lng":5.29362},"countryCode":"NL","name":"'s-Hertogenbosch","stationCode":"HT","uicCode":"8400319"},{"coordinate":{"lat":51.6555557250977,"lng":5.29194450378418},"countryCode":"NL","name":"Vught","stationCode":"VG","uicCode":"8400667"},{"coordinate":{"lat":51.58433,"lng":5.31912},"countryCode":"NL","name":"Boxtel","stationCode":"BTL","uicCode":"8400129"},{"coordinate":{"lat":51.5099983215332,"lng":5.38916683197022},"countryCode":"NL","name":"Best","stationCode":"BET","uicCode":"8400112"},{"coordinate":{"lat":51.4511108398438,"lng":5.45583343505859},"countryCode":"NL","name":"Eindhoven Strijp-S","stationCode":"EHS","uicCode":"8400196"},{"coordinate":{"lat":51.4433326721191,"lng":5.48138904571533},"countryCode":"NL","name":"Eindhoven Centraal","stationCode":"EHV","uicCode":"8400206"}],"direction":"ONE_WAY"},"description":"minder Intercity's","level":"LESS_TRAINS"},"sectionType":"NL"}],"timespans":[{"start":"2024-01-08T04:07:23+0100","end":"2024-01-09T13:30:00+0100","situation":{"label":"Tussen Amsterdam Centraal en Eindhoven Centraal rijden er minder Intercity's door een defect spoor."},"cause":{"label":"Defect spoor"},"additionalTravelTime":{"label":"De extra reistijd kan oplopen tot 15 minuten.","shortLabel":"Extra reistijd tot 15 min.","maximumDurationInMinutes":15},"advices":[]}],"alternativeTransportTimespans":[],"summaryAdditionalTravelTime":{"label":"De extra reistijd kan oplopen tot 15 minuten.","shortLabel":"Extra reistijd tot 15 min.","maximumDurationInMinutes":15}},{"id":"6028137","isActive":true,"topic":"disruption_6028137_nl","title":"'s-Hertogenbosch-Eindhoven","type":"DISRUPTION","registrationTime":"2024-01-08T16:36:27+0100","releaseTime":"2024-01-08T16:36:27+0100","local":false,"titleSections":[[{"type":"STATION","value":"'s-Hertogenbosch"},{"type":"ICON","value":"DISRUPTION"},{"type":"STATION","value":"Boxtel"},{"type":"STATION","value":"Eindhoven C."}]],"start":"2024-01-08T04:07:23+0100","end":"2024-01-09T13:30:00+0100","phase":{"id":"2","label":"Impact bekend"},"impact":{"value":3},"expectedDuration":{"description":"Dit duurt tot ongeveer dinsdag 9 januari 13:30 uur.","endTime":"2024-01-09T13:30:00+0100"},"publicationSections":[{"section":{"stations":[{"coordinate":{"lat":51.69048,"lng":5.29362},"countryCode":"NL","name":"'s-Hertogenbosch","stationCode":"HT","uicCode":"8400319"},{"coordinate":{"lat":51.6555557250977,"lng":5.29194450378418},"countryCode":"NL","name":"Vught","stationCode":"VG","uicCode":"8400667"},{"coordinate":{"lat":51.58433,"lng":5.31912},"countryCode":"NL","name":"Boxtel","stationCode":"BTL","uicCode":"8400129"},{"coordinate":{"lat":51.5099983215332,"lng":5.38916683197022},"countryCode":"NL","name":"Best","stationCode":"BET","uicCode":"8400112"},{"coordinate":{"lat":51.4511108398438,"lng":5.45583343505859},"countryCode":"NL","name":"Eindhoven Strijp-S","stationCode":"EHS","uicCode":"8400196"},{"coordinate":{"lat":51.4433326721191,"lng":5.48138904571533},"countryCode":"NL","name":"Eindhoven Centraal","stationCode":"EHV","uicCode":"8400206"}],"direction":"BOTH"},"consequence":{"section":{"stations":[{"coordinate":{"lat":51.69048,"lng":5.29362},"countryCode":"NL","name":"'s-Hertogenbosch","stationCode":"HT","uicCode":"8400319"},{"coordinate":{"lat":51.6555557250977,"lng":5.29194450378418},"countryCode":"NL","name":"Vught","stationCode":"VG","uicCode":"8400667"},{"coordinate":{"lat":51.58433,"lng":5.31912},"countryCode":"NL","name":"Boxtel","stationCode":"BTL","uicCode":"8400129"}],"direction":"ONE_WAY"},"description":"minder treinen","level":"LESS_TRAINS"},"sectionType":"NL"}],"timespans":[{"start":"2024-01-08T04:07:23+0100","end":"2024-01-09T13:30:00+0100","situation":{"label":"Tussen 's-Hertogenbosch en Boxtel rijden er minder treinen door een defect spoor."},"cause":{"label":"Defect spoor"},"advices":["Let op: dinsdagochtend stopbussen tussen 's Hertogenbosch en Boxtel."]}],"alternativeTransportTimespans":[]},{"id":"6028148","isActive":true,"topic":"disruption_6028148_nl","title":"Hengelo-Bielefeld","type":"DISRUPTION","registrationTime":"2024-01-08T17:35:22+0100","releaseTime":"2024-01-08T17:35:22+0100","local":false,"titleSections":[[{"type":"STATION","value":"Hengelo"},{"type":"ICON","value":"DISRUPTION"},{"type":"STATION","value":"Bad Bentheim"},{"type":"STATION","value":"Bielefeld Hbf"}]],"start":"2024-01-08T11:00:00+0100","end":"2024-01-08T20:30:00+0100","phase":{"id":"3","label":"Vervangend vervoer"},"impact":{"value":2},"expectedDuration":{"description":"Dit duurt tot ongeveer 20:30 uur.","endTime":"2024-01-08T20:30:00+0100"},"publicationSections":[{"section":{"stations":[{"coordinate":{"lat":52.2616653442383,"lng":6.79388904571533},"countryCode":"NL","name":"Hengelo","stationCode":"HGL","uicCode":"8400316"},{"coordinate":{"lat":52.2688903808594,"lng":6.81944465637207},"countryCode":"NL","name":"Hengelo Oost","stationCode":"HGLO","uicCode":"8400312"},{"coordinate":{"lat":52.3063888549805,"lng":6.93472242355347},"countryCode":"NL","name":"Oldenzaal","stationCode":"ODZ","uicCode":"8400483"},{"coordinate":{"lat":52.309685595156,"lng":7.15853691101074},"countryCode":"D","name":"Bad Bentheim","stationCode":"BH","uicCode":"8021156"},{"coordinate":{"lat":52.276299,"lng":7.434255},"countryCode":"D","name":"Rheine","stationCode":"RHEINE","uicCode":"8021067"},{"coordinate":{"lat":52.272851,"lng":8.061781},"countryCode":"D","name":"Osnabrück Hbf","stationCode":"OSNH","uicCode":"8021025"},{"coordinate":{"lat":52.202075,"lng":8.573876},"countryCode":"D","name":"Bünde (Westf)","stationCode":"BUENDE","uicCode":"8021173"},{"coordinate":{"lat":52.029261,"lng":8.532722},"countryCode":"D","name":"Bielefeld Hbf","stationCode":"BIELEF","uicCode":"8013597"}],"direction":"BOTH"},"consequence":{"section":{"stations":[{"coordinate":{"lat":52.2616653442383,"lng":6.79388904571533},"countryCode":"NL","name":"Hengelo","stationCode":"HGL","uicCode":"8400316"},{"coordinate":{"lat":52.2688903808594,"lng":6.81944465637207},"countryCode":"NL","name":"Hengelo Oost","stationCode":"HGLO","uicCode":"8400312"},{"coordinate":{"lat":52.3063888549805,"lng":6.93472242355347},"countryCode":"NL","name":"Oldenzaal","stationCode":"ODZ","uicCode":"8400483"},{"coordinate":{"lat":52.309685595156,"lng":7.15853691101074},"countryCode":"D","name":"Bad Bentheim","stationCode":"BH","uicCode":"8021156"}],"direction":"ONE_WAY"},"description":"geen treinen","level":"LESS_TRAINS"},"sectionType":"NEIGHBORING_COUNTRY"}],"timespans":[{"start":"2024-01-08T11:00:00+0100","end":"2024-01-08T20:30:00+0100","situation":{"label":"Tussen Hengelo en Bad Bentheim rijden er geen treinen door een defecte bovenleiding."},"cause":{"label":"Defecte bovenleiding"},"additionalTravelTime":{"label":"De extra reistijd is meer dan 60 minuten.","shortLabel":"Extra reistijd meer dan 60 min.","minimumDurationInMinutes":60},"alternativeTransport":{"label":"Er rijden stopbussen.","shortLabel":"Er rijden stopbussen"},"advices":[]}],"alternativeTransportTimespans":[{"start":"2024-01-08T11:00:00+0100","end":"2024-01-08T20:30:00+0100","alternativeTransport":{"location":[{"station":{"coordinate":{"lat":52.2616653442383,"lng":6.79388904571533},"countryCode":"NL","name":"Hengelo","stationCode":"HGL","uicCode":"8400316"},"description":"vanaf het busstation"},{"station":{"coordinate":{"lat":52.3063888549805,"lng":6.93472242355347},"countryCode":"NL","name":"Oldenzaal","stationCode":"ODZ","uicCode":"8400483"},"description":"vanaf de voorzijde van het station"}],"label":"Er rijden stopbussen tussen Hengelo, Oldenzaal en Bad Bentheim.","shortLabel":"Er rijden stopbussen: Hengelo, Oldenzaal, Bad Bentheim"}}],"summaryAdditionalTravelTime":{"label":"De extra reistijd is meer dan 60 minuten.","shortLabel":"Extra reistijd meer dan 60 min.","minimumDurationInMinutes":60}},{"id":"6028153","isActive":true,"topic":"disruption_6028153_nl","title":"Roosendaal-Vlissingen","type":"DISRUPTION","registrationTime":"2024-01-08T18:16:06+0100","releaseTime":"2024-01-08T18:16:06+0100","local":false,"titleSections":[[{"type":"STATION","value":"Roosendaal"},{"type":"STATION","value":"Bergen op Zoom"},{"type":"ICON","value":"DISRUPTION"},{"type":"STATION","value":"Kruiningen-Y."},{"type":"STATION","value":"Vlissingen"}]],"start":"2024-01-08T17:50:24+0100","end":"2024-01-08T19:30:00+0100","phase":{"id":"1b","label":"Gevolgen bekend"},"impact":{"value":3},"expectedDuration":{"description":"Dit duurt tot ongeveer 19:30 uur.","endTime":"2024-01-08T19:30:00+0100"},"publicationSections":[{"section":{"stations":[{"coordinate":{"lat":51.5402793884277,"lng":4.45833349227905},"countryCode":"NL","name":"Roosendaal","stationCode":"RSD","uicCode":"8400526"},{"coordinate":{"lat":51.4938888549805,"lng":4.29611110687256},"countryCode":"NL","name":"Bergen op Zoom","stationCode":"BGN","uicCode":"8400108"},{"coordinate":{"lat":51.422779083252,"lng":4.16111087799072},"countryCode":"NL","name":"Rilland-Bath","stationCode":"RB","uicCode":"8400521"},{"coordinate":{"lat":51.4333343505859,"lng":4.11694431304932},"countryCode":"NL","name":"Krabbendijke","stationCode":"KBD","uicCode":"8400367"},{"coordinate":{"lat":51.4650001525879,"lng":4.03722238540649},"countryCode":"NL","name":"Kruiningen-Yerseke","stationCode":"KRG","uicCode":"8400370"},{"coordinate":{"lat":51.4808349609375,"lng":3.95611119270325},"countryCode":"NL","name":"Kapelle-Biezelinge","stationCode":"BZL","uicCode":"8400354"},{"coordinate":{"lat":51.4980545043945,"lng":3.89055562019348},"countryCode":"NL","name":"Goes","stationCode":"GS","uicCode":"8400253"},{"coordinate":{"lat":51.5016670227051,"lng":3.66916656494141},"countryCode":"NL","name":"Arnemuiden","stationCode":"ARN","uicCode":"8400069"},{"coordinate":{"lat":51.4947204589844,"lng":3.61722230911255},"countryCode":"NL","name":"Middelburg","stationCode":"MDB","uicCode":"8400436"},{"coordinate":{"lat":51.4647216796875,"lng":3.59527778625488},"countryCode":"NL","name":"Vlissingen Souburg","stationCode":"VSS","uicCode":"8400653"},{"coordinate":{"lat":51.4458351135254,"lng":3.59527778625488},"countryCode":"NL","name":"Vlissingen","stationCode":"VS","uicCode":"8400652"}],"direction":"BOTH"},"consequence":{"section":{"stations":[{"coordinate":{"lat":51.4938888549805,"lng":4.29611110687256},"countryCode":"NL","name":"Bergen op Zoom","stationCode":"BGN","uicCode":"8400108"},{"coordinate":{"lat":51.422779083252,"lng":4.16111087799072},"countryCode":"NL","name":"Rilland-Bath","stationCode":"RB","uicCode":"8400521"},{"coordinate":{"lat":51.4333343505859,"lng":4.11694431304932},"countryCode":"NL","name":"Krabbendijke","stationCode":"KBD","uicCode":"8400367"},{"coordinate":{"lat":51.4650001525879,"lng":4.03722238540649},"countryCode":"NL","name":"Kruiningen-Yerseke","stationCode":"KRG","uicCode":"8400370"}],"direction":"ONE_WAY"},"description":"geen treinen","level":"LESS_TRAINS"},"sectionType":"NL"}],"timespans":[{"start":"2024-01-08T17:50:24+0100","end":"2024-01-08T19:30:00+0100","situation":{"label":"Tussen Bergen op Zoom en Kruiningen-Yerseke rijden er geen treinen door een aanrijding."},"cause":{"label":"Aanrijding"},"additionalTravelTime":{"label":"De extra reistijd is meer dan 60 minuten.","shortLabel":"Extra reistijd meer dan 60 min.","minimumDurationInMinutes":60},"advices":[]}],"alternativeTransportTimespans":[],"summaryAdditionalTravelTime":{"label":"De extra reistijd is meer dan 60 minuten.","shortLabel":"Extra reistijd meer dan 60 min.","minimumDurationInMinutes":60}},{"id":"7004248","isActive":true,"title":"Heerlen - Maastricht.","type":"MAINTENANCE","registrationTime":"2024-01-05T17:33:17+0100","releaseTime":"2024-01-05T17:33:17+0100","local":false,"titleSections":[[{"type":"STATION","value":"Heerlen"},{"type":"ICON","value":"MAINTENANCE"},{"type":"STATION","value":"Maastricht"}]],"start":"2023-12-11T04:00:00+0100","end":"2024-02-05T02:00:00+0100","period":"Maandag 11 december 4:00 uur t/m maandag 5 februari 2:00 uur.","impact":{"value":2},"publicationSections":[{"section":{"stations":[{"coordinate":{"lat":50.8908348083496,"lng":5.97499990463257},"countryCode":"NL","name":"Heerlen","stationCode":"HRL","uicCode":"8400307"},{"coordinate":{"lat":50.896667,"lng":5.952222},"countryCode":"NL","name":"Heerlen Woonboulevard","stationCode":"HRLW","uicCode":"8400404"},{"coordinate":{"lat":50.8872222900391,"lng":5.93027782440186},"countryCode":"NL","name":"Voerendaal","stationCode":"VDL","uicCode":"8400656"},{"coordinate":{"lat":50.8663902282715,"lng":5.8905553817749},"countryCode":"NL","name":"Klimmen-Ransdaal","stationCode":"KMR","uicCode":"8400362"},{"coordinate":{"lat":50.856388092041,"lng":5.87222242355347},"countryCode":"NL","name":"Schin op Geul","stationCode":"SOG","uicCode":"8400555"},{"coordinate":{"lat":50.8697204589844,"lng":5.83222198486328},"countryCode":"NL","name":"Valkenburg","stationCode":"VK","uicCode":"8400632"},{"coordinate":{"lat":50.8733329772949,"lng":5.79722213745117},"countryCode":"NL","name":"Houthem-St. Gerlach","stationCode":"SGL","uicCode":"8400341"},{"coordinate":{"lat":50.882879392551,"lng":5.75099945068359},"countryCode":"NL","name":"Meerssen","stationCode":"MES","uicCode":"8400434"},{"coordinate":{"lat":50.87087,"lng":5.71774},"countryCode":"NL","name":"Maastricht Noord","stationCode":"MTN","uicCode":"8400449"},{"coordinate":{"lat":50.8502769470215,"lng":5.70555543899536},"countryCode":"NL","name":"Maastricht","stationCode":"MT","uicCode":"8400424"}],"direction":"BOTH"},"consequence":{"section":{"stations":[{"coordinate":{"lat":50.8908348083496,"lng":5.97499990463257},"countryCode":"NL","name":"Heerlen","stationCode":"HRL","uicCode":"8400307"},{"coordinate":{"lat":50.896667,"lng":5.952222},"countryCode":"NL","name":"Heerlen Woonboulevard","stationCode":"HRLW","uicCode":"8400404"},{"coordinate":{"lat":50.8872222900391,"lng":5.93027782440186},"countryCode":"NL","name":"Voerendaal","stationCode":"VDL","uicCode":"8400656"},{"coordinate":{"lat":50.8663902282715,"lng":5.8905553817749},"countryCode":"NL","name":"Klimmen-Ransdaal","stationCode":"KMR","uicCode":"8400362"},{"coordinate":{"lat":50.856388092041,"lng":5.87222242355347},"countryCode":"NL","name":"Schin op Geul","stationCode":"SOG","uicCode":"8400555"},{"coordinate":{"lat":50.8697204589844,"lng":5.83222198486328},"countryCode":"NL","name":"Valkenburg","stationCode":"VK","uicCode":"8400632"},{"coordinate":{"lat":50.8733329772949,"lng":5.79722213745117},"countryCode":"NL","name":"Houthem-St. Gerlach","stationCode":"SGL","uicCode":"8400341"},{"coordinate":{"lat":50.882879392551,"lng":5.75099945068359},"countryCode":"NL","name":"Meerssen","stationCode":"MES","uicCode":"8400434"},{"coordinate":{"lat":50.87087,"lng":5.71774},"countryCode":"NL","name":"Maastricht Noord","stationCode":"MTN","uicCode":"8400449"},{"coordinate":{"lat":50.8502769470215,"lng":5.70555543899536},"countryCode":"NL","name":"Maastricht","stationCode":"MT","uicCode":"8400424"}],"direction":"ONE_WAY"},"description":"geen Sneltreinen","level":"LESS_TRAINS"},"sectionType":"NL"}],"timespans":[{"start":"2023-12-11T04:00:00+0100","end":"2024-02-05T02:00:00+0100","period":"Maandag 11 december 4:00 uur t/m maandag 5 februari 2:00 uur.","situation":{"label":"Door beperkingen in de materieelinzet: tussen Heerlen en Maastricht rijden er geen Sneltreinen."},"cause":{"label":"beperkingen materieel"},"additionalTravelTime":{"label":"U heeft geen langere reistijd.","shortLabel":"Geen extra reistijd"},"alternativeTransport":{"label":"er rijden snelbussen","shortLabel":"er rijden snelbussen"},"advices":["RE 18 rijdt niet. Aanvullend rijden er Snelbussen via Valkenburg."]}],"alternativeTransportTimespans":[{"start":"2023-12-11T04:00:00+0100","end":"2024-02-05T02:00:00+0100","alternativeTransport":{"location":[{"station":{"coordinate":{"lat":50.8908348083496,"lng":5.97499990463257},"countryCode":"NL","name":"Heerlen","stationCode":"HRL","uicCode":"8400307"},"description":"vanaf de achterzijde van het station"},{"station":{"coordinate":{"lat":50.8697204589844,"lng":5.83222198486328},"countryCode":"NL","name":"Valkenburg","stationCode":"VK","uicCode":"8400632"},"description":"vanaf de voorzijde van het station"},{"station":{"coordinate":{"lat":50.8502769470215,"lng":5.70555543899536},"countryCode":"NL","name":"Maastricht","stationCode":"MT","uicCode":"8400424"},"description":"vanaf het Stationsplein"}],"label":"Er rijden snelbussen tussen Heerlen, Valkenburg en Maastricht.","shortLabel":"er rijden snelbussen Heerlen - Valkenburg - Maastricht"}}],"summaryAdditionalTravelTime":{"label":"U heeft geen langere reistijd.","shortLabel":"Geen extra reistijd"}},{"id":"7004379","isActive":true,"title":"Enschede - Gronau - Dortmund.","type":"MAINTENANCE","registrationTime":"2024-01-04T09:20:11+0100","releaseTime":"2024-01-04T09:20:11+0100","local":false,"titleSections":[[{"type":"STATION","value":"Enschede"},{"type":"STATION","value":"Lünen Hbf"},{"type":"ICON","value":"MAINTENANCE"},{"type":"STATION","value":"Dortmund Hbf"}]],"start":"2024-01-04T09:30:00+0100","end":"2024-01-15T23:59:00+0100","period":"Donderdag 4 januari 9:30 uur t/m maandag 15 januari 23:59 uur.","impact":{"value":2},"publicationSections":[{"section":{"stations":[{"coordinate":{"lat":52.2224998474121,"lng":6.8899998664856},"countryCode":"NL","name":"Enschede","stationCode":"ES","uicCode":"8400212"},{"coordinate":{"lat":52.2213897705078,"lng":6.95111131668091},"countryCode":"NL","name":"Enschede De Eschmarke","stationCode":"ESE","uicCode":"8400217"},{"coordinate":{"lat":52.2186126708984,"lng":6.97444438934326},"countryCode":"NL","name":"Glanerbrug","stationCode":"GBR","uicCode":"8400262"},{"coordinate":{"lat":52.21521,"lng":7.022109},"countryCode":"D","name":"Gronau (Westf.)","stationCode":"G","uicCode":"8021128"},{"coordinate":{"lat":52.18346,"lng":7.03009},"countryCode":"D","name":"Epe (Westf)","stationCode":"EEPE","uicCode":"8021126"},{"coordinate":{"lat":52.079796120944,"lng":7.01635837554931},"countryCode":"D","name":"Ahaus","stationCode":"EAHS","uicCode":"8021123"},{"coordinate":{"lat":52.034924,"lng":7.088538},"countryCode":"D","name":"Legden","stationCode":"ELGD","uicCode":"8021122"},{"coordinate":{"lat":51.9994672604096,"lng":7.1215009689331},"countryCode":"D","name":"Rosendahl-Holtwick","stationCode":"EHW","uicCode":"8021121"},{"coordinate":{"lat":51.939,"lng":7.1642},"countryCode":"D","name":"Coesfeld (Westf)","stationCode":"ECMF","uicCode":"8021119"},{"coordinate":{"lat":51.8925,"lng":7.187},"countryCode":"D","name":"Lette (Kr Coesfeld)","stationCode":"ELET","uicCode":"8021117"},{"coordinate":{"lat":51.827927,"lng":7.295756},"countryCode":"D","name":"Dülmen","stationCode":"EDULH","uicCode":"8021005"},{"coordinate":{"lat":51.76184,"lng":7.43165},"countryCode":"D","name":"Lüdinghausen","stationCode":"ELDH","uicCode":"8021113"},{"coordinate":{"lat":51.707885,"lng":7.453396},"countryCode":"D","name":"Selm","stationCode":"ESEM","uicCode":"8021112"},{"coordinate":{"lat":51.692947,"lng":7.454829},"countryCode":"D","name":"Selm-Beifang","stationCode":"ESEB","uicCode":"8021120"},{"coordinate":{"lat":51.66988,"lng":7.45664},"countryCode":"D","name":"Bork (Westf)","stationCode":"EBOK","uicCode":"8021111"},{"coordinate":{"lat":51.61713,"lng":7.52949},"countryCode":"D","name":"Lünen Hbf","stationCode":"ELUE","uicCode":"8010098"},{"coordinate":{"lat":51.58833,"lng":7.53933},"countryCode":"D","name":"Preussen","stationCode":"EPRN","uicCode":"8010100"},{"coordinate":{"lat":51.56754,"lng":7.52855},"countryCode":"D","name":"Dortmund-Derne","stationCode":"EDD","uicCode":"8010101"},{"coordinate":{"lat":51.547076,"lng":7.510099},"countryCode":"D","name":"Dortmund-Kirchderne","stationCode":"EDKD","uicCode":"8010102"},{"coordinate":{"lat":51.517896,"lng":7.45929},"countryCode":"D","name":"Dortmund Hbf","stationCode":"EDO","uicCode":"8010053"}],"direction":"BOTH"},"consequence":{"section":{"stations":[{"coordinate":{"lat":51.61713,"lng":7.52949},"countryCode":"D","name":"Lünen Hbf","stationCode":"ELUE","uicCode":"8010098"},{"coordinate":{"lat":51.58833,"lng":7.53933},"countryCode":"D","name":"Preussen","stationCode":"EPRN","uicCode":"8010100"},{"coordinate":{"lat":51.56754,"lng":7.52855},"countryCode":"D","name":"Dortmund-Derne","stationCode":"EDD","uicCode":"8010101"},{"coordinate":{"lat":51.547076,"lng":7.510099},"countryCode":"D","name":"Dortmund-Kirchderne","stationCode":"EDKD","uicCode":"8010102"},{"coordinate":{"lat":51.517896,"lng":7.45929},"countryCode":"D","name":"Dortmund Hbf","stationCode":"EDO","uicCode":"8010053"}],"direction":"ONE_WAY"},"description":"aangepaste internationale dienstregeling","level":"LESS_TRAINS"},"sectionType":"NEIGHBORING_COUNTRY"}],"timespans":[{"start":"2024-01-04T09:30:00+0100","end":"2024-01-15T23:59:00+0100","period":"Donderdag 4 januari 9:30 uur t/m maandag 15 januari 23:59 uur.","situation":{"label":"Door wateroverlast: tussen Lünen Hbf en Dortmund Hbf is de internationale dienstregeling aangepast."},"cause":{"label":"wateroverlast"},"additionalTravelTime":{"label":"U heeft geen langere reistijd.","shortLabel":"Geen extra reistijd"},"alternativeTransport":{"label":"er rijden stopbussen","shortLabel":"er rijden stopbussen"},"advices":[]}],"alternativeTransportTimespans":[{"start":"2024-01-04T09:30:00+0100","end":"2024-01-15T23:59:00+0100","alternativeTransport":{"location":[],"label":"Er rijden stopbussen tussen Lünen Hbf en Dortmund Hbf.","shortLabel":"er rijden stopbussen Lünen Hbf - Dortmund Hbf"}}],"summaryAdditionalTravelTime":{"label":"U heeft geen langere reistijd.","shortLabel":"Geen extra reistijd"}},{"id":"7004392","isActive":true,"title":"Arnhem - Duisburg - Düsseldorf.","type":"MAINTENANCE","registrationTime":"2024-01-08T07:46:55+0100","releaseTime":"2024-01-08T07:46:55+0100","local":false,"titleSections":[[{"type":"STATION","value":"Arnhem C."},{"type":"ICON","value":"MAINTENANCE"},{"type":"STATION","value":"Oberhausen Hbf"},{"type":"STATION","value":"Düsseldorf Hbf"}]],"start":"2024-01-05T20:00:00+0100","end":"2024-01-19T22:00:00+0100","period":"Vrijdag 5 januari 20:00 uur t/m vrijdag 19 januari 22:00 uur.","impact":{"value":3},"publicationSections":[{"section":{"stations":[{"coordinate":{"lat":51.9850006103516,"lng":5.89916658401489},"countryCode":"NL","name":"Arnhem Centraal","stationCode":"AH","uicCode":"8400071"},{"coordinate":{"lat":51.985279083252,"lng":5.91944456100464},"countryCode":"NL","name":"Arnhem Velperpoort","stationCode":"AHP","uicCode":"8400072"},{"coordinate":{"lat":51.96286,"lng":5.9695},"countryCode":"NL","name":"Westervoort","stationCode":"WTV","uicCode":"8400688"},{"coordinate":{"lat":51.9433326721191,"lng":6.01472234725952},"countryCode":"NL","name":"Duiven","stationCode":"DVN","uicCode":"8400193"},{"coordinate":{"lat":51.9230537414551,"lng":6.07194423675537},"countryCode":"NL","name":"Zevenaar","stationCode":"ZV","uicCode":"8400735"},{"coordinate":{"lat":51.8743,"lng":6.15417},"countryCode":"D","name":"Emmerich-Elten","stationCode":"EL","uicCode":"8033415"},{"coordinate":{"lat":51.834283,"lng":6.255718},"countryCode":"D","name":"Emmerich","stationCode":"EM","uicCode":"8010288"},{"coordinate":{"lat":51.655833,"lng":6.627222},"countryCode":"D","name":"Wesel","stationCode":"WESEL","uicCode":"8010275"},{"coordinate":{"lat":51.47512,"lng":6.852038},"countryCode":"D","name":"Oberhausen Hbf","stationCode":"OBERH","uicCode":"8010263"},{"coordinate":{"lat":51.4297785713316,"lng":6.77590370178222},"countryCode":"D","name":"Duisburg Hbf","stationCode":"DUISB","uicCode":"8010316"},{"coordinate":{"lat":51.292009,"lng":6.786836},"countryCode":"D","name":"Düsseldorf Flughafen","stationCode":"KDFFH","uicCode":"8039904"},{"coordinate":{"lat":51.220146,"lng":6.793137},"countryCode":"D","name":"Düsseldorf Hbf","stationCode":"DUSSEL","uicCode":"8008094"}],"direction":"BOTH"},"consequence":{"section":{"stations":[{"coordinate":{"lat":51.9850006103516,"lng":5.89916658401489},"countryCode":"NL","name":"Arnhem Centraal","stationCode":"AH","uicCode":"8400071"},{"coordinate":{"lat":51.985279083252,"lng":5.91944456100464},"countryCode":"NL","name":"Arnhem Velperpoort","stationCode":"AHP","uicCode":"8400072"},{"coordinate":{"lat":51.96286,"lng":5.9695},"countryCode":"NL","name":"Westervoort","stationCode":"WTV","uicCode":"8400688"},{"coordinate":{"lat":51.9433326721191,"lng":6.01472234725952},"countryCode":"NL","name":"Duiven","stationCode":"DVN","uicCode":"8400193"},{"coordinate":{"lat":51.9230537414551,"lng":6.07194423675537},"countryCode":"NL","name":"Zevenaar","stationCode":"ZV","uicCode":"8400735"},{"coordinate":{"lat":51.8743,"lng":6.15417},"countryCode":"D","name":"Emmerich-Elten","stationCode":"EL","uicCode":"8033415"},{"coordinate":{"lat":51.834283,"lng":6.255718},"countryCode":"D","name":"Emmerich","stationCode":"EM","uicCode":"8010288"},{"coordinate":{"lat":51.655833,"lng":6.627222},"countryCode":"D","name":"Wesel","stationCode":"WESEL","uicCode":"8010275"},{"coordinate":{"lat":51.47512,"lng":6.852038},"countryCode":"D","name":"Oberhausen Hbf","stationCode":"OBERH","uicCode":"8010263"}],"direction":"ONE_WAY"},"description":"rijden bussen","level":"LESS_TRAINS"},"sectionType":"NEIGHBORING_COUNTRY"}],"timespans":[{"start":"2024-01-05T20:00:00+0100","end":"2024-01-19T22:00:00+0100","period":"Vrijdag 5 januari 20:00 uur t/m vrijdag 19 januari 22:00 uur.","situation":{"label":"Door werkzaamheden: tussen Arnhem Centraal en Oberhausen Hbf rijden er bussen."},"cause":{"label":"werkzaamheden"},"alternativeTransport":{"label":"er rijden snelbussen","shortLabel":"er rijden snelbussen"},"advices":[]}],"alternativeTransportTimespans":[{"start":"2024-01-05T20:00:00+0100","end":"2024-01-19T22:00:00+0100","alternativeTransport":{"location":[{"station":{"coordinate":{"lat":51.9850006103516,"lng":5.89916658401489},"countryCode":"NL","name":"Arnhem Centraal","stationCode":"AH","uicCode":"8400071"},"description":"vanaf de bus-terminal"},{"station":{"coordinate":{"lat":51.9230537414551,"lng":6.07194423675537},"countryCode":"NL","name":"Zevenaar","stationCode":"ZV","uicCode":"8400735"},"description":"vanaf het stationsplein bij de Kiss & Ride plaatsen, aan beide zijden van de weg"}],"label":"Er rijden snelbussen tussen Arnhem Centraal, Zevenaar en Emmerich-Elten.","shortLabel":"er rijden snelbussen Arnhem C. - Zevenaar - Emmerich-Elten"}}]},{"id":"7004378","isActive":true,"title":"Amsterdam - Rotterdam - Breda (HSL).","type":"MAINTENANCE","registrationTime":"2024-01-08T08:00:46+0100","releaseTime":"2024-01-08T08:00:46+0100","local":false,"titleSections":[[{"type":"STATION","value":"Amsterdam C."},{"type":"STATION","value":"Rotterdam C."},{"type":"ICON","value":"MAINTENANCE"},{"type":"STATION","value":"Breda"}]],"start":"2024-01-08T04:00:00+0100","end":"2024-01-13T02:00:00+0100","period":"Maandag 8 januari 4:00 uur t/m zaterdag 13 januari 2:00 uur.","impact":{"value":2},"publicationSections":[{"section":{"stations":[{"coordinate":{"lat":52.3788871765137,"lng":4.90027761459351},"countryCode":"NL","name":"Amsterdam Centraal","stationCode":"ASD","uicCode":"8400058"},{"coordinate":{"lat":52.3888893127441,"lng":4.83777761459351},"countryCode":"NL","name":"Amsterdam Sloterdijk","stationCode":"ASS","uicCode":"8400059"},{"coordinate":{"lat":52.3577766418457,"lng":4.83388900756836},"countryCode":"NL","name":"Amsterdam Lelylaan","stationCode":"ASDL","uicCode":"8400079"},{"coordinate":{"lat":52.3094444274902,"lng":4.76194429397583},"countryCode":"NL","name":"Schiphol Airport","stationCode":"SHL","uicCode":"8400561"},{"coordinate":{"lat":52.2933349609375,"lng":4.70055532455444},"countryCode":"NL","name":"Hoofddorp","stationCode":"HFD","uicCode":"8400332"},{"coordinate":{"lat":51.9249992370605,"lng":4.46888875961304},"countryCode":"NL","name":"Rotterdam Centraal","stationCode":"RTD","uicCode":"8400530"},{"coordinate":{"lat":51.9202766418457,"lng":4.48888874053955},"countryCode":"NL","name":"Rotterdam Blaak","stationCode":"RTB","uicCode":"8400529"},{"coordinate":{"lat":51.9044456481934,"lng":4.51027774810791},"countryCode":"NL","name":"Rotterdam Zuid","stationCode":"RTZ","uicCode":"8400533"},{"coordinate":{"lat":51.8800010681152,"lng":4.53138875961304},"countryCode":"NL","name":"Rotterdam Lombardijen","stationCode":"RLB","uicCode":"8400542"},{"coordinate":{"lat":51.606388092041,"lng":4.72083330154419},"countryCode":"NL","name":"Breda-Prinsenbeek","stationCode":"BDPB","uicCode":"8400132"},{"coordinate":{"lat":51.5955543518066,"lng":4.78000020980835},"countryCode":"NL","name":"Breda","stationCode":"BD","uicCode":"8400131"}],"direction":"BOTH"},"consequence":{"section":{"stations":[{"coordinate":{"lat":51.9249992370605,"lng":4.46888875961304},"countryCode":"NL","name":"Rotterdam Centraal","stationCode":"RTD","uicCode":"8400530"},{"coordinate":{"lat":51.9202766418457,"lng":4.48888874053955},"countryCode":"NL","name":"Rotterdam Blaak","stationCode":"RTB","uicCode":"8400529"},{"coordinate":{"lat":51.9044456481934,"lng":4.51027774810791},"countryCode":"NL","name":"Rotterdam Zuid","stationCode":"RTZ","uicCode":"8400533"},{"coordinate":{"lat":51.8800010681152,"lng":4.53138875961304},"countryCode":"NL","name":"Rotterdam Lombardijen","stationCode":"RLB","uicCode":"8400542"},{"coordinate":{"lat":51.606388092041,"lng":4.72083330154419},"countryCode":"NL","name":"Breda-Prinsenbeek","stationCode":"BDPB","uicCode":"8400132"},{"coordinate":{"lat":51.5955543518066,"lng":4.78000020980835},"countryCode":"NL","name":"Breda","stationCode":"BD","uicCode":"8400131"}],"direction":"ONE_WAY"},"description":"dienstregeling aangepast","level":"LESS_TRAINS"},"sectionType":"HSL"}],"timespans":[{"start":"2024-01-08T04:00:00+0100","end":"2024-01-13T02:00:00+0100","period":"Maandag 8 januari 4:00 uur t/m zaterdag 13 januari 2:00 uur.","situation":{"label":"Door een verstoring elders: tussen Rotterdam Centraal en Breda is de dienstregeling aangepast."},"cause":{"label":"een verstoring elders"},"additionalTravelTime":{"label":"U heeft geen langere reistijd.","shortLabel":"Geen extra reistijd"},"advices":["IC direct Amsterdam-Rotterdam rijdt verder naar/van Eindhoven C. Overstappen in Rotterdam C is niet nodig."]}],"alternativeTransportTimespans":[],"summaryAdditionalTravelTime":{"label":"U heeft geen langere reistijd.","shortLabel":"Geen extra reistijd"}},{"id":"7004377","isActive":true,"title":"Den Haag - Rotterdam - Eindhoven (HSL).","type":"MAINTENANCE","registrationTime":"2024-01-08T07:49:34+0100","releaseTime":"2024-01-08T07:49:34+0100","local":false,"titleSections":[[{"type":"STATION","value":"Den Haag C."},{"type":"ICON","value":"MAINTENANCE"},{"type":"STATION","value":"Rotterdam C."},{"type":"STATION","value":"Eindhoven C."}]],"start":"2024-01-08T04:00:00+0100","end":"2024-01-13T02:00:00+0100","period":"Maandag 8 januari 4:00 uur t/m zaterdag 13 januari 2:00 uur.","impact":{"value":2},"publicationSections":[{"section":{"stations":[{"coordinate":{"lat":52.0802764892578,"lng":4.32499980926514},"countryCode":"NL","name":"Den Haag Centraal","stationCode":"GVC","uicCode":"8400282"},{"coordinate":{"lat":52.0697212219238,"lng":4.32250022888184},"countryCode":"NL","name":"Den Haag HS","stationCode":"GV","uicCode":"8400280"},{"coordinate":{"lat":52.0538902282715,"lng":4.3086109161377},"countryCode":"NL","name":"Den Haag Moerwijk","stationCode":"GVMW","uicCode":"8400279"},{"coordinate":{"lat":52.039722442627,"lng":4.31916666030884},"countryCode":"NL","name":"Rijswijk","stationCode":"RSW","uicCode":"8400505"},{"coordinate":{"lat":52.0066680908203,"lng":4.35638904571533},"countryCode":"NL","name":"Delft","stationCode":"DT","uicCode":"8400170"},{"coordinate":{"lat":51.9908332824707,"lng":4.36472225189209},"countryCode":"NL","name":"Delft Campus","stationCode":"DTCP","uicCode":"8400166"},{"coordinate":{"lat":51.9212438128032,"lng":4.4089937210083},"countryCode":"NL","name":"Schiedam Centrum","stationCode":"SDM","uicCode":"8400553"},{"coordinate":{"lat":51.9249992370605,"lng":4.46888875961304},"countryCode":"NL","name":"Rotterdam Centraal","stationCode":"RTD","uicCode":"8400530"},{"coordinate":{"lat":51.9202766418457,"lng":4.48888874053955},"countryCode":"NL","name":"Rotterdam Blaak","stationCode":"RTB","uicCode":"8400529"},{"coordinate":{"lat":51.9044456481934,"lng":4.51027774810791},"countryCode":"NL","name":"Rotterdam Zuid","stationCode":"RTZ","uicCode":"8400533"},{"coordinate":{"lat":51.8800010681152,"lng":4.53138875961304},"countryCode":"NL","name":"Rotterdam Lombardijen","stationCode":"RLB","uicCode":"8400542"},{"coordinate":{"lat":51.606388092041,"lng":4.72083330154419},"countryCode":"NL","name":"Breda-Prinsenbeek","stationCode":"BDPB","uicCode":"8400132"},{"coordinate":{"lat":51.5955543518066,"lng":4.78000020980835},"countryCode":"NL","name":"Breda","stationCode":"BD","uicCode":"8400131"},{"coordinate":{"lat":51.583610534668,"lng":4.92611122131348},"countryCode":"NL","name":"Gilze-Rijen","stationCode":"GZ","uicCode":"8400251"},{"coordinate":{"lat":51.5736122131348,"lng":4.99444437026978},"countryCode":"NL","name":"Tilburg Reeshof","stationCode":"TBR","uicCode":"8400598"},{"coordinate":{"lat":51.564985,"lng":5.051778},"countryCode":"NL","name":"Tilburg Universiteit","stationCode":"TBU","uicCode":"8400594"},{"coordinate":{"lat":51.5605545043945,"lng":5.08361101150513},"countryCode":"NL","name":"Tilburg","stationCode":"TB","uicCode":"8400597"},{"coordinate":{"lat":51.5822219848633,"lng":5.19416666030884},"countryCode":"NL","name":"Oisterwijk","stationCode":"OT","uicCode":"8400482"},{"coordinate":{"lat":51.58433,"lng":5.31912},"countryCode":"NL","name":"Boxtel","stationCode":"BTL","uicCode":"8400129"},{"coordinate":{"lat":51.5099983215332,"lng":5.38916683197022},"countryCode":"NL","name":"Best","stationCode":"BET","uicCode":"8400112"},{"coordinate":{"lat":51.4511108398438,"lng":5.45583343505859},"countryCode":"NL","name":"Eindhoven Strijp-S","stationCode":"EHS","uicCode":"8400196"},{"coordinate":{"lat":51.4433326721191,"lng":5.48138904571533},"countryCode":"NL","name":"Eindhoven Centraal","stationCode":"EHV","uicCode":"8400206"}],"direction":"BOTH"},"consequence":{"section":{"stations":[{"coordinate":{"lat":52.0802764892578,"lng":4.32499980926514},"countryCode":"NL","name":"Den Haag Centraal","stationCode":"GVC","uicCode":"8400282"},{"coordinate":{"lat":52.0697212219238,"lng":4.32250022888184},"countryCode":"NL","name":"Den Haag HS","stationCode":"GV","uicCode":"8400280"},{"coordinate":{"lat":52.0538902282715,"lng":4.3086109161377},"countryCode":"NL","name":"Den Haag Moerwijk","stationCode":"GVMW","uicCode":"8400279"},{"coordinate":{"lat":52.039722442627,"lng":4.31916666030884},"countryCode":"NL","name":"Rijswijk","stationCode":"RSW","uicCode":"8400505"},{"coordinate":{"lat":52.0066680908203,"lng":4.35638904571533},"countryCode":"NL","name":"Delft","stationCode":"DT","uicCode":"8400170"},{"coordinate":{"lat":51.9908332824707,"lng":4.36472225189209},"countryCode":"NL","name":"Delft Campus","stationCode":"DTCP","uicCode":"8400166"},{"coordinate":{"lat":51.9212438128032,"lng":4.4089937210083},"countryCode":"NL","name":"Schiedam Centrum","stationCode":"SDM","uicCode":"8400553"},{"coordinate":{"lat":51.9249992370605,"lng":4.46888875961304},"countryCode":"NL","name":"Rotterdam Centraal","stationCode":"RTD","uicCode":"8400530"}],"direction":"ONE_WAY"},"description":"minder Intercity's","level":"LESS_TRAINS"},"sectionType":"HSL"}],"timespans":[{"start":"2024-01-08T04:00:00+0100","end":"2024-01-13T02:00:00+0100","period":"Maandag 8 januari 4:00 uur t/m zaterdag 13 januari 2:00 uur.","situation":{"label":"Door een aangepaste dienstregeling: tussen Den Haag Centraal en Rotterdam Centraal rijden er minder Intercity's."},"cause":{"label":"aangepaste dienstregeling"},"additionalTravelTime":{"label":"De extra reistijd is ongeveer 15 minuten.","shortLabel":"extra reistijd 15 min.","minimumDurationInMinutes":15,"maximumDurationInMinutes":15},"advices":["Intercity Den Haag-Eindhoven rijdt niet tussen Den Haag C en Rotterdam C."]}],"alternativeTransportTimespans":[],"summaryAdditionalTravelTime":{"label":"De extra reistijd is ongeveer 15 minuten.","shortLabel":"extra reistijd 15 min.","minimumDurationInMinutes":15,"maximumDurationInMinutes":15}},{"id":"7004369","isActive":false,"title":"Roosendaal - Vlissingen.","type":"MAINTENANCE","registrationTime":"2024-01-07T16:18:50+0100","releaseTime":"2024-01-07T16:18:50+0100","local":false,"titleSections":[[{"type":"STATION","value":"Roosendaal"},{"type":"ICON","value":"MAINTENANCE"},{"type":"STATION","value":"Vlissingen"}]],"start":"2024-01-09T22:45:00+0100","end":"2024-01-10T02:15:00+0100","period":"Dinsdag 9 januari 22:45 uur t/m woensdag 10 januari 2:15 uur.","impact":{"value":3},"publicationSections":[{"section":{"stations":[{"coordinate":{"lat":51.5402793884277,"lng":4.45833349227905},"countryCode":"NL","name":"Roosendaal","stationCode":"RSD","uicCode":"8400526"},{"coordinate":{"lat":51.4938888549805,"lng":4.29611110687256},"countryCode":"NL","name":"Bergen op Zoom","stationCode":"BGN","uicCode":"8400108"},{"coordinate":{"lat":51.422779083252,"lng":4.16111087799072},"countryCode":"NL","name":"Rilland-Bath","stationCode":"RB","uicCode":"8400521"},{"coordinate":{"lat":51.4333343505859,"lng":4.11694431304932},"countryCode":"NL","name":"Krabbendijke","stationCode":"KBD","uicCode":"8400367"},{"coordinate":{"lat":51.4650001525879,"lng":4.03722238540649},"countryCode":"NL","name":"Kruiningen-Yerseke","stationCode":"KRG","uicCode":"8400370"},{"coordinate":{"lat":51.4808349609375,"lng":3.95611119270325},"countryCode":"NL","name":"Kapelle-Biezelinge","stationCode":"BZL","uicCode":"8400354"},{"coordinate":{"lat":51.4980545043945,"lng":3.89055562019348},"countryCode":"NL","name":"Goes","stationCode":"GS","uicCode":"8400253"},{"coordinate":{"lat":51.5016670227051,"lng":3.66916656494141},"countryCode":"NL","name":"Arnemuiden","stationCode":"ARN","uicCode":"8400069"},{"coordinate":{"lat":51.4947204589844,"lng":3.61722230911255},"countryCode":"NL","name":"Middelburg","stationCode":"MDB","uicCode":"8400436"},{"coordinate":{"lat":51.4647216796875,"lng":3.59527778625488},"countryCode":"NL","name":"Vlissingen Souburg","stationCode":"VSS","uicCode":"8400653"},{"coordinate":{"lat":51.4458351135254,"lng":3.59527778625488},"countryCode":"NL","name":"Vlissingen","stationCode":"VS","uicCode":"8400652"}],"direction":"BOTH"},"consequence":{"section":{"stations":[{"coordinate":{"lat":51.5402793884277,"lng":4.45833349227905},"countryCode":"NL","name":"Roosendaal","stationCode":"RSD","uicCode":"8400526"},{"coordinate":{"lat":51.4938888549805,"lng":4.29611110687256},"countryCode":"NL","name":"Bergen op Zoom","stationCode":"BGN","uicCode":"8400108"},{"coordinate":{"lat":51.422779083252,"lng":4.16111087799072},"countryCode":"NL","name":"Rilland-Bath","stationCode":"RB","uicCode":"8400521"},{"coordinate":{"lat":51.4333343505859,"lng":4.11694431304932},"countryCode":"NL","name":"Krabbendijke","stationCode":"KBD","uicCode":"8400367"},{"coordinate":{"lat":51.4650001525879,"lng":4.03722238540649},"countryCode":"NL","name":"Kruiningen-Yerseke","stationCode":"KRG","uicCode":"8400370"},{"coordinate":{"lat":51.4808349609375,"lng":3.95611119270325},"countryCode":"NL","name":"Kapelle-Biezelinge","stationCode":"BZL","uicCode":"8400354"},{"coordinate":{"lat":51.4980545043945,"lng":3.89055562019348},"countryCode":"NL","name":"Goes","stationCode":"GS","uicCode":"8400253"},{"coordinate":{"lat":51.5016670227051,"lng":3.66916656494141},"countryCode":"NL","name":"Arnemuiden","stationCode":"ARN","uicCode":"8400069"},{"coordinate":{"lat":51.4947204589844,"lng":3.61722230911255},"countryCode":"NL","name":"Middelburg","stationCode":"MDB","uicCode":"8400436"},{"coordinate":{"lat":51.4647216796875,"lng":3.59527778625488},"countryCode":"NL","name":"Vlissingen Souburg","stationCode":"VSS","uicCode":"8400653"},{"coordinate":{"lat":51.4458351135254,"lng":3.59527778625488},"countryCode":"NL","name":"Vlissingen","stationCode":"VS","uicCode":"8400652"}],"direction":"ONE_WAY"},"description":"rijden bussen","level":"LESS_TRAINS"},"sectionType":"NL"}],"timespans":[{"start":"2024-01-09T22:45:00+0100","end":"2024-01-10T02:15:00+0100","period":"Dinsdag 9 januari 22:45 uur t/m woensdag 10 januari 2:15 uur.","situation":{"label":"Door herstelwerkzaamheden: tussen Roosendaal en Vlissingen rijden er bussen."},"cause":{"label":"herstelwerkzaamheden"},"additionalTravelTime":{"label":"De extra reistijd is ongeveer 60 minuten.","shortLabel":"extra reistijd 60 min.","minimumDurationInMinutes":60,"maximumDurationInMinutes":60},"alternativeTransport":{"label":"er rijden bussen","shortLabel":"er rijden bussen"},"advices":[]}],"alternativeTransportTimespans":[{"start":"2024-01-09T22:45:00+0100","end":"2024-01-10T02:15:00+0100","alternativeTransport":{"location":[{"station":{"coordinate":{"lat":51.5402793884277,"lng":4.45833349227905},"countryCode":"NL","name":"Roosendaal","stationCode":"RSD","uicCode":"8400526"},"description":"vanaf de voorzijde van het station"},{"station":{"coordinate":{"lat":51.4938888549805,"lng":4.29611110687256},"countryCode":"NL","name":"Bergen op Zoom","stationCode":"BGN","uicCode":"8400108"},"description":"vanaf het Stationsplein"},{"station":{"coordinate":{"lat":51.422779083252,"lng":4.16111087799072},"countryCode":"NL","name":"Rilland-Bath","stationCode":"RB","uicCode":"8400521"},"description":"vanaf de Provinciale weg"},{"station":{"coordinate":{"lat":51.4333343505859,"lng":4.11694431304932},"countryCode":"NL","name":"Krabbendijke","stationCode":"KBD","uicCode":"8400367"},"description":"vanaf de voorzijde van het station"},{"station":{"coordinate":{"lat":51.4650001525879,"lng":4.03722238540649},"countryCode":"NL","name":"Kruiningen-Yerseke","stationCode":"KRG","uicCode":"8400370"},"description":"vanaf de voorzijde van het station"},{"station":{"coordinate":{"lat":51.4808349609375,"lng":3.95611119270325},"countryCode":"NL","name":"Kapelle-Biezelinge","stationCode":"BZL","uicCode":"8400354"},"description":"vanaf de voorzijde van het station"},{"station":{"coordinate":{"lat":51.4980545043945,"lng":3.89055562019348},"countryCode":"NL","name":"Goes","stationCode":"GS","uicCode":"8400253"},"description":"vanaf de achterzijde van het station"},{"station":{"coordinate":{"lat":51.5016670227051,"lng":3.66916656494141},"countryCode":"NL","name":"Arnemuiden","stationCode":"ARN","uicCode":"8400069"},"description":"vanaf de Provinciale weg"},{"station":{"coordinate":{"lat":51.4947204589844,"lng":3.61722230911255},"countryCode":"NL","name":"Middelburg","stationCode":"MDB","uicCode":"8400436"},"description":"vanaf de achterzijde van het station"},{"station":{"coordinate":{"lat":51.4647216796875,"lng":3.59527778625488},"countryCode":"NL","name":"Vlissingen Souburg","stationCode":"VSS","uicCode":"8400653"},"description":"vanaf de achterzijde van het station"},{"station":{"coordinate":{"lat":51.4458351135254,"lng":3.59527778625488},"countryCode":"NL","name":"Vlissingen","stationCode":"VS","uicCode":"8400652"},"description":"vanaf het Stationsplein"}],"label":"Er rijden bussen tussen Roosendaal, Bergen op Zoom, Rilland-Bath, Krabbendijke, Kruiningen-Yerseke, Kapelle-Biezelinge, Goes, Arnemuiden, Middelburg, Vlissingen Souburg en Vlissingen.","shortLabel":"er rijden bussen Roosendaal - Bergen op Zoom - Rilland-Bath - Krabbendijke - Kruiningen-Y. - Kapelle-Biezel. - Goes - Arnemuiden - Middelburg - Souburg - Vlissingen"}}],"summaryAdditionalTravelTime":{"label":"De extra reistijd is ongeveer 60 minuten.","shortLabel":"extra reistijd 60 min.","minimumDurationInMinutes":60,"maximumDurationInMinutes":60}},{"id":"7004375","isActive":false,"title":"Schiphol - Leiden.","type":"MAINTENANCE","registrationTime":"2024-01-03T11:46:49+0100","releaseTime":"2024-01-03T11:46:49+0100","local":false,"titleSections":[[{"type":"STATION","value":"Schiphol Airport"},{"type":"ICON","value":"MAINTENANCE"},{"type":"STATION","value":"Leiden C."}]],"start":"2024-01-10T01:15:00+0100","end":"2024-01-10T05:15:00+0100","period":"Woensdag 10 januari 1:15 uur t/m woensdag 10 januari 5:15 uur.","impact":{"value":3},"publicationSections":[{"section":{"stations":[{"coordinate":{"lat":52.3094444274902,"lng":4.76194429397583},"countryCode":"NL","name":"Schiphol Airport","stationCode":"SHL","uicCode":"8400561"},{"coordinate":{"lat":52.2933349609375,"lng":4.70055532455444},"countryCode":"NL","name":"Hoofddorp","stationCode":"HFD","uicCode":"8400332"},{"coordinate":{"lat":52.2588882446289,"lng":4.64555549621582},"countryCode":"NL","name":"Nieuw Vennep","stationCode":"NVP","uicCode":"8400460"},{"coordinate":{"lat":52.215278,"lng":4.517222},"countryCode":"NL","name":"Sassenheim","stationCode":"SSH","uicCode":"8400603"},{"coordinate":{"lat":52.1661109924316,"lng":4.48166656494141},"countryCode":"NL","name":"Leiden Centraal","stationCode":"LEDN","uicCode":"8400390"}],"direction":"BOTH"},"consequence":{"section":{"stations":[{"coordinate":{"lat":52.3094444274902,"lng":4.76194429397583},"countryCode":"NL","name":"Schiphol Airport","stationCode":"SHL","uicCode":"8400561"},{"coordinate":{"lat":52.2933349609375,"lng":4.70055532455444},"countryCode":"NL","name":"Hoofddorp","stationCode":"HFD","uicCode":"8400332"},{"coordinate":{"lat":52.2588882446289,"lng":4.64555549621582},"countryCode":"NL","name":"Nieuw Vennep","stationCode":"NVP","uicCode":"8400460"},{"coordinate":{"lat":52.215278,"lng":4.517222},"countryCode":"NL","name":"Sassenheim","stationCode":"SSH","uicCode":"8400603"},{"coordinate":{"lat":52.1661109924316,"lng":4.48166656494141},"countryCode":"NL","name":"Leiden Centraal","stationCode":"LEDN","uicCode":"8400390"}],"direction":"ONE_WAY"},"description":"rijden bussen","level":"LESS_TRAINS"},"sectionType":"NL"}],"timespans":[{"start":"2024-01-10T01:15:00+0100","end":"2024-01-10T05:15:00+0100","period":"Woensdag 10 januari 1:15 uur t/m woensdag 10 januari 5:15 uur.","situation":{"label":"Door werkzaamheden: tussen Schiphol Airport en Leiden Centraal rijden er bussen."},"cause":{"label":"werkzaamheden"},"additionalTravelTime":{"label":"De extra reistijd kan oplopen tot 15 minuten.","shortLabel":"extra reistijd tot 15 min.","maximumDurationInMinutes":15},"alternativeTransport":{"label":"er rijden snelbussen","shortLabel":"er rijden snelbussen"},"advices":[]}],"alternativeTransportTimespans":[{"start":"2024-01-10T01:15:00+0100","end":"2024-01-10T05:15:00+0100","alternativeTransport":{"location":[{"station":{"coordinate":{"lat":52.3094444274902,"lng":4.76194429397583},"countryCode":"NL","name":"Schiphol Airport","stationCode":"SHL","uicCode":"8400561"},"description":"van het busstation halte C15 en C17"},{"station":{"coordinate":{"lat":52.1661109924316,"lng":4.48166656494141},"countryCode":"NL","name":"Leiden Centraal","stationCode":"LEDN","uicCode":"8400390"},"description":"vanaf het stadsbusstation"}],"label":"Er rijden snelbussen tussen Schiphol Airport en Leiden Centraal.","shortLabel":"er rijden snelbussen Schiphol Airport - Leiden C."}}],"summaryAdditionalTravelTime":{"label":"De extra reistijd kan oplopen tot 15 minuten.","shortLabel":"extra reistijd tot 15 min.","maximumDurationInMinutes":15}},{"id":"7004370","isActive":false,"title":"Roosendaal - Vlissingen.","type":"MAINTENANCE","registrationTime":"2024-01-07T16:09:14+0100","releaseTime":"2024-01-07T16:09:14+0100","local":false,"titleSections":[[{"type":"STATION","value":"Roosendaal"},{"type":"ICON","value":"MAINTENANCE"},{"type":"STATION","value":"Vlissingen"}]],"start":"2024-01-10T22:45:00+0100","end":"2024-01-11T02:15:00+0100","period":"Woensdag 10 januari 22:45 uur t/m donderdag 11 januari 2:15 uur.","impact":{"value":3},"publicationSections":[{"section":{"stations":[{"coordinate":{"lat":51.5402793884277,"lng":4.45833349227905},"countryCode":"NL","name":"Roosendaal","stationCode":"RSD","uicCode":"8400526"},{"coordinate":{"lat":51.4938888549805,"lng":4.29611110687256},"countryCode":"NL","name":"Bergen op Zoom","stationCode":"BGN","uicCode":"8400108"},{"coordinate":{"lat":51.422779083252,"lng":4.16111087799072},"countryCode":"NL","name":"Rilland-Bath","stationCode":"RB","uicCode":"8400521"},{"coordinate":{"lat":51.4333343505859,"lng":4.11694431304932},"countryCode":"NL","name":"Krabbendijke","stationCode":"KBD","uicCode":"8400367"},{"coordinate":{"lat":51.4650001525879,"lng":4.03722238540649},"countryCode":"NL","name":"Kruiningen-Yerseke","stationCode":"KRG","uicCode":"8400370"},{"coordinate":{"lat":51.4808349609375,"lng":3.95611119270325},"countryCode":"NL","name":"Kapelle-Biezelinge","stationCode":"BZL","uicCode":"8400354"},{"coordinate":{"lat":51.4980545043945,"lng":3.89055562019348},"countryCode":"NL","name":"Goes","stationCode":"GS","uicCode":"8400253"},{"coordinate":{"lat":51.5016670227051,"lng":3.66916656494141},"countryCode":"NL","name":"Arnemuiden","stationCode":"ARN","uicCode":"8400069"},{"coordinate":{"lat":51.4947204589844,"lng":3.61722230911255},"countryCode":"NL","name":"Middelburg","stationCode":"MDB","uicCode":"8400436"},{"coordinate":{"lat":51.4647216796875,"lng":3.59527778625488},"countryCode":"NL","name":"Vlissingen Souburg","stationCode":"VSS","uicCode":"8400653"},{"coordinate":{"lat":51.4458351135254,"lng":3.59527778625488},"countryCode":"NL","name":"Vlissingen","stationCode":"VS","uicCode":"8400652"}],"direction":"BOTH"},"consequence":{"section":{"stations":[{"coordinate":{"lat":51.5402793884277,"lng":4.45833349227905},"countryCode":"NL","name":"Roosendaal","stationCode":"RSD","uicCode":"8400526"},{"coordinate":{"lat":51.4938888549805,"lng":4.29611110687256},"countryCode":"NL","name":"Bergen op Zoom","stationCode":"BGN","uicCode":"8400108"},{"coordinate":{"lat":51.422779083252,"lng":4.16111087799072},"countryCode":"NL","name":"Rilland-Bath","stationCode":"RB","uicCode":"8400521"},{"coordinate":{"lat":51.4333343505859,"lng":4.11694431304932},"countryCode":"NL","name":"Krabbendijke","stationCode":"KBD","uicCode":"8400367"},{"coordinate":{"lat":51.4650001525879,"lng":4.03722238540649},"countryCode":"NL","name":"Kruiningen-Yerseke","stationCode":"KRG","uicCode":"8400370"},{"coordinate":{"lat":51.4808349609375,"lng":3.95611119270325},"countryCode":"NL","name":"Kapelle-Biezelinge","stationCode":"BZL","uicCode":"8400354"},{"coordinate":{"lat":51.4980545043945,"lng":3.89055562019348},"countryCode":"NL","name":"Goes","stationCode":"GS","uicCode":"8400253"},{"coordinate":{"lat":51.5016670227051,"lng":3.66916656494141},"countryCode":"NL","name":"Arnemuiden","stationCode":"ARN","uicCode":"8400069"},{"coordinate":{"lat":51.4947204589844,"lng":3.61722230911255},"countryCode":"NL","name":"Middelburg","stationCode":"MDB","uicCode":"8400436"},{"coordinate":{"lat":51.4647216796875,"lng":3.59527778625488},"countryCode":"NL","name":"Vlissingen Souburg","stationCode":"VSS","uicCode":"8400653"},{"coordinate":{"lat":51.4458351135254,"lng":3.59527778625488},"countryCode":"NL","name":"Vlissingen","stationCode":"VS","uicCode":"8400652"}],"direction":"ONE_WAY"},"description":"rijden bussen","level":"LESS_TRAINS"},"sectionType":"NL"}],"timespans":[{"start":"2024-01-10T22:45:00+0100","end":"2024-01-11T02:15:00+0100","period":"Woensdag 10 januari 22:45 uur t/m donderdag 11 januari 2:15 uur.","situation":{"label":"Door herstelwerkzaamheden: tussen Roosendaal en Vlissingen rijden er bussen."},"cause":{"label":"herstelwerkzaamheden"},"additionalTravelTime":{"label":"De extra reistijd is ongeveer 60 minuten.","shortLabel":"extra reistijd 60 min.","minimumDurationInMinutes":60,"maximumDurationInMinutes":60},"alternativeTransport":{"label":"er rijden bussen","shortLabel":"er rijden bussen"},"advices":["Dienstregeling van de bussen is nog niet opgenomen in het reisadvies, plan uw reis later opnieuw."]}],"alternativeTransportTimespans":[{"start":"2024-01-10T22:45:00+0100","end":"2024-01-11T02:15:00+0100","alternativeTransport":{"location":[{"station":{"coordinate":{"lat":51.5402793884277,"lng":4.45833349227905},"countryCode":"NL","name":"Roosendaal","stationCode":"RSD","uicCode":"8400526"},"description":"vanaf de voorzijde van het station"},{"station":{"coordinate":{"lat":51.4938888549805,"lng":4.29611110687256},"countryCode":"NL","name":"Bergen op Zoom","stationCode":"BGN","uicCode":"8400108"},"description":"vanaf het Stationsplein"},{"station":{"coordinate":{"lat":51.422779083252,"lng":4.16111087799072},"countryCode":"NL","name":"Rilland-Bath","stationCode":"RB","uicCode":"8400521"},"description":"vanaf de Provinciale weg"},{"station":{"coordinate":{"lat":51.4333343505859,"lng":4.11694431304932},"countryCode":"NL","name":"Krabbendijke","stationCode":"KBD","uicCode":"8400367"},"description":"vanaf de voorzijde van het station"},{"station":{"coordinate":{"lat":51.4650001525879,"lng":4.03722238540649},"countryCode":"NL","name":"Kruiningen-Yerseke","stationCode":"KRG","uicCode":"8400370"},"description":"vanaf de voorzijde van het station"},{"station":{"coordinate":{"lat":51.4808349609375,"lng":3.95611119270325},"countryCode":"NL","name":"Kapelle-Biezelinge","stationCode":"BZL","uicCode":"8400354"},"description":"vanaf de voorzijde van het station"},{"station":{"coordinate":{"lat":51.4980545043945,"lng":3.89055562019348},"countryCode":"NL","name":"Goes","stationCode":"GS","uicCode":"8400253"},"description":"vanaf de achterzijde van het station"},{"station":{"coordinate":{"lat":51.5016670227051,"lng":3.66916656494141},"countryCode":"NL","name":"Arnemuiden","stationCode":"ARN","uicCode":"8400069"},"description":"vanaf de Provinciale weg"},{"station":{"coordinate":{"lat":51.4947204589844,"lng":3.61722230911255},"countryCode":"NL","name":"Middelburg","stationCode":"MDB","uicCode":"8400436"},"description":"vanaf de achterzijde van het station"},{"station":{"coordinate":{"lat":51.4647216796875,"lng":3.59527778625488},"countryCode":"NL","name":"Vlissingen Souburg","stationCode":"VSS","uicCode":"8400653"},"description":"vanaf de achterzijde van het station"},{"station":{"coordinate":{"lat":51.4458351135254,"lng":3.59527778625488},"countryCode":"NL","name":"Vlissingen","stationCode":"VS","uicCode":"8400652"},"description":"vanaf het Stationsplein"}],"label":"Er rijden bussen tussen Roosendaal, Bergen op Zoom, Rilland-Bath, Krabbendijke, Kruiningen-Yerseke, Kapelle-Biezelinge, Goes, Arnemuiden, Middelburg, Vlissingen Souburg en Vlissingen.","shortLabel":"er rijden bussen Roosendaal - Bergen op Zoom - Rilland-Bath - Krabbendijke - Kruiningen-Y. - Kapelle-Biezel. - Goes - Arnemuiden - Middelburg - Souburg - Vlissingen"}}],"summaryAdditionalTravelTime":{"label":"De extra reistijd is ongeveer 60 minuten.","shortLabel":"extra reistijd 60 min.","minimumDurationInMinutes":60,"maximumDurationInMinutes":60}},{"id":"7004299","isActive":false,"title":"Heerlen - Aachen Hbf.","type":"MAINTENANCE","registrationTime":"2023-12-21T11:25:59+0100","releaseTime":"2023-12-21T11:25:59+0100","local":false,"titleSections":[[{"type":"STATION","value":"Heerlen"},{"type":"ICON","value":"MAINTENANCE"},{"type":"STATION","value":"Aachen Hbf"}]],"start":"2024-01-11T08:15:00+0100","end":"2024-01-11T13:00:00+0100","period":"Donderdag 11 januari 08:15 uur t/m donderdag 11 januari 13:00 uur.","impact":{"value":2},"publicationSections":[{"section":{"stations":[{"coordinate":{"lat":50.8908348083496,"lng":5.97499990463257},"countryCode":"NL","name":"Heerlen","stationCode":"HRL","uicCode":"8400307"},{"coordinate":{"lat":50.8963890075684,"lng":6.01916646957398},"countryCode":"NL","name":"Landgraaf","stationCode":"LG","uicCode":"8400548"},{"coordinate":{"lat":50.8960498196442,"lng":6.0602474212646396},"countryCode":"NL","name":"Eygelshoven Markt","stationCode":"EGHM","uicCode":"8400234"},{"coordinate":{"lat":50.870916,"lng":6.094486},"countryCode":"D","name":"Herzogenrath","stationCode":"HZ","uicCode":"8015190"},{"coordinate":{"lat":50.7678,"lng":6.091499},"countryCode":"D","name":"Aachen Hbf","stationCode":"AHBF","uicCode":"8015345"}],"direction":"BOTH"},"consequence":{"section":{"stations":[{"coordinate":{"lat":50.8908348083496,"lng":5.97499990463257},"countryCode":"NL","name":"Heerlen","stationCode":"HRL","uicCode":"8400307"},{"coordinate":{"lat":50.8963890075684,"lng":6.01916646957398},"countryCode":"NL","name":"Landgraaf","stationCode":"LG","uicCode":"8400548"},{"coordinate":{"lat":50.8960498196442,"lng":6.0602474212646396},"countryCode":"NL","name":"Eygelshoven Markt","stationCode":"EGHM","uicCode":"8400234"},{"coordinate":{"lat":50.870916,"lng":6.094486},"countryCode":"D","name":"Herzogenrath","stationCode":"HZ","uicCode":"8015190"},{"coordinate":{"lat":50.7678,"lng":6.091499},"countryCode":"D","name":"Aachen Hbf","stationCode":"AHBF","uicCode":"8015345"}],"direction":"ONE_WAY"},"description":"minder treinen","level":"LESS_TRAINS"},"sectionType":"NEIGHBORING_COUNTRY"}],"timespans":[{"start":"2024-01-11T08:15:00+0100","end":"2024-01-11T13:00:00+0100","period":"Donderdag 11 januari 08:15 uur t/m donderdag 11 januari 13:00 uur.","situation":{"label":"Door werkzaamheden: tussen Heerlen en Aachen Hbf rijden er minder treinen."},"cause":{"label":"werkzaamheden"},"additionalTravelTime":{"label":"De extra reistijd is ongeveer 30 minuten.","shortLabel":"extra reistijd 30 min.","minimumDurationInMinutes":30,"maximumDurationInMinutes":30},"alternativeTransport":{"label":"er rijden stopbussen","shortLabel":"er rijden stopbussen"},"advices":["Enkele treinen zijn vervangen door een stopbus. U kunt ook met een trein eerder of later reizen."]}],"alternativeTransportTimespans":[{"start":"2024-01-11T08:15:00+0100","end":"2024-01-11T13:00:00+0100","alternativeTransport":{"location":[{"station":{"coordinate":{"lat":50.8908348083496,"lng":5.97499990463257},"countryCode":"NL","name":"Heerlen","stationCode":"HRL","uicCode":"8400307"},"description":"vanaf de achterzijde van het station"},{"station":{"coordinate":{"lat":50.8963890075684,"lng":6.01916646957398},"countryCode":"NL","name":"Landgraaf","stationCode":"LG","uicCode":"8400548"},"description":"vanaf de voorzijde van het station"},{"station":{"coordinate":{"lat":50.8960498196442,"lng":6.0602474212646396},"countryCode":"NL","name":"Eygelshoven Markt","stationCode":"EGHM","uicCode":"8400234"},"description":"vanaf de voorzijde van het station"}],"label":"Er rijden stopbussen tussen Heerlen, Landgraaf, Eygelshoven Markt, Herzogenrath, Aachen West en Aachen Hbf.","shortLabel":"er rijden stopbussen Heerlen - Landgraaf - Eygelshoven Mrkt - Herzogenrath - Aachen West - Aachen Hbf"}}],"summaryAdditionalTravelTime":{"label":"De extra reistijd is ongeveer 30 minuten.","shortLabel":"extra reistijd 30 min.","minimumDurationInMinutes":30,"maximumDurationInMinutes":30}},{"id":"7004252","isActive":false,"title":"Lelystad - Zwolle.","type":"MAINTENANCE","registrationTime":"2024-01-03T14:00:53+0100","releaseTime":"2024-01-03T14:00:53+0100","local":false,"titleSections":[[{"type":"STATION","value":"Lelystad C."},{"type":"STATION","value":"Dronten"},{"type":"ICON","value":"MAINTENANCE"},{"type":"STATION","value":"Zwolle"}]],"start":"2024-01-13T01:10:00+0100","end":"2024-01-14T01:20:00+0100","period":"Zaterdag 13 januari 1:10 uur t/m zondag 14 januari 1:20 uur.","impact":{"value":3},"publicationSections":[{"section":{"stations":[{"coordinate":{"lat":52.5077781677246,"lng":5.47277784347534},"countryCode":"NL","name":"Lelystad Centrum","stationCode":"LLS","uicCode":"8400394"},{"coordinate":{"lat":52.5344,"lng":5.72089},"countryCode":"NL","name":"Dronten","stationCode":"DRON","uicCode":"8400198"},{"coordinate":{"lat":52.5331,"lng":5.91309},"countryCode":"NL","name":"Kampen Zuid","stationCode":"KPNZ","uicCode":"8400360"},{"coordinate":{"lat":52.5047225952148,"lng":6.09194421768188},"countryCode":"NL","name":"Zwolle","stationCode":"ZL","uicCode":"8400747"}],"direction":"BOTH"},"consequence":{"section":{"stations":[{"coordinate":{"lat":52.5344,"lng":5.72089},"countryCode":"NL","name":"Dronten","stationCode":"DRON","uicCode":"8400198"},{"coordinate":{"lat":52.5331,"lng":5.91309},"countryCode":"NL","name":"Kampen Zuid","stationCode":"KPNZ","uicCode":"8400360"},{"coordinate":{"lat":52.5047225952148,"lng":6.09194421768188},"countryCode":"NL","name":"Zwolle","stationCode":"ZL","uicCode":"8400747"}],"direction":"ONE_WAY"},"description":"rijden bussen","level":"LESS_TRAINS"},"sectionType":"NL"}],"timespans":[{"start":"2024-01-13T01:10:00+0100","end":"2024-01-14T01:20:00+0100","period":"Zaterdag 13 januari 1:10 uur t/m zondag 14 januari 1:20 uur.","situation":{"label":"Door werkzaamheden: tussen Dronten en Zwolle rijden er bussen."},"cause":{"label":"werkzaamheden"},"additionalTravelTime":{"label":"De extra reistijd is meer dan 30 minuten.","shortLabel":"extra reistijd meer dan 30 min.","minimumDurationInMinutes":30},"alternativeTransport":{"label":"er rijden bussen","shortLabel":"er rijden bussen"},"advices":["tussen Zwolle en Amsterdam C. reist u via Amersfoort C."]}],"alternativeTransportTimespans":[{"start":"2024-01-13T04:00:00+0100","end":"2024-01-14T01:20:00+0100","alternativeTransport":{"location":[{"station":{"coordinate":{"lat":52.5344,"lng":5.72089},"countryCode":"NL","name":"Dronten","stationCode":"DRON","uicCode":"8400198"},"description":"vanaf de voorzijde van het station"},{"station":{"coordinate":{"lat":52.5331,"lng":5.91309},"countryCode":"NL","name":"Kampen Zuid","stationCode":"KPNZ","uicCode":"8400360"},"description":"vanaf de voorzijde van het station"},{"station":{"coordinate":{"lat":52.5047225952148,"lng":6.09194421768188},"countryCode":"NL","name":"Zwolle","stationCode":"ZL","uicCode":"8400747"},"description":"vanaf de Hanzelaan, aan de zuidzijde van het station"}],"label":"Er rijden bussen tussen Dronten, Kampen Zuid en Zwolle.","shortLabel":"er rijden bussen Dronten - Kampen Zuid - Zwolle"}}],"summaryAdditionalTravelTime":{"label":"De extra reistijd is meer dan 30 minuten.","shortLabel":"extra reistijd meer dan 30 min.","minimumDurationInMinutes":30}},{"id":"7004263","isActive":false,"title":"Schiphol Airport.","type":"MAINTENANCE","registrationTime":"2024-01-08T10:29:13+0100","releaseTime":"2024-01-08T10:29:13+0100","local":false,"titleSections":[[{"type":"STATION","value":"Schiphol Airport"}]],"start":"2024-01-13T04:00:00+0100","end":"2024-01-20T02:00:00+0100","period":"Zaterdag 13 januari 4:00 uur t/m zaterdag 20 januari 2:00 uur.","impact":{"value":2},"publicationSections":[{"section":{"stations":[{"coordinate":{"lat":52.3788871765137,"lng":4.90027761459351},"countryCode":"NL","name":"Amsterdam Centraal","stationCode":"ASD","uicCode":"8400058"},{"coordinate":{"lat":52.3888893127441,"lng":4.83777761459351},"countryCode":"NL","name":"Amsterdam Sloterdijk","stationCode":"ASS","uicCode":"8400059"},{"coordinate":{"lat":52.3577766418457,"lng":4.83388900756836},"countryCode":"NL","name":"Amsterdam Lelylaan","stationCode":"ASDL","uicCode":"8400079"},{"coordinate":{"lat":52.3094444274902,"lng":4.76194429397583},"countryCode":"NL","name":"Schiphol Airport","stationCode":"SHL","uicCode":"8400561"},{"coordinate":{"lat":52.2933349609375,"lng":4.70055532455444},"countryCode":"NL","name":"Hoofddorp","stationCode":"HFD","uicCode":"8400332"},{"coordinate":{"lat":52.2588882446289,"lng":4.64555549621582},"countryCode":"NL","name":"Nieuw Vennep","stationCode":"NVP","uicCode":"8400460"},{"coordinate":{"lat":52.215278,"lng":4.517222},"countryCode":"NL","name":"Sassenheim","stationCode":"SSH","uicCode":"8400603"},{"coordinate":{"lat":52.1661109924316,"lng":4.48166656494141},"countryCode":"NL","name":"Leiden Centraal","stationCode":"LEDN","uicCode":"8400390"}],"direction":"BOTH"},"consequence":{"section":{"stations":[{"coordinate":{"lat":52.3094444274902,"lng":4.76194429397583},"countryCode":"NL","name":"Schiphol Airport","stationCode":"SHL","uicCode":"8400561"}],"direction":"ONE_WAY"},"description":"dienstregeling aangepast","level":"LESS_TRAINS"},"sectionType":"NL"},{"section":{"stations":[{"coordinate":{"lat":52.2933349609375,"lng":4.70055532455444},"countryCode":"NL","name":"Hoofddorp","stationCode":"HFD","uicCode":"8400332"},{"coordinate":{"lat":52.3094444274902,"lng":4.76194429397583},"countryCode":"NL","name":"Schiphol Airport","stationCode":"SHL","uicCode":"8400561"},{"coordinate":{"lat":52.338889,"lng":4.872356},"countryCode":"NL","name":"Amsterdam Zuid","stationCode":"ASDZ","uicCode":"8400061"},{"coordinate":{"lat":52.3372230529785,"lng":4.89027786254883},"countryCode":"NL","name":"Amsterdam RAI","stationCode":"RAI","uicCode":"8400056"},{"coordinate":{"lat":52.3233337402344,"lng":4.93638896942139},"countryCode":"NL","name":"Duivendrecht","stationCode":"DVD","uicCode":"8400194"},{"coordinate":{"lat":52.3302764892578,"lng":4.95583343505859},"countryCode":"NL","name":"Diemen Zuid","stationCode":"DMNZ","uicCode":"8400163"},{"coordinate":{"lat":52.3127784729004,"lng":5.04305553436279},"countryCode":"NL","name":"Weesp","stationCode":"WP","uicCode":"8400685"},{"coordinate":{"lat":52.342778,"lng":5.151944},"countryCode":"NL","name":"Almere Poort","stationCode":"AMPO","uicCode":"8400450"},{"coordinate":{"lat":52.3675003051758,"lng":5.19027757644653},"countryCode":"NL","name":"Almere Muziekwijk","stationCode":"ALMM","uicCode":"8400082"},{"coordinate":{"lat":52.37503,"lng":5.21764},"countryCode":"NL","name":"Almere Centrum","stationCode":"ALM","uicCode":"8400080"},{"coordinate":{"lat":52.3766670227051,"lng":5.24472236633301},"countryCode":"NL","name":"Almere Parkwijk","stationCode":"ALMP","uicCode":"8400104"},{"coordinate":{"lat":52.3941650390625,"lng":5.2780556678772},"countryCode":"NL","name":"Almere Buiten","stationCode":"ALMB","uicCode":"8400081"},{"coordinate":{"lat":52.4033317565918,"lng":5.30055570602417},"countryCode":"NL","name":"Almere Oostvaarders","stationCode":"ALMO","uicCode":"8400226"}],"direction":"BOTH"},"consequence":{"section":{"stations":[{"coordinate":{"lat":52.3094444274902,"lng":4.76194429397583},"countryCode":"NL","name":"Schiphol Airport","stationCode":"SHL","uicCode":"8400561"}],"direction":"ONE_WAY"},"description":"dienstregeling aangepast","level":"LESS_TRAINS"},"sectionType":"NL"}],"timespans":[{"start":"2024-01-13T04:00:00+0100","end":"2024-01-20T02:00:00+0100","period":"Zaterdag 13 januari 4:00 uur t/m zaterdag 20 januari 2:00 uur.","situation":{"label":"Door werkzaamheden: van, via en naar Schiphol Airport is de dienstregeling aangepast."},"cause":{"label":"werkzaamheden"},"additionalTravelTime":{"label":"De extra reistijd is ongeveer 15 minuten.","shortLabel":"extra reistijd 15 min.","minimumDurationInMinutes":15,"maximumDurationInMinutes":15},"advices":["Vermijd reizen via Schiphol. Er rijden veel minder treinen van, naar en via Schiphol. Ga eerder op reis en houd rekening met vaker overstappen.","tussen Leiden C. en Amsterdam C. reist u via Haarlem","tussen Den Haag C. en Amersfoort C./Zwolle reist u via Utrecht C."]}],"alternativeTransportTimespans":[],"summaryAdditionalTravelTime":{"label":"De extra reistijd is ongeveer 15 minuten.","shortLabel":"extra reistijd 15 min.","minimumDurationInMinutes":15,"maximumDurationInMinutes":15}},{"id":"7004228","isActive":false,"title":"Sittard - Maastricht; Maastricht - Randwijck.","type":"MAINTENANCE","registrationTime":"2023-12-19T11:39:01+0100","releaseTime":"2023-12-19T11:39:01+0100","local":false,"titleSections":[[{"type":"STATION","value":"Sittard"},{"type":"ICON","value":"MAINTENANCE"},{"type":"STATION","value":"Maastricht"}],[{"type":"STATION","value":"Maastricht"},{"type":"ICON","value":"MAINTENANCE"},{"type":"STATION","value":"Randwyck"}]],"start":"2024-01-13T05:00:00+0100","end":"2024-01-14T02:00:00+0100","period":"Zaterdag 13 januari 05:00 uur t/m zondag 14 januari 02:00 uur.","impact":{"value":3},"publicationSections":[{"section":{"stations":[{"coordinate":{"lat":51.0016670227051,"lng":5.85861110687256},"countryCode":"NL","name":"Sittard","stationCode":"STD","uicCode":"8400564"},{"coordinate":{"lat":50.9755554199219,"lng":5.82472229003906},"countryCode":"NL","name":"Geleen-Lutterade","stationCode":"LUT","uicCode":"8400248"},{"coordinate":{"lat":50.9474983215332,"lng":5.78666687011719},"countryCode":"NL","name":"Beek-Elsloo","stationCode":"BK","uicCode":"8400096"},{"coordinate":{"lat":50.8969459533691,"lng":5.73666667938232},"countryCode":"NL","name":"Bunde","stationCode":"BDE","uicCode":"8400140"},{"coordinate":{"lat":50.8502769470215,"lng":5.70555543899536},"countryCode":"NL","name":"Maastricht","stationCode":"MT","uicCode":"8400424"}],"direction":"BOTH"},"consequence":{"section":{"stations":[{"coordinate":{"lat":51.0016670227051,"lng":5.85861110687256},"countryCode":"NL","name":"Sittard","stationCode":"STD","uicCode":"8400564"},{"coordinate":{"lat":50.9755554199219,"lng":5.82472229003906},"countryCode":"NL","name":"Geleen-Lutterade","stationCode":"LUT","uicCode":"8400248"},{"coordinate":{"lat":50.9474983215332,"lng":5.78666687011719},"countryCode":"NL","name":"Beek-Elsloo","stationCode":"BK","uicCode":"8400096"},{"coordinate":{"lat":50.8969459533691,"lng":5.73666667938232},"countryCode":"NL","name":"Bunde","stationCode":"BDE","uicCode":"8400140"},{"coordinate":{"lat":50.8502769470215,"lng":5.70555543899536},"countryCode":"NL","name":"Maastricht","stationCode":"MT","uicCode":"8400424"}],"direction":"ONE_WAY"},"description":"rijden bussen","level":"LESS_TRAINS"},"sectionType":"NL"},{"section":{"stations":[{"coordinate":{"lat":50.8502769470215,"lng":5.70555543899536},"countryCode":"NL","name":"Maastricht","stationCode":"MT","uicCode":"8400424"},{"coordinate":{"lat":50.8386116027832,"lng":5.71722221374512},"countryCode":"NL","name":"Maastricht Randwyck","stationCode":"MTR","uicCode":"8400426"}],"direction":"BOTH"},"consequence":{"section":{"stations":[{"coordinate":{"lat":50.8502769470215,"lng":5.70555543899536},"countryCode":"NL","name":"Maastricht","stationCode":"MT","uicCode":"8400424"},{"coordinate":{"lat":50.8386116027832,"lng":5.71722221374512},"countryCode":"NL","name":"Maastricht Randwyck","stationCode":"MTR","uicCode":"8400426"}],"direction":"ONE_WAY"},"description":"dienstregeling aangepast","level":"LESS_TRAINS"},"sectionType":"NL"}],"timespans":[{"start":"2024-01-13T05:00:00+0100","end":"2024-01-14T02:00:00+0100","period":"Zaterdag 13 januari 05:00 uur t/m zondag 14 januari 02:00 uur.","situation":{"label":"Door werkzaamheden: tussen Sittard en Maastricht rijden er bussen en tussen Maastricht en Maastricht Randwyck is de dienstregeling aangepast."},"cause":{"label":"werkzaamheden"},"additionalTravelTime":{"label":"De extra reistijd ligt tussen 0 en 30 minuten.","shortLabel":"extra reistijd: 0 - 30 min.","minimumDurationInMinutes":0,"maximumDurationInMinutes":30},"alternativeTransport":{"label":"er rijden stop- en snelbussen","shortLabel":"er rijden stop- en snelbussen"},"advices":[]}],"alternativeTransportTimespans":[{"start":"2024-01-13T05:00:00+0100","end":"2024-01-14T02:00:00+0100","alternativeTransport":{"location":[{"station":{"coordinate":{"lat":51.0016670227051,"lng":5.85861110687256},"countryCode":"NL","name":"Sittard","stationCode":"STD","uicCode":"8400564"},"description":"vanaf de achterzijde van het station"},{"station":{"coordinate":{"lat":50.8502769470215,"lng":5.70555543899536},"countryCode":"NL","name":"Maastricht","stationCode":"MT","uicCode":"8400424"},"description":"vanaf het Stationsplein"}],"label":"Er rijden snelbussen tussen Sittard en Maastricht.","shortLabel":"er rijden snelbussen Sittard - Maastricht"}},{"start":"2024-01-13T05:00:00+0100","end":"2024-01-14T02:00:00+0100","alternativeTransport":{"location":[{"station":{"coordinate":{"lat":51.0016670227051,"lng":5.85861110687256},"countryCode":"NL","name":"Sittard","stationCode":"STD","uicCode":"8400564"},"description":"vanaf de achterzijde van het station"},{"station":{"coordinate":{"lat":50.9755554199219,"lng":5.82472229003906},"countryCode":"NL","name":"Geleen-Lutterade","stationCode":"LUT","uicCode":"8400248"},"description":"vanaf de achterzijde van het station"},{"station":{"coordinate":{"lat":50.9474983215332,"lng":5.78666687011719},"countryCode":"NL","name":"Beek-Elsloo","stationCode":"BK","uicCode":"8400096"},"description":"vanaf de voorzijde van het station"},{"station":{"coordinate":{"lat":50.8969459533691,"lng":5.73666667938232},"countryCode":"NL","name":"Bunde","stationCode":"BDE","uicCode":"8400140"},"description":"vanaf de voorzijde van het station"},{"station":{"coordinate":{"lat":50.8502769470215,"lng":5.70555543899536},"countryCode":"NL","name":"Maastricht","stationCode":"MT","uicCode":"8400424"},"description":"vanaf het Stationsplein"}],"label":"Er rijden stopbussen tussen Sittard, Geleen-Lutterade, Beek-Elsloo, Bunde en Maastricht.","shortLabel":"er rijden stopbussen Sittard - Geleen-Lut. - Beek-Elsloo - Bunde - Maastricht"}}],"summaryAdditionalTravelTime":{"label":"De extra reistijd ligt tussen 0 en 30 minuten.","shortLabel":"extra reistijd: 0 - 30 min.","minimumDurationInMinutes":0,"maximumDurationInMinutes":30}},{"id":"7004312","isActive":false,"title":"Amsterdam - Hannover - Berlin.","type":"MAINTENANCE","registrationTime":"2024-01-03T11:59:03+0100","releaseTime":"2024-01-03T11:59:03+0100","local":false,"titleSections":[[{"type":"STATION","value":"Amsterdam C."},{"type":"STATION","value":"Hannover Hbf"},{"type":"ICON","value":"MAINTENANCE"},{"type":"STATION","value":"Berlin Hbf"}]],"start":"2024-01-13T10:45:00+0100","end":"2024-01-13T17:40:00+0100","period":"Zaterdag 13 januari 10:45 uur t/m zaterdag 13 januari 17:40 uur.","impact":{"value":2},"publicationSections":[{"section":{"stations":[{"coordinate":{"lat":52.3788871765137,"lng":4.90027761459351},"countryCode":"NL","name":"Amsterdam Centraal","stationCode":"ASD","uicCode":"8400058"},{"coordinate":{"lat":52.3605537414551,"lng":4.93111133575439},"countryCode":"NL","name":"Amsterdam Muiderpoort","stationCode":"ASDM","uicCode":"8400060"},{"coordinate":{"lat":52.35526,"lng":4.94651},"countryCode":"NL","name":"Amsterdam Science Park","stationCode":"ASSP","uicCode":"8400235"},{"coordinate":{"lat":52.34515,"lng":4.967566},"countryCode":"NL","name":"Diemen","stationCode":"DMN","uicCode":"8400165"},{"coordinate":{"lat":52.3127784729004,"lng":5.04305553436279},"countryCode":"NL","name":"Weesp","stationCode":"WP","uicCode":"8400685"},{"coordinate":{"lat":52.2802772521973,"lng":5.15694427490234},"countryCode":"NL","name":"Naarden-Bussum","stationCode":"NDB","uicCode":"8400452"},{"coordinate":{"lat":52.2658348083496,"lng":5.16305541992188},"countryCode":"NL","name":"Bussum Zuid","stationCode":"BSMZ","uicCode":"8400145"},{"coordinate":{"lat":52.2380561828613,"lng":5.17388868331909},"countryCode":"NL","name":"Hilversum Media Park","stationCode":"HVSM","uicCode":"8400324"},{"coordinate":{"lat":52.2258338928223,"lng":5.18194437026978},"countryCode":"NL","name":"Hilversum","stationCode":"HVS","uicCode":"8400322"},{"coordinate":{"lat":52.2083320617676,"lng":5.28083324432373},"countryCode":"NL","name":"Baarn","stationCode":"BRN","uicCode":"8400086"},{"coordinate":{"lat":52.1538887023926,"lng":5.37055540084839},"countryCode":"NL","name":"Amersfoort Centraal","stationCode":"AMF","uicCode":"8400055"},{"coordinate":{"lat":52.16652,"lng":5.45718},"countryCode":"NL","name":"Hoevelaken","stationCode":"HVL","uicCode":"8400490"},{"coordinate":{"lat":52.2091674804687,"lng":5.97027778625488},"countryCode":"NL","name":"Apeldoorn","stationCode":"APD","uicCode":"8400066"},{"coordinate":{"lat":52.2152786254883,"lng":6.00444459915161},"countryCode":"NL","name":"Apeldoorn Osseveld","stationCode":"APDO","uicCode":"8400229"},{"coordinate":{"lat":52.2377777099609,"lng":6.09861087799072},"countryCode":"NL","name":"Twello","stationCode":"TWL","uicCode":"8400599"},{"coordinate":{"lat":52.2574996948242,"lng":6.16055536270142},"countryCode":"NL","name":"Deventer","stationCode":"DV","uicCode":"8400173"},{"coordinate":{"lat":52.2502784729004,"lng":6.21444463729858},"countryCode":"NL","name":"Deventer Colmschate","stationCode":"DVC","uicCode":"8400185"},{"coordinate":{"lat":52.2838897705078,"lng":6.42027759552002},"countryCode":"NL","name":"Holten","stationCode":"HON","uicCode":"8400328"},{"coordinate":{"lat":52.3122215270996,"lng":6.52027797698975},"countryCode":"NL","name":"Rijssen","stationCode":"RSN","uicCode":"8400538"},{"coordinate":{"lat":52.3613891601562,"lng":6.59166669845581},"countryCode":"NL","name":"Wierden","stationCode":"WDN","uicCode":"8400691"},{"coordinate":{"lat":52.3580551147461,"lng":6.65388870239258},"countryCode":"NL","name":"Almelo","stationCode":"AML","uicCode":"8400051"},{"coordinate":{"lat":52.3419456481934,"lng":6.66666650772095},"countryCode":"NL","name":"Almelo de Riet","stationCode":"AMRI","uicCode":"8400520"},{"coordinate":{"lat":52.2988891601562,"lng":6.74805545806885},"countryCode":"NL","name":"Borne","stationCode":"BN","uicCode":"8400124"},{"coordinate":{"lat":52.2616653442383,"lng":6.79388904571533},"countryCode":"NL","name":"Hengelo","stationCode":"HGL","uicCode":"8400316"},{"coordinate":{"lat":52.2688903808594,"lng":6.81944465637207},"countryCode":"NL","name":"Hengelo Oost","stationCode":"HGLO","uicCode":"8400312"},{"coordinate":{"lat":52.3063888549805,"lng":6.93472242355347},"countryCode":"NL","name":"Oldenzaal","stationCode":"ODZ","uicCode":"8400483"},{"coordinate":{"lat":52.309685595156,"lng":7.15853691101074},"countryCode":"D","name":"Bad Bentheim","stationCode":"BH","uicCode":"8021156"},{"coordinate":{"lat":52.276299,"lng":7.434255},"countryCode":"D","name":"Rheine","stationCode":"RHEINE","uicCode":"8021067"},{"coordinate":{"lat":52.272851,"lng":8.061781},"countryCode":"D","name":"Osnabrück Hbf","stationCode":"OSNH","uicCode":"8021025"},{"coordinate":{"lat":52.3770401,"lng":9.7416759},"countryCode":"D","name":"Hannover Hbf","stationCode":"HANN","uicCode":"8013552"},{"coordinate":{"lat":52.52503,"lng":13.36946},"countryCode":"D","name":"Berlin Hbf","stationCode":"BERHBL","uicCode":"8065969"}],"direction":"ONE_WAY"},"consequence":{"section":{"stations":[{"coordinate":{"lat":52.3770401,"lng":9.7416759},"countryCode":"D","name":"Hannover Hbf","stationCode":"HANN","uicCode":"8013552"},{"coordinate":{"lat":52.52503,"lng":13.36946},"countryCode":"D","name":"Berlin Hbf","stationCode":"BERHBL","uicCode":"8065969"}],"direction":"ONE_WAY"},"description":"aangepaste internationale dienstregeling","level":"LESS_TRAINS"},"sectionType":"NEIGHBORING_COUNTRY"}],"timespans":[{"start":"2024-01-13T10:45:00+0100","end":"2024-01-13T17:40:00+0100","period":"Zaterdag 13 januari 10:45 uur t/m zaterdag 13 januari 17:40 uur.","situation":{"label":"Door werkzaamheden: van Hannover Hbf naar Berlin Hbf is de internationale dienstregeling aangepast."},"cause":{"label":"werkzaamheden"},"additionalTravelTime":{"label":"U heeft geen langere reistijd.","shortLabel":"Geen extra reistijd"},"advices":["Dit kan gevolgen hebben voor uw reis. Plan uw reis in de (Internationale) app."]}],"alternativeTransportTimespans":[],"summaryAdditionalTravelTime":{"label":"U heeft geen langere reistijd.","shortLabel":"Geen extra reistijd"}},{"id":"7004219","isActive":false,"title":"Groningen - Leeuwarden.","type":"MAINTENANCE","registrationTime":"2024-01-03T11:44:58+0100","releaseTime":"2024-01-03T11:44:58+0100","local":false,"titleSections":[[{"type":"STATION","value":"Groningen"},{"type":"ICON","value":"MAINTENANCE"},{"type":"STATION","value":"Zuidhorn"},{"type":"STATION","value":"Leeuwarden"}]],"start":"2024-01-14T00:15:00+0100","end":"2024-01-15T02:00:00+0100","period":"Zondag 14 januari 0:15 uur t/m maandag 15 januari 2:00 uur.","impact":{"value":4},"publicationSections":[{"section":{"stations":[{"coordinate":{"lat":53.2105560302734,"lng":6.56472206115723},"countryCode":"NL","name":"Groningen","stationCode":"GN","uicCode":"8400263"},{"coordinate":{"lat":53.2486292,"lng":6.4062361},"countryCode":"NL","name":"Zuidhorn","stationCode":"ZH","uicCode":"8400743"},{"coordinate":{"lat":53.2557403255735,"lng":6.30977869033813},"countryCode":"NL","name":"Grijpskerk","stationCode":"GK","uicCode":"8400267"},{"coordinate":{"lat":53.2564547,"lng":6.1446496},"countryCode":"NL","name":"Buitenpost","stationCode":"BP","uicCode":"8400139"},{"coordinate":{"lat":53.24817,"lng":6.03463},"countryCode":"NL","name":"De Westereen","stationCode":"DWE","uicCode":"8400745"},{"coordinate":{"lat":53.2351834,"lng":5.9886615},"countryCode":"NL","name":"Feanwâlden","stationCode":"FWD","uicCode":"8400638"},{"coordinate":{"lat":53.2187783,"lng":5.934543},"countryCode":"NL","name":"Hurdegaryp","stationCode":"HDG","uicCode":"8400292"},{"coordinate":{"lat":53.2021808,"lng":5.8422968},"countryCode":"NL","name":"Leeuwarden Camminghaburen","stationCode":"LWC","uicCode":"8400389"},{"coordinate":{"lat":53.1958351135254,"lng":5.79222202301025},"countryCode":"NL","name":"Leeuwarden","stationCode":"LW","uicCode":"8400387"}],"direction":"BOTH"},"consequence":{"section":{"stations":[{"coordinate":{"lat":53.2105560302734,"lng":6.56472206115723},"countryCode":"NL","name":"Groningen","stationCode":"GN","uicCode":"8400263"},{"coordinate":{"lat":53.2486292,"lng":6.4062361},"countryCode":"NL","name":"Zuidhorn","stationCode":"ZH","uicCode":"8400743"}],"direction":"ONE_WAY"},"description":"rijden bussen","level":"LESS_TRAINS"},"sectionType":"NL"}],"timespans":[{"start":"2024-01-14T00:15:00+0100","end":"2024-01-15T02:00:00+0100","period":"Zondag 14 januari 0:15 uur t/m maandag 15 januari 2:00 uur.","situation":{"label":"Door werkzaamheden: tussen Groningen en Zuidhorn rijden er bussen."},"cause":{"label":"werkzaamheden"},"additionalTravelTime":{"label":"De extra reistijd is ongeveer 15 minuten.","shortLabel":"extra reistijd 15 min.","minimumDurationInMinutes":15,"maximumDurationInMinutes":15},"alternativeTransport":{"label":"er rijden stopbussen","shortLabel":"er rijden stopbussen"},"advices":[]}],"alternativeTransportTimespans":[{"start":"2024-01-14T00:15:00+0100","end":"2024-01-15T02:00:00+0100","alternativeTransport":{"location":[{"station":{"coordinate":{"lat":53.2105560302734,"lng":6.56472206115723},"countryCode":"NL","name":"Groningen","stationCode":"GN","uicCode":"8400263"},"description":"vanaf het busstation halte AB"},{"station":{"coordinate":{"lat":53.2486292,"lng":6.4062361},"countryCode":"NL","name":"Zuidhorn","stationCode":"ZH","uicCode":"8400743"},"description":"vanaf het busstation"}],"label":"Er rijden stopbussen tussen Groningen en Zuidhorn.","shortLabel":"er rijden stopbussen Groningen - Zuidhorn"}}],"summaryAdditionalTravelTime":{"label":"De extra reistijd is ongeveer 15 minuten.","shortLabel":"extra reistijd 15 min.","minimumDurationInMinutes":15,"maximumDurationInMinutes":15}},{"id":"7004237","isActive":false,"title":"Deventer - Enschede.","type":"MAINTENANCE","registrationTime":"2023-12-20T11:50:02+0100","releaseTime":"2023-12-20T11:50:02+0100","local":false,"titleSections":[[{"type":"STATION","value":"Deventer"},{"type":"STATION","value":"Rijssen"},{"type":"ICON","value":"MAINTENANCE"},{"type":"STATION","value":"Enschede"}]],"start":"2024-01-14T00:40:00+0100","end":"2024-01-14T02:30:00+0100","period":"Zondag 14 januari 00:40 uur t/m zondag 14 januari 02:30 uur.","impact":{"value":3},"publicationSections":[{"section":{"stations":[{"coordinate":{"lat":52.2574996948242,"lng":6.16055536270142},"countryCode":"NL","name":"Deventer","stationCode":"DV","uicCode":"8400173"},{"coordinate":{"lat":52.2502784729004,"lng":6.21444463729858},"countryCode":"NL","name":"Deventer Colmschate","stationCode":"DVC","uicCode":"8400185"},{"coordinate":{"lat":52.2838897705078,"lng":6.42027759552002},"countryCode":"NL","name":"Holten","stationCode":"HON","uicCode":"8400328"},{"coordinate":{"lat":52.3122215270996,"lng":6.52027797698975},"countryCode":"NL","name":"Rijssen","stationCode":"RSN","uicCode":"8400538"},{"coordinate":{"lat":52.3613891601562,"lng":6.59166669845581},"countryCode":"NL","name":"Wierden","stationCode":"WDN","uicCode":"8400691"},{"coordinate":{"lat":52.3580551147461,"lng":6.65388870239258},"countryCode":"NL","name":"Almelo","stationCode":"AML","uicCode":"8400051"},{"coordinate":{"lat":52.3419456481934,"lng":6.66666650772095},"countryCode":"NL","name":"Almelo de Riet","stationCode":"AMRI","uicCode":"8400520"},{"coordinate":{"lat":52.2988891601562,"lng":6.74805545806885},"countryCode":"NL","name":"Borne","stationCode":"BN","uicCode":"8400124"},{"coordinate":{"lat":52.2616653442383,"lng":6.79388904571533},"countryCode":"NL","name":"Hengelo","stationCode":"HGL","uicCode":"8400316"},{"coordinate":{"lat":52.2374992370605,"lng":6.83888912200928},"countryCode":"NL","name":"Enschede Kennispark","stationCode":"ESK","uicCode":"8400221"},{"coordinate":{"lat":52.2224998474121,"lng":6.8899998664856},"countryCode":"NL","name":"Enschede","stationCode":"ES","uicCode":"8400212"}],"direction":"ONE_WAY"},"consequence":{"section":{"stations":[{"coordinate":{"lat":52.3122215270996,"lng":6.52027797698975},"countryCode":"NL","name":"Rijssen","stationCode":"RSN","uicCode":"8400538"},{"coordinate":{"lat":52.3613891601562,"lng":6.59166669845581},"countryCode":"NL","name":"Wierden","stationCode":"WDN","uicCode":"8400691"},{"coordinate":{"lat":52.3580551147461,"lng":6.65388870239258},"countryCode":"NL","name":"Almelo","stationCode":"AML","uicCode":"8400051"},{"coordinate":{"lat":52.3419456481934,"lng":6.66666650772095},"countryCode":"NL","name":"Almelo de Riet","stationCode":"AMRI","uicCode":"8400520"},{"coordinate":{"lat":52.2988891601562,"lng":6.74805545806885},"countryCode":"NL","name":"Borne","stationCode":"BN","uicCode":"8400124"},{"coordinate":{"lat":52.2616653442383,"lng":6.79388904571533},"countryCode":"NL","name":"Hengelo","stationCode":"HGL","uicCode":"8400316"},{"coordinate":{"lat":52.2374992370605,"lng":6.83888912200928},"countryCode":"NL","name":"Enschede Kennispark","stationCode":"ESK","uicCode":"8400221"},{"coordinate":{"lat":52.2224998474121,"lng":6.8899998664856},"countryCode":"NL","name":"Enschede","stationCode":"ES","uicCode":"8400212"}],"direction":"ONE_WAY"},"description":"rijden bussen","level":"LESS_TRAINS"},"sectionType":"NL"}],"timespans":[{"start":"2024-01-14T00:40:00+0100","end":"2024-01-14T02:30:00+0100","period":"Zondag 14 januari 00:40 uur t/m zondag 14 januari 02:30 uur.","situation":{"label":"Door werkzaamheden: van Rijssen naar Enschede rijden er bussen."},"cause":{"label":"werkzaamheden"},"additionalTravelTime":{"label":"De extra reistijd is ongeveer 30 minuten.","shortLabel":"extra reistijd 30 min.","minimumDurationInMinutes":30,"maximumDurationInMinutes":30},"alternativeTransport":{"label":"er rijden stop- en snelbussen","shortLabel":"er rijden stop- en snelbussen"},"advices":[]}],"alternativeTransportTimespans":[{"start":"2024-01-14T00:40:00+0100","end":"2024-01-14T02:30:00+0100","alternativeTransport":{"location":[{"station":{"coordinate":{"lat":52.3122215270996,"lng":6.52027797698975},"countryCode":"NL","name":"Rijssen","stationCode":"RSN","uicCode":"8400538"},"description":"vanaf het P+R-terrein"},{"station":{"coordinate":{"lat":52.3580551147461,"lng":6.65388870239258},"countryCode":"NL","name":"Almelo","stationCode":"AML","uicCode":"8400051"},"description":"vanaf het busstation"},{"station":{"coordinate":{"lat":52.2616653442383,"lng":6.79388904571533},"countryCode":"NL","name":"Hengelo","stationCode":"HGL","uicCode":"8400316"},"description":"vanaf het busstation"},{"station":{"coordinate":{"lat":52.2224998474121,"lng":6.8899998664856},"countryCode":"NL","name":"Enschede","stationCode":"ES","uicCode":"8400212"},"description":"vanaf het busstation"}],"label":"Er rijden snelbussen van Rijssen, Almelo, Hengelo naar Enschede.","shortLabel":"er rijden snelbussen Rijssen -> Almelo -> Hengelo -> Enschede"}},{"start":"2024-01-14T00:40:00+0100","end":"2024-01-14T02:30:00+0100","alternativeTransport":{"location":[{"station":{"coordinate":{"lat":52.3122215270996,"lng":6.52027797698975},"countryCode":"NL","name":"Rijssen","stationCode":"RSN","uicCode":"8400538"},"description":"vanaf het P+R-terrein"},{"station":{"coordinate":{"lat":52.3613891601562,"lng":6.59166669845581},"countryCode":"NL","name":"Wierden","stationCode":"WDN","uicCode":"8400691"},"description":"vanaf de voorzijde van het station"},{"station":{"coordinate":{"lat":52.3580551147461,"lng":6.65388870239258},"countryCode":"NL","name":"Almelo","stationCode":"AML","uicCode":"8400051"},"description":"vanaf de voorzijde van het station"}],"label":"Er rijden stopbussen van Rijssen, Wierden naar Almelo.","shortLabel":"er rijden stopbussen Rijssen -> Wierden -> Almelo"}}],"summaryAdditionalTravelTime":{"label":"De extra reistijd is ongeveer 30 minuten.","shortLabel":"extra reistijd 30 min.","minimumDurationInMinutes":30,"maximumDurationInMinutes":30}},{"id":"7004360","isActive":false,"title":"Zwolle - Enschede.","type":"MAINTENANCE","registrationTime":"2023-12-27T11:09:39+0100","releaseTime":"2023-12-27T11:09:39+0100","local":false,"titleSections":[[{"type":"STATION","value":"Zwolle"},{"type":"STATION","value":"Nijverdal"},{"type":"ICON","value":"MAINTENANCE"},{"type":"STATION","value":"Enschede"}]],"start":"2024-01-14T00:45:00+0100","end":"2024-01-14T02:45:00+0100","period":"Zondag 14 januari 00:45 uur t/m zondag 14 januari 02:45 uur.","impact":{"value":3},"publicationSections":[{"section":{"stations":[{"coordinate":{"lat":52.5047225952148,"lng":6.09194421768188},"countryCode":"NL","name":"Zwolle","stationCode":"ZL","uicCode":"8400747"},{"coordinate":{"lat":52.4272232055664,"lng":6.22111129760742},"countryCode":"NL","name":"Heino","stationCode":"HNO","uicCode":"8400310"},{"coordinate":{"lat":52.3916664123535,"lng":6.27750015258789},"countryCode":"NL","name":"Raalte","stationCode":"RAT","uicCode":"8400513"},{"coordinate":{"lat":52.366111,"lng":6.462},"countryCode":"NL","name":"Nijverdal","stationCode":"NVD","uicCode":"8400472"},{"coordinate":{"lat":52.3613891601562,"lng":6.59166669845581},"countryCode":"NL","name":"Wierden","stationCode":"WDN","uicCode":"8400691"},{"coordinate":{"lat":52.3580551147461,"lng":6.65388870239258},"countryCode":"NL","name":"Almelo","stationCode":"AML","uicCode":"8400051"},{"coordinate":{"lat":52.3419456481934,"lng":6.66666650772095},"countryCode":"NL","name":"Almelo de Riet","stationCode":"AMRI","uicCode":"8400520"},{"coordinate":{"lat":52.2988891601562,"lng":6.74805545806885},"countryCode":"NL","name":"Borne","stationCode":"BN","uicCode":"8400124"},{"coordinate":{"lat":52.2616653442383,"lng":6.79388904571533},"countryCode":"NL","name":"Hengelo","stationCode":"HGL","uicCode":"8400316"},{"coordinate":{"lat":52.2374992370605,"lng":6.83888912200928},"countryCode":"NL","name":"Enschede Kennispark","stationCode":"ESK","uicCode":"8400221"},{"coordinate":{"lat":52.2224998474121,"lng":6.8899998664856},"countryCode":"NL","name":"Enschede","stationCode":"ES","uicCode":"8400212"}],"direction":"ONE_WAY"},"consequence":{"section":{"stations":[{"coordinate":{"lat":52.366111,"lng":6.462},"countryCode":"NL","name":"Nijverdal","stationCode":"NVD","uicCode":"8400472"},{"coordinate":{"lat":52.3613891601562,"lng":6.59166669845581},"countryCode":"NL","name":"Wierden","stationCode":"WDN","uicCode":"8400691"},{"coordinate":{"lat":52.3580551147461,"lng":6.65388870239258},"countryCode":"NL","name":"Almelo","stationCode":"AML","uicCode":"8400051"},{"coordinate":{"lat":52.3419456481934,"lng":6.66666650772095},"countryCode":"NL","name":"Almelo de Riet","stationCode":"AMRI","uicCode":"8400520"},{"coordinate":{"lat":52.2988891601562,"lng":6.74805545806885},"countryCode":"NL","name":"Borne","stationCode":"BN","uicCode":"8400124"},{"coordinate":{"lat":52.2616653442383,"lng":6.79388904571533},"countryCode":"NL","name":"Hengelo","stationCode":"HGL","uicCode":"8400316"},{"coordinate":{"lat":52.2374992370605,"lng":6.83888912200928},"countryCode":"NL","name":"Enschede Kennispark","stationCode":"ESK","uicCode":"8400221"},{"coordinate":{"lat":52.2224998474121,"lng":6.8899998664856},"countryCode":"NL","name":"Enschede","stationCode":"ES","uicCode":"8400212"}],"direction":"ONE_WAY"},"description":"rijden bussen","level":"LESS_TRAINS"},"sectionType":"NL"}],"timespans":[{"start":"2024-01-14T00:45:00+0100","end":"2024-01-14T02:45:00+0100","period":"Zondag 14 januari 00:45 uur t/m zondag 14 januari 02:45 uur.","situation":{"label":"Door werkzaamheden: van Nijverdal naar Enschede rijden er bussen."},"cause":{"label":"werkzaamheden"},"additionalTravelTime":{"label":"De extra reistijd kan oplopen tot 30 minuten.","shortLabel":"extra reistijd tot 30 min.","maximumDurationInMinutes":30},"alternativeTransport":{"label":"er rijden stopbussen","shortLabel":"er rijden stopbussen"},"advices":[]}],"alternativeTransportTimespans":[{"start":"2024-01-14T00:45:00+0100","end":"2024-01-14T02:45:00+0100","alternativeTransport":{"location":[{"station":{"coordinate":{"lat":52.366111,"lng":6.462},"countryCode":"NL","name":"Nijverdal","stationCode":"NVD","uicCode":"8400472"},"description":"vanaf de voorzijde van het station"},{"station":{"coordinate":{"lat":52.3613891601562,"lng":6.59166669845581},"countryCode":"NL","name":"Wierden","stationCode":"WDN","uicCode":"8400691"},"description":"vanaf de voorzijde van het station"},{"station":{"coordinate":{"lat":52.3580551147461,"lng":6.65388870239258},"countryCode":"NL","name":"Almelo","stationCode":"AML","uicCode":"8400051"},"description":"vanaf de voorzijde van het station"},{"station":{"coordinate":{"lat":52.3419456481934,"lng":6.66666650772095},"countryCode":"NL","name":"Almelo de Riet","stationCode":"AMRI","uicCode":"8400520"},"description":"vanaf de voorzijde van het station"},{"station":{"coordinate":{"lat":52.2988891601562,"lng":6.74805545806885},"countryCode":"NL","name":"Borne","stationCode":"BN","uicCode":"8400124"},"description":"vanaf de voorzijde van het station"},{"station":{"coordinate":{"lat":52.2616653442383,"lng":6.79388904571533},"countryCode":"NL","name":"Hengelo","stationCode":"HGL","uicCode":"8400316"},"description":"vanaf de voorzijde van het station"},