[{"type":"MAINTENANCE","id":"7004492","title":"Groningen - Leer.","isActive":true,"local":false,"titleSections":[[{"type":"STATION","value":"Groningen"},{"type":"STATION","value":"Bad Nieuweschans"},{"type":"ICON","value":"MAINTENANCE"},{"type":"STATION","value":"Weener"},{"type":"STATION","value":"Leer (Ostfr.)"}]],"registrationTime":"2024-11-27T12:15:04+0100","start":"2024-02-01T04:00:00+0100","releaseTime":"2024-11-27T12:15:04+0100","end":"2025-08-24T23:59:00+0200","period":"Donderdag 1 februari 4:00 uur t/m zondag 24 augustus 2025 23:59 uur.","impact":{"value":3},"publicationSections":[{"section":{"stations":[{"coordinate":{"lat":53.2105560302734,"lng":6.56472206115723},"countryCode":"NL","name":"Groningen","stationCode":"GN","uicCode":"8400263"},{"coordinate":{"lat":53.20480027,"lng":6.5854178},"countryCode":"NL","name":"Groningen Europapark","stationCode":"GERP","uicCode":"8400238"},{"coordinate":{"lat":53.1617362,"lng":6.7220882},"countryCode":"NL","name":"Kropswolde","stationCode":"KW","uicCode":"8400369"},{"coordinate":{"lat":53.1607232,"lng":6.7402989},"countryCode":"NL","name":"Martenshoek","stationCode":"MTH","uicCode":"8400430"},{"coordinate":{"lat":53.1598181316756,"lng":6.77075386047363},"countryCode":"NL","name":"Hoogezand-Sappemeer","stationCode":"HGZ","uicCode":"8400331"},{"coordinate":{"lat":53.1596122800056,"lng":6.8679141998291},"countryCode":"NL","name":"Zuidbroek","stationCode":"ZB","uicCode":"8400742"},{"coordinate":{"lat":53.1655362,"lng":6.9777775},"countryCode":"NL","name":"Scheemda","stationCode":"SDA","uicCode":"8400551"},{"coordinate":{"lat":53.1392377,"lng":7.035101},"countryCode":"NL","name":"Winschoten","stationCode":"WS","uicCode":"8400696"},{"coordinate":{"lat":53.1844,"lng":7.19937},"countryCode":"NL","name":"Bad Nieuweschans","stationCode":"NSCH","uicCode":"8400457"},{"coordinate":{"lat":53.16311,"lng":7.3442},"countryCode":"D","name":"Weener","stationCode":"WR","uicCode":"8021239"},{"coordinate":{"lat":53.23165,"lng":7.465283},"countryCode":"D","name":"Leer (Ostfriesl)","stationCode":"LEER","uicCode":"8021091"}],"direction":"BOTH"},"consequence":{"section":{"stations":[{"coordinate":{"lat":53.1844,"lng":7.19937},"countryCode":"NL","name":"Bad Nieuweschans","stationCode":"NSCH","uicCode":"8400457"},{"coordinate":{"lat":53.16311,"lng":7.3442},"countryCode":"D","name":"Weener","stationCode":"WR","uicCode":"8021239"}],"direction":"BOTH"},"description":"er rijden bussen","level":"LESS_TRAINS"},"sectionType":"NEIGHBORING_COUNTRY"}],"summaryAdditionalTravelTime":{"label":"De extra reistijd kan oplopen tot 30 minuten.","shortLabel":"Extra reistijd tot 30 min.","maximumDurationInMinutes":30},"timespans":[{"start":"2024-02-01T04:00:00+0100","end":"2025-08-24T23:59:00+0200","period":"Donderdag 1 februari 4:00 uur t/m zondag 24 augustus 2025 23:59 uur.","situation":{"label":"Door een aangepaste dienstregeling: tussen Bad Nieuweschans en Weener rijden er bussen."},"cause":{"label":"aangepaste dienstregeling"},"additionalTravelTime":{"label":"De extra reistijd kan oplopen tot 30 minuten.","shortLabel":"Extra reistijd tot 30 min.","maximumDurationInMinutes":30},"alternativeTransport":{"label":"er rijden stopbussen","shortLabel":"er rijden stopbussen"},"advices":["Op dit moment is er nog geen exacte einddatum bekend."]}],"alternativeTransportTimespans":[{"start":"2024-02-01T04:00:00+0100","end":"2025-08-24T23:59:00+0200","alternativeTransport":{"location":[{"station":{"coordinate":{"lat":53.1844,"lng":7.19937},"countryCode":"NL","name":"Bad Nieuweschans","stationCode":"NSCH","uicCode":"8400457"},"description":"vanaf de voorzijde van het station"},{"station":{"coordinate":{"lat":53.16311,"lng":7.3442},"countryCode":"D","name":"Weener","stationCode":"WR","uicCode":"8021239"},"description":"vanaf de voorzijde van het station"},{"station":{"coordinate":{"lat":53.23165,"lng":7.465283},"countryCode":"D","name":"Leer (Ostfriesl)","stationCode":"LEER","uicCode":"8021091"},"description":"vanaf het busstation"}],"label":"Er rijden stopbussen tussen Bad Nieuweschans, Weener en Leer (Ostfriesl).","shortLabel":"Er rijden stopbussen Bad Nieuweschans - Weener - Leer (Ostfr.)."}}]},{"type":"MAINTENANCE","id":"7005512","title":"Schiphol Airport.","isActive":true,"local":false,"titleSections":[[{"type":"STATION","value":"Schiphol Airport"}],[{"type":"STATION","value":"Schiphol Airport"},{"type":"ICON","value":"MAINTENANCE"},{"type":"STATION","value":"Amsterdam Zuid"},{"type":"STATION","value":"Amersfoort C."}],[{"type":"STATION","value":"Schiphol Airport"},{"type":"ICON","value":"MAINTENANCE"},{"type":"STATION","value":"Amsterdam Zuid"},{"type":"STATION","value":"Lelystad C."}],[{"type":"STATION","value":"Schiphol Airport"},{"type":"ICON","value":"MAINTENANCE"},{"type":"STATION","value":"Amsterdam Zuid"},{"type":"STATION","value":"Utrecht C."}]],"registrationTime":"2024-11-21T18:35:44+0100","start":"2024-11-16T04:00:00+0100","releaseTime":"2024-11-21T18:35:44+0100","end":"2024-12-04T02:00:00+0100","period":"Zaterdag 16 november 4:00 uur t/m woensdag 4 december 2:00 uur.","impact":{"value":5},"publicationSections":[{"section":{"stations":[{"coordinate":{"lat":52.3788871765137,"lng":4.90027761459351},"countryCode":"NL","name":"Amsterdam Centraal","stationCode":"ASD","uicCode":"8400058"},{"coordinate":{"lat":52.3888893127441,"lng":4.83777761459351},"countryCode":"NL","name":"Amsterdam Sloterdijk","stationCode":"ASS","uicCode":"8400059"},{"coordinate":{"lat":52.3577766418457,"lng":4.83388900756836},"countryCode":"NL","name":"Amsterdam Lelylaan","stationCode":"ASDL","uicCode":"8400079"},{"coordinate":{"lat":52.3094444274902,"lng":4.76194429397583},"countryCode":"NL","name":"Schiphol Airport","stationCode":"SHL","uicCode":"8400561"},{"coordinate":{"lat":52.2933349609375,"lng":4.70055532455444},"countryCode":"NL","name":"Hoofddorp","stationCode":"HFD","uicCode":"8400332"},{"coordinate":{"lat":52.2588882446289,"lng":4.64555549621582},"countryCode":"NL","name":"Nieuw Vennep","stationCode":"NVP","uicCode":"8400460"},{"coordinate":{"lat":52.215278,"lng":4.517222},"countryCode":"NL","name":"Sassenheim","stationCode":"SSH","uicCode":"8400603"},{"coordinate":{"lat":52.1661109924316,"lng":4.48166656494141},"countryCode":"NL","name":"Leiden Centraal","stationCode":"LEDN","uicCode":"8400390"}],"direction":"BOTH"},"consequence":{"section":{"stations":[{"coordinate":{"lat":52.3094444274902,"lng":4.76194429397583},"countryCode":"NL","name":"Schiphol Airport","stationCode":"SHL","uicCode":"8400561"}],"direction":"BOTH"},"description":"veel minder treinen","level":"LESS_TRAINS"},"sectionType":"NL"},{"section":{"stations":[{"coordinate":{"lat":52.3094444274902,"lng":4.76194429397583},"countryCode":"NL","name":"Schiphol Airport","stationCode":"SHL","uicCode":"8400561"},{"coordinate":{"lat":52.338889,"lng":4.872356},"countryCode":"NL","name":"Amsterdam Zuid","stationCode":"ASDZ","uicCode":"8400061"},{"coordinate":{"lat":52.3372230529785,"lng":4.89027786254883},"countryCode":"NL","name":"Amsterdam RAI","stationCode":"RAI","uicCode":"8400056"},{"coordinate":{"lat":52.3122215270996,"lng":4.94694423675537},"countryCode":"NL","name":"Amsterdam Bijlmer ArenA","stationCode":"ASB","uicCode":"8400074"},{"coordinate":{"lat":52.29844,"lng":4.95972},"countryCode":"NL","name":"Amsterdam Holendrecht","stationCode":"ASHD","uicCode":"8400231"},{"coordinate":{"lat":52.2785,"lng":4.977},"countryCode":"NL","name":"Abcoude","stationCode":"AC","uicCode":"8400047"},{"coordinate":{"lat":52.17149,"lng":4.9906},"countryCode":"NL","name":"Breukelen","stationCode":"BKL","uicCode":"8400133"},{"coordinate":{"lat":52.1352767944336,"lng":5.03361129760742},"countryCode":"NL","name":"Maarssen","stationCode":"MAS","uicCode":"8400419"},{"coordinate":{"lat":52.103055,"lng":5.09},"countryCode":"NL","name":"Utrecht Zuilen","stationCode":"UTZL","uicCode":"8400613"},{"coordinate":{"lat":52.0888900756836,"lng":5.11027765274048},"countryCode":"NL","name":"Utrecht Centraal","stationCode":"UT","uicCode":"8400621"}],"direction":"BOTH"},"consequence":{"section":{"stations":[{"coordinate":{"lat":52.3094444274902,"lng":4.76194429397583},"countryCode":"NL","name":"Schiphol Airport","stationCode":"SHL","uicCode":"8400561"}],"direction":"BOTH"},"description":"veel minder treinen","level":"LESS_TRAINS"},"sectionType":"NL"},{"section":{"stations":[{"coordinate":{"lat":52.2933349609375,"lng":4.70055532455444},"countryCode":"NL","name":"Hoofddorp","stationCode":"HFD","uicCode":"8400332"},{"coordinate":{"lat":52.3094444274902,"lng":4.76194429397583},"countryCode":"NL","name":"Schiphol Airport","stationCode":"SHL","uicCode":"8400561"},{"coordinate":{"lat":52.338889,"lng":4.872356},"countryCode":"NL","name":"Amsterdam Zuid","stationCode":"ASDZ","uicCode":"8400061"},{"coordinate":{"lat":52.3372230529785,"lng":4.89027786254883},"countryCode":"NL","name":"Amsterdam RAI","stationCode":"RAI","uicCode":"8400056"},{"coordinate":{"lat":52.3233337402344,"lng":4.93638896942139},"countryCode":"NL","name":"Duivendrecht","stationCode":"DVD","uicCode":"8400194"},{"coordinate":{"lat":52.3302764892578,"lng":4.95583343505859},"countryCode":"NL","name":"Diemen Zuid","stationCode":"DMNZ","uicCode":"8400163"},{"coordinate":{"lat":52.3127784729004,"lng":5.04305553436279},"countryCode":"NL","name":"Weesp","stationCode":"WP","uicCode":"8400685"},{"coordinate":{"lat":52.342778,"lng":5.151944},"countryCode":"NL","name":"Almere Poort","stationCode":"AMPO","uicCode":"8400450"},{"coordinate":{"lat":52.3675003051758,"lng":5.19027757644653},"countryCode":"NL","name":"Almere Muziekwijk","stationCode":"ALMM","uicCode":"8400082"},{"coordinate":{"lat":52.37503,"lng":5.21764},"countryCode":"NL","name":"Almere Centrum","stationCode":"ALM","uicCode":"8400080"},{"coordinate":{"lat":52.3766670227051,"lng":5.24472236633301},"countryCode":"NL","name":"Almere Parkwijk","stationCode":"ALMP","uicCode":"8400104"},{"coordinate":{"lat":52.3941650390625,"lng":5.2780556678772},"countryCode":"NL","name":"Almere Buiten","stationCode":"ALMB","uicCode":"8400081"},{"coordinate":{"lat":52.4033317565918,"lng":5.30055570602417},"countryCode":"NL","name":"Almere Oostvaarders","stationCode":"ALMO","uicCode":"8400226"}],"direction":"BOTH"},"consequence":{"section":{"stations":[{"coordinate":{"lat":52.3094444274902,"lng":4.76194429397583},"countryCode":"NL","name":"Schiphol Airport","stationCode":"SHL","uicCode":"8400561"}],"direction":"BOTH"},"description":"veel minder treinen","level":"LESS_TRAINS"},"sectionType":"NL"},{"section":{"stations":[{"coordinate":{"lat":52.3094444274902,"lng":4.76194429397583},"countryCode":"NL","name":"Schiphol Airport","stationCode":"SHL","uicCode":"8400561"},{"coordinate":{"lat":52.338889,"lng":4.872356},"countryCode":"NL","name":"Amsterdam Zuid","stationCode":"ASDZ","uicCode":"8400061"},{"coordinate":{"lat":52.3372230529785,"lng":4.89027786254883},"countryCode":"NL","name":"Amsterdam RAI","stationCode":"RAI","uicCode":"8400056"},{"coordinate":{"lat":52.3233337402344,"lng":4.93638896942139},"countryCode":"NL","name":"Duivendrecht","stationCode":"DVD","uicCode":"8400194"},{"coordinate":{"lat":52.3302764892578,"lng":4.95583343505859},"countryCode":"NL","name":"Diemen Zuid","stationCode":"DMNZ","uicCode":"8400163"},{"coordinate":{"lat":52.3127784729004,"lng":5.04305553436279},"countryCode":"NL","name":"Weesp","stationCode":"WP","uicCode":"8400685"},{"coordinate":{"lat":52.2802772521973,"lng":5.15694427490234},"countryCode":"NL","name":"Naarden-Bussum","stationCode":"NDB","uicCode":"8400452"},{"coordinate":{"lat":52.2658348083496,"lng":5.16305541992188},"countryCode":"NL","name":"Bussum Zuid","stationCode":"BSMZ","uicCode":"8400145"},{"coordinate":{"lat":52.2380561828613,"lng":5.17388868331909},"countryCode":"NL","name":"Hilversum Media Park","stationCode":"HVSM","uicCode":"8400324"},{"coordinate":{"lat":52.2258338928223,"lng":5.18194437026978},"countryCode":"NL","name":"Hilversum","stationCode":"HVS","uicCode":"8400322"},{"coordinate":{"lat":52.2083320617676,"lng":5.28083324432373},"countryCode":"NL","name":"Baarn","stationCode":"BRN","uicCode":"8400086"},{"coordinate":{"lat":52.1538887023926,"lng":5.37055540084839},"countryCode":"NL","name":"Amersfoort Centraal","stationCode":"AMF","uicCode":"8400055"}],"direction":"BOTH"},"consequence":{"section":{"stations":[{"coordinate":{"lat":52.3094444274902,"lng":4.76194429397583},"countryCode":"NL","name":"Schiphol Airport","stationCode":"SHL","uicCode":"8400561"},{"coordinate":{"lat":52.338889,"lng":4.872356},"countryCode":"NL","name":"Amsterdam Zuid","stationCode":"ASDZ","uicCode":"8400061"}],"direction":"BOTH"},"description":"geen treinen","level":"LESS_TRAINS"},"sectionType":"NL"},{"section":{"stations":[{"coordinate":{"lat":52.3094444274902,"lng":4.76194429397583},"countryCode":"NL","name":"Schiphol Airport","stationCode":"SHL","uicCode":"8400561"},{"coordinate":{"lat":52.338889,"lng":4.872356},"countryCode":"NL","name":"Amsterdam Zuid","stationCode":"ASDZ","uicCode":"8400061"},{"coordinate":{"lat":52.3372230529785,"lng":4.89027786254883},"countryCode":"NL","name":"Amsterdam RAI","stationCode":"RAI","uicCode":"8400056"},{"coordinate":{"lat":52.3233337402344,"lng":4.93638896942139},"countryCode":"NL","name":"Duivendrecht","stationCode":"DVD","uicCode":"8400194"},{"coordinate":{"lat":52.3302764892578,"lng":4.95583343505859},"countryCode":"NL","name":"Diemen Zuid","stationCode":"DMNZ","uicCode":"8400163"},{"coordinate":{"lat":52.3127784729004,"lng":5.04305553436279},"countryCode":"NL","name":"Weesp","stationCode":"WP","uicCode":"8400685"},{"coordinate":{"lat":52.342778,"lng":5.151944},"countryCode":"NL","name":"Almere Poort","stationCode":"AMPO","uicCode":"8400450"},{"coordinate":{"lat":52.3675003051758,"lng":5.19027757644653},"countryCode":"NL","name":"Almere Muziekwijk","stationCode":"ALMM","uicCode":"8400082"},{"coordinate":{"lat":52.37503,"lng":5.21764},"countryCode":"NL","name":"Almere Centrum","stationCode":"ALM","uicCode":"8400080"},{"coordinate":{"lat":52.3766670227051,"lng":5.24472236633301},"countryCode":"NL","name":"Almere Parkwijk","stationCode":"ALMP","uicCode":"8400104"},{"coordinate":{"lat":52.3941650390625,"lng":5.2780556678772},"countryCode":"NL","name":"Almere Buiten","stationCode":"ALMB","uicCode":"8400081"},{"coordinate":{"lat":52.4033317565918,"lng":5.30055570602417},"countryCode":"NL","name":"Almere Oostvaarders","stationCode":"ALMO","uicCode":"8400226"},{"coordinate":{"lat":52.5077781677246,"lng":5.47277784347534},"countryCode":"NL","name":"Lelystad Centrum","stationCode":"LLS","uicCode":"8400394"}],"direction":"BOTH"},"consequence":{"section":{"stations":[{"coordinate":{"lat":52.3094444274902,"lng":4.76194429397583},"countryCode":"NL","name":"Schiphol Airport","stationCode":"SHL","uicCode":"8400561"},{"coordinate":{"lat":52.338889,"lng":4.872356},"countryCode":"NL","name":"Amsterdam Zuid","stationCode":"ASDZ","uicCode":"8400061"}],"direction":"BOTH"},"description":"geen treinen","level":"LESS_TRAINS"},"sectionType":"NL"},{"section":{"stations":[{"coordinate":{"lat":52.3094444274902,"lng":4.76194429397583},"countryCode":"NL","name":"Schiphol Airport","stationCode":"SHL","uicCode":"8400561"},{"coordinate":{"lat":52.338889,"lng":4.872356},"countryCode":"NL","name":"Amsterdam Zuid","stationCode":"ASDZ","uicCode":"8400061"},{"coordinate":{"lat":52.3372230529785,"lng":4.89027786254883},"countryCode":"NL","name":"Amsterdam RAI","stationCode":"RAI","uicCode":"8400056"},{"coordinate":{"lat":52.3122215270996,"lng":4.94694423675537},"countryCode":"NL","name":"Amsterdam Bijlmer ArenA","stationCode":"ASB","uicCode":"8400074"},{"coordinate":{"lat":52.29844,"lng":4.95972},"countryCode":"NL","name":"Amsterdam Holendrecht","stationCode":"ASHD","uicCode":"8400231"},{"coordinate":{"lat":52.2785,"lng":4.977},"countryCode":"NL","name":"Abcoude","stationCode":"AC","uicCode":"8400047"},{"coordinate":{"lat":52.17149,"lng":4.9906},"countryCode":"NL","name":"Breukelen","stationCode":"BKL","uicCode":"8400133"},{"coordinate":{"lat":52.1352767944336,"lng":5.03361129760742},"countryCode":"NL","name":"Maarssen","stationCode":"MAS","uicCode":"8400419"},{"coordinate":{"lat":52.103055,"lng":5.09},"countryCode":"NL","name":"Utrecht Zuilen","stationCode":"UTZL","uicCode":"8400613"},{"coordinate":{"lat":52.0888900756836,"lng":5.11027765274048},"countryCode":"NL","name":"Utrecht Centraal","stationCode":"UT","uicCode":"8400621"}],"direction":"BOTH"},"consequence":{"section":{"stations":[{"coordinate":{"lat":52.3094444274902,"lng":4.76194429397583},"countryCode":"NL","name":"Schiphol Airport","stationCode":"SHL","uicCode":"8400561"},{"coordinate":{"lat":52.338889,"lng":4.872356},"countryCode":"NL","name":"Amsterdam Zuid","stationCode":"ASDZ","uicCode":"8400061"}],"direction":"BOTH"},"description":"geen treinen","level":"LESS_TRAINS"},"sectionType":"NL"}],"summaryAdditionalTravelTime":{"label":"De extra reistijd kan oplopen tot 30 minuten.","shortLabel":"Extra reistijd tot 30 min.","minimumDurationInMinutes":30,"maximumDurationInMinutes":30},"timespans":[{"start":"2024-12-02T04:00:00+0100","end":"2024-12-04T02:00:00+0100","period":"Maandag 2 december 4:00 uur t/m woensdag 4 december 2:00 uur.","situation":{"label":"Door werkzaamheden: van, via en naar Schiphol Airport rijden er veel minder treinen."},"cause":{"label":"werkzaamheden"},"additionalTravelTime":{"label":"De extra reistijd is ongeveer 15 minuten.","shortLabel":"Extra reistijd 15 min.","minimumDurationInMinutes":15,"maximumDurationInMinutes":15},"advices":["Reis niet in de spits. Stel uw reis uit of reis niet via Schiphol Airport.","Tussen Leiden C. en Amsterdam C. reis via Haarlem.","Tussen Den Haag C. en Amersfoort C. reis via Utrecht C.","Tussen Schiphol Airport en Almere C./Hilversum reis via Amsterdam C.","Tussen Schiphol Airport en Utrecht C. reis via Leiden C."]}],"alternativeTransportTimespans":[{"start":"2024-11-29T04:00:00+0100","end":"2024-11-30T02:00:00+0100","alternativeTransport":{"location":[{"station":{"coordinate":{"lat":52.3577766418457,"lng":4.83388900756836},"countryCode":"NL","name":"Amsterdam Lelylaan","stationCode":"ASDL","uicCode":"8400079"},"description":"volg de aanwijzingen op het station"},{"station":{"coordinate":{"lat":52.338889,"lng":4.872356},"countryCode":"NL","name":"Amsterdam Zuid","stationCode":"ASDZ","uicCode":"8400061"},"description":"volg de aanwijzingen op het station"}],"label":"Maak gebruik van de Amsterdamse metro tussen Amsterdam Lelylaan en Amsterdam Zuid.","shortLabel":"Gebruik de Amsterdamse metro Lelylaan - Amsterdam Zuid."}},{"start":"2024-11-29T05:30:00+0100","end":"2024-11-29T06:30:00+0100","alternativeTransport":{"location":[{"station":{"coordinate":{"lat":52.338889,"lng":4.872356},"countryCode":"NL","name":"Amsterdam Zuid","stationCode":"ASDZ","uicCode":"8400061"},"description":"vanaf de Strawinskylaan uitgang Zuidplein"},{"station":{"coordinate":{"lat":52.3094444274902,"lng":4.76194429397583},"countryCode":"NL","name":"Schiphol Airport","stationCode":"SHL","uicCode":"8400561"},"description":"vanaf de Halte F6, volg borden Touring coaches"}],"label":"Er rijden stopbussen tussen Amsterdam Zuid en Schiphol Airport.","shortLabel":"Er rijden stopbussen Amsterdam Zuid - Schiphol Airport."}},{"start":"2024-11-30T00:45:00+0100","end":"2024-11-30T02:30:00+0100","alternativeTransport":{"location":[{"station":{"coordinate":{"lat":52.3094444274902,"lng":4.76194429397583},"countryCode":"NL","name":"Schiphol Airport","stationCode":"SHL","uicCode":"8400561"},"description":"vanaf de Halte F6, volg borden Touring coaches"},{"station":{"coordinate":{"lat":52.338889,"lng":4.872356},"countryCode":"NL","name":"Amsterdam Zuid","stationCode":"ASDZ","uicCode":"8400061"},"description":"vanaf de Strawinskylaan uitgang Zuidplein"},{"station":{"coordinate":{"lat":52.3372230529785,"lng":4.89027786254883},"countryCode":"NL","name":"Amsterdam RAI","stationCode":"RAI","uicCode":"8400056"},"description":"vanaf de voorzijde van het station"},{"station":{"coordinate":{"lat":52.3233337402344,"lng":4.93638896942139},"countryCode":"NL","name":"Duivendrecht","stationCode":"DVD","uicCode":"8400194"},"description":"vanaf het busstation"},{"station":{"coordinate":{"lat":52.3302764892578,"lng":4.95583343505859},"countryCode":"NL","name":"Diemen Zuid","stationCode":"DMNZ","uicCode":"8400163"},"description":"vanaf de voorzijde van het station"},{"station":{"coordinate":{"lat":52.3127784729004,"lng":5.04305553436279},"countryCode":"NL","name":"Weesp","stationCode":"WP","uicCode":"8400685"},"description":"vanaf de achterzijde van het station"}],"label":"Er rijden stopbussen van Schiphol Airport, Amsterdam Zuid, Amsterdam RAI, Duivendrecht, Diemen Zuid naar Weesp.","shortLabel":"Er rijden stopbussen Schiphol Airport -> Amsterdam Zuid -> RAI -> Duivendrecht -> Diemen Zuid -> Weesp."}},{"start":"2024-11-30T00:50:00+0100","end":"2024-11-30T01:30:00+0100","alternativeTransport":{"location":[{"station":{"coordinate":{"lat":52.338889,"lng":4.872356},"countryCode":"NL","name":"Amsterdam Zuid","stationCode":"ASDZ","uicCode":"8400061"},"description":"vanaf de Strawinskylaan uitgang Zuidplein"},{"station":{"coordinate":{"lat":52.3094444274902,"lng":4.76194429397583},"countryCode":"NL","name":"Schiphol Airport","stationCode":"SHL","uicCode":"8400561"},"description":"vanaf de Halte F6, volg borden Touring coaches"},{"station":{"coordinate":{"lat":52.2933349609375,"lng":4.70055532455444},"countryCode":"NL","name":"Hoofddorp","stationCode":"HFD","uicCode":"8400332"},"description":"onder het spoorviaduct"}],"label":"Er rijden stopbussen van Amsterdam Zuid, Schiphol Airport naar Hoofddorp.","shortLabel":"Er rijden stopbussen Amsterdam Zuid -> Schiphol Airport -> Hoofddorp."}},{"start":"2024-11-30T04:00:00+0100","end":"2024-12-02T02:00:00+0100","alternativeTransport":{"location":[{"station":{"coordinate":{"lat":52.3577766418457,"lng":4.83388900756836},"countryCode":"NL","name":"Amsterdam Lelylaan","stationCode":"ASDL","uicCode":"8400079"},"description":"volg de aanwijzingen op het station"},{"station":{"coordinate":{"lat":52.338889,"lng":4.872356},"countryCode":"NL","name":"Amsterdam Zuid","stationCode":"ASDZ","uicCode":"8400061"},"description":"volg de aanwijzingen op het station"}],"label":"Maak gebruik van de Amsterdamse metro tussen Amsterdam Lelylaan en Amsterdam Zuid.","shortLabel":"Gebruik de Amsterdamse metro Lelylaan - Amsterdam Zuid."}},{"start":"2024-12-01T00:45:00+0100","end":"2024-12-01T02:30:00+0100","alternativeTransport":{"location":[{"station":{"coordinate":{"lat":52.3094444274902,"lng":4.76194429397583},"countryCode":"NL","name":"Schiphol Airport","stationCode":"SHL","uicCode":"8400561"},"description":"vanaf de Halte F6, volg borden Touring coaches"},{"station":{"coordinate":{"lat":52.338889,"lng":4.872356},"countryCode":"NL","name":"Amsterdam Zuid","stationCode":"ASDZ","uicCode":"8400061"},"description":"vanaf de Strawinskylaan uitgang Zuidplein"},{"station":{"coordinate":{"lat":52.3372230529785,"lng":4.89027786254883},"countryCode":"NL","name":"Amsterdam RAI","stationCode":"RAI","uicCode":"8400056"},"description":"vanaf de voorzijde van het station"},{"station":{"coordinate":{"lat":52.3233337402344,"lng":4.93638896942139},"countryCode":"NL","name":"Duivendrecht","stationCode":"DVD","uicCode":"8400194"},"description":"vanaf het busstation"},{"station":{"coordinate":{"lat":52.3302764892578,"lng":4.95583343505859},"countryCode":"NL","name":"Diemen Zuid","stationCode":"DMNZ","uicCode":"8400163"},"description":"vanaf de voorzijde van het station"},{"station":{"coordinate":{"lat":52.3127784729004,"lng":5.04305553436279},"countryCode":"NL","name":"Weesp","stationCode":"WP","uicCode":"8400685"},"description":"vanaf de achterzijde van het station"}],"label":"Er rijden stopbussen van Schiphol Airport, Amsterdam Zuid, Amsterdam RAI, Duivendrecht, Diemen Zuid naar Weesp.","shortLabel":"Er rijden stopbussen Schiphol Airport -> Amsterdam Zuid -> RAI -> Duivendrecht -> Diemen Zuid -> Weesp."}}]},{"type":"MAINTENANCE","id":"7005587","title":"Hengelo - Bielefeld.","isActive":true,"local":false,"titleSections":[[{"type":"STATION","value":"Hengelo"},{"type":"STATION","value":"Rheine"},{"type":"ICON","value":"MAINTENANCE"},{"type":"STATION","value":"Osnabrück Hbf"},{"type":"STATION","value":"Bielefeld Hbf"}]],"registrationTime":"2024-12-02T18:56:20+0100","start":"2024-12-02T05:00:00+0100","releaseTime":"2024-12-02T18:56:20+0100","end":"2024-12-11T23:00:00+0100","period":"Maandag 2 december 5:00 uur t/m woensdag 11 december 23:00 uur.","impact":{"value":3},"publicationSections":[{"section":{"stations":[{"coordinate":{"lat":52.2616653442383,"lng":6.79388904571533},"countryCode":"NL","name":"Hengelo","stationCode":"HGL","uicCode":"8400316"},{"coordinate":{"lat":52.2688903808594,"lng":6.81944465637207},"countryCode":"NL","name":"Hengelo Oost","stationCode":"HGLO","uicCode":"8400312"},{"coordinate":{"lat":52.3063888549805,"lng":6.93472242355347},"countryCode":"NL","name":"Oldenzaal","stationCode":"ODZ","uicCode":"8400483"},{"coordinate":{"lat":52.309685595156,"lng":7.15853691101074},"countryCode":"D","name":"Bad Bentheim","stationCode":"BH","uicCode":"8021156"},{"coordinate":{"lat":52.276299,"lng":7.434255},"countryCode":"D","name":"Rheine","stationCode":"RHEINE","uicCode":"8021067"},{"coordinate":{"lat":52.272851,"lng":8.061781},"countryCode":"D","name":"Osnabrück Hbf","stationCode":"OSNH","uicCode":"8021025"},{"coordinate":{"lat":52.202075,"lng":8.573876},"countryCode":"D","name":"Bünde (Westf)","stationCode":"BUENDE","uicCode":"8021173"},{"coordinate":{"lat":52.029261,"lng":8.532722},"countryCode":"D","name":"Bielefeld Hbf","stationCode":"BIELEF","uicCode":"8013597"}],"direction":"BOTH"},"consequence":{"section":{"stations":[{"coordinate":{"lat":52.276299,"lng":7.434255},"countryCode":"D","name":"Rheine","stationCode":"RHEINE","uicCode":"8021067"},{"coordinate":{"lat":52.272851,"lng":8.061781},"countryCode":"D","name":"Osnabrück Hbf","stationCode":"OSNH","uicCode":"8021025"}],"direction":"BOTH"},"description":"er rijden bussen","level":"LESS_TRAINS"},"sectionType":"NEIGHBORING_COUNTRY"}],"summaryAdditionalTravelTime":{"label":"De extra reistijd kan oplopen tot 30 minuten.","shortLabel":"Extra reistijd tot 30 min.","minimumDurationInMinutes":30,"maximumDurationInMinutes":30},"timespans":[{"start":"2024-12-02T05:00:00+0100","end":"2024-12-04T23:00:00+0100","period":"Maandag 2 december 5:00 uur t/m woensdag 4 december 23:00 uur.","situation":{"label":"Door werkzaamheden: tussen Rheine en Osnabrück Hbf rijden er bussen."},"cause":{"label":"werkzaamheden"},"additionalTravelTime":{"label":"De extra reistijd is ongeveer 30 minuten.","shortLabel":"Extra reistijd 30 min.","minimumDurationInMinutes":30,"maximumDurationInMinutes":30},"alternativeTransport":{"label":"er rijden stopbussen","shortLabel":"er rijden stopbussen"},"advices":["Er rijden bussen tussen Rheine en Ibbenbüren. Plan uw reis via bahn.de"]},{"start":"2024-12-09T05:00:00+0100","end":"2024-12-11T23:00:00+0100","period":"Maandag 9 december 5:00 uur t/m woensdag 11 december 23:00 uur.","situation":{"label":"Door werkzaamheden: tussen Rheine en Osnabrück Hbf rijden er bussen."},"cause":{"label":"werkzaamheden"},"additionalTravelTime":{"label":"De extra reistijd is ongeveer 30 minuten.","shortLabel":"Extra reistijd 30 min.","minimumDurationInMinutes":30,"maximumDurationInMinutes":30},"alternativeTransport":{"label":"er rijden stopbussen","shortLabel":"er rijden stopbussen"},"advices":["Er rijden bussen tussen Rheine en Ibbenbüren. Plan uw reis via bahn.de"]}],"alternativeTransportTimespans":[{"start":"2024-12-02T05:00:00+0100","end":"2024-12-04T23:00:00+0100","alternativeTransport":{"location":[{"station":{"coordinate":{"lat":52.276299,"lng":7.434255},"countryCode":"D","name":"Rheine","stationCode":"RHEINE","uicCode":"8021067"},"description":"volg de aanwijzingen op het station"},{"station":{"coordinate":{"lat":52.272851,"lng":8.061781},"countryCode":"D","name":"Osnabrück Hbf","stationCode":"OSNH","uicCode":"8021025"},"description":"volg de aanwijzingen op het station"}],"label":"Er rijden stopbussen tussen Rheine en Osnabrück Hbf.","shortLabel":"Er rijden stopbussen Rheine - Osnabrück Hbf."}},{"start":"2024-12-09T05:00:00+0100","end":"2024-12-11T23:00:00+0100","alternativeTransport":{"location":[{"station":{"coordinate":{"lat":52.276299,"lng":7.434255},"countryCode":"D","name":"Rheine","stationCode":"RHEINE","uicCode":"8021067"},"description":"volg de aanwijzingen op het station"},{"station":{"coordinate":{"lat":52.272851,"lng":8.061781},"countryCode":"D","name":"Osnabrück Hbf","stationCode":"OSNH","uicCode":"8021025"},"description":"volg de aanwijzingen op het station"}],"label":"Er rijden stopbussen tussen Rheine en Osnabrück Hbf.","shortLabel":"Er rijden stopbussen Rheine - Osnabrück Hbf."}}]},{"type":"MAINTENANCE","id":"7005271","title":"Heerlen - Aachen Hbf.","isActive":true,"local":false,"titleSections":[[{"type":"STATION","value":"Heerlen"},{"type":"ICON","value":"MAINTENANCE"},{"type":"STATION","value":"Aachen Hbf"}]],"registrationTime":"2024-11-22T11:26:51+0100","start":"2024-12-02T21:00:00+0100","releaseTime":"2024-11-22T11:26:51+0100","end":"2024-12-03T01:30:00+0100","period":"Maandag 2 december 21:00 uur t/m dinsdag 3 december 1:30 uur.","impact":{"value":2},"publicationSections":[{"section":{"stations":[{"coordinate":{"lat":50.8908348083496,"lng":5.97499990463257},"countryCode":"NL","name":"Heerlen","stationCode":"HRL","uicCode":"8400307"},{"coordinate":{"lat":50.8963890075684,"lng":6.01916646957398},"countryCode":"NL","name":"Landgraaf","stationCode":"LG","uicCode":"8400548"},{"coordinate":{"lat":50.8960498196442,"lng":6.0602474212646396},"countryCode":"NL","name":"Eygelshoven Markt","stationCode":"EGHM","uicCode":"8400234"},{"coordinate":{"lat":50.870916,"lng":6.094486},"countryCode":"D","name":"Herzogenrath","stationCode":"HZ","uicCode":"8015190"},{"coordinate":{"lat":50.7678,"lng":6.091499},"countryCode":"D","name":"Aachen Hbf","stationCode":"AHBF","uicCode":"8015345"}],"direction":"BOTH"},"consequence":{"section":{"stations":[{"coordinate":{"lat":50.8908348083496,"lng":5.97499990463257},"countryCode":"NL","name":"Heerlen","stationCode":"HRL","uicCode":"8400307"},{"coordinate":{"lat":50.8963890075684,"lng":6.01916646957398},"countryCode":"NL","name":"Landgraaf","stationCode":"LG","uicCode":"8400548"},{"coordinate":{"lat":50.8960498196442,"lng":6.0602474212646396},"countryCode":"NL","name":"Eygelshoven Markt","stationCode":"EGHM","uicCode":"8400234"},{"coordinate":{"lat":50.870916,"lng":6.094486},"countryCode":"D","name":"Herzogenrath","stationCode":"HZ","uicCode":"8015190"},{"coordinate":{"lat":50.7678,"lng":6.091499},"countryCode":"D","name":"Aachen Hbf","stationCode":"AHBF","uicCode":"8015345"}],"direction":"BOTH"},"description":"er rijden bussen","level":"LESS_TRAINS"},"sectionType":"NEIGHBORING_COUNTRY"}],"summaryAdditionalTravelTime":{"label":"De extra reistijd is ongeveer 30 minuten.","shortLabel":"Extra reistijd 30 min.","minimumDurationInMinutes":30,"maximumDurationInMinutes":30},"timespans":[{"start":"2024-12-02T21:00:00+0100","end":"2024-12-03T01:30:00+0100","period":"Maandag 2 december 21:00 uur t/m dinsdag 3 december 1:30 uur.","situation":{"label":"Door werkzaamheden: tussen Heerlen en Aachen Hbf rijden er bussen."},"cause":{"label":"werkzaamheden"},"additionalTravelTime":{"label":"De extra reistijd is ongeveer 30 minuten.","shortLabel":"Extra reistijd 30 min.","minimumDurationInMinutes":30,"maximumDurationInMinutes":30},"alternativeTransport":{"label":"er rijden stopbussen","shortLabel":"er rijden stopbussen"},"advices":[]}],"alternativeTransportTimespans":[{"start":"2024-12-02T21:00:00+0100","end":"2024-12-03T01:30:00+0100","alternativeTransport":{"location":[{"station":{"coordinate":{"lat":50.8908348083496,"lng":5.97499990463257},"countryCode":"NL","name":"Heerlen","stationCode":"HRL","uicCode":"8400307"},"description":"vanaf het busstation Perron A"},{"station":{"coordinate":{"lat":50.8963890075684,"lng":6.01916646957398},"countryCode":"NL","name":"Landgraaf","stationCode":"LG","uicCode":"8400548"},"description":"vanaf de doorgaande weg, voorzijde station"},{"station":{"coordinate":{"lat":50.8960498196442,"lng":6.0602474212646396},"countryCode":"NL","name":"Eygelshoven Markt","stationCode":"EGHM","uicCode":"8400234"},"description":"vanaf de bushalte Centrum"},{"station":{"coordinate":{"lat":50.870916,"lng":6.094486},"countryCode":"D","name":"Herzogenrath","stationCode":"HZ","uicCode":"8015190"},"description":"volg de aanwijzingen op het station"},{"station":{"coordinate":{"lat":50.78036,"lng":6.070715},"countryCode":"D","name":"Aachen West","stationCode":"AW","uicCode":"8015199"},"description":"volg de aanwijzingen op het station"},{"station":{"coordinate":{"lat":50.7678,"lng":6.091499},"countryCode":"D","name":"Aachen Hbf","stationCode":"AHBF","uicCode":"8015345"},"description":"volg de aanwijzingen op het station"}],"label":"Er rijden stopbussen tussen Heerlen, Landgraaf, Eygelshoven Markt, Herzogenrath, Aachen West en Aachen Hbf.","shortLabel":"Er rijden stopbussen Heerlen - Landgraaf - Eygelshoven Mrkt - Herzogenrath - Aachen West - Aachen Hbf."}}]},{"type":"MAINTENANCE","id":"7005608","title":"Schiphol - Leiden.","isActive":false,"local":false,"titleSections":[[{"type":"STATION","value":"Schiphol Airport"},{"type":"ICON","value":"MAINTENANCE"},{"type":"STATION","value":"Leiden C."}]],"registrationTime":"2024-11-14T13:27:42+0100","start":"2024-12-03T01:30:00+0100","releaseTime":"2024-11-14T13:27:42+0100","end":"2024-12-03T05:30:00+0100","period":"Dinsdag 3 december 1:30 uur t/m dinsdag 3 december 5:30 uur.","impact":{"value":3},"publicationSections":[{"section":{"stations":[{"coordinate":{"lat":52.3094444274902,"lng":4.76194429397583},"countryCode":"NL","name":"Schiphol Airport","stationCode":"SHL","uicCode":"8400561"},{"coordinate":{"lat":52.2933349609375,"lng":4.70055532455444},"countryCode":"NL","name":"Hoofddorp","stationCode":"HFD","uicCode":"8400332"},{"coordinate":{"lat":52.2588882446289,"lng":4.64555549621582},"countryCode":"NL","name":"Nieuw Vennep","stationCode":"NVP","uicCode":"8400460"},{"coordinate":{"lat":52.215278,"lng":4.517222},"countryCode":"NL","name":"Sassenheim","stationCode":"SSH","uicCode":"8400603"},{"coordinate":{"lat":52.1661109924316,"lng":4.48166656494141},"countryCode":"NL","name":"Leiden Centraal","stationCode":"LEDN","uicCode":"8400390"}],"direction":"BOTH"},"consequence":{"section":{"stations":[{"coordinate":{"lat":52.3094444274902,"lng":4.76194429397583},"countryCode":"NL","name":"Schiphol Airport","stationCode":"SHL","uicCode":"8400561"},{"coordinate":{"lat":52.2933349609375,"lng":4.70055532455444},"countryCode":"NL","name":"Hoofddorp","stationCode":"HFD","uicCode":"8400332"},{"coordinate":{"lat":52.2588882446289,"lng":4.64555549621582},"countryCode":"NL","name":"Nieuw Vennep","stationCode":"NVP","uicCode":"8400460"},{"coordinate":{"lat":52.215278,"lng":4.517222},"countryCode":"NL","name":"Sassenheim","stationCode":"SSH","uicCode":"8400603"},{"coordinate":{"lat":52.1661109924316,"lng":4.48166656494141},"countryCode":"NL","name":"Leiden Centraal","stationCode":"LEDN","uicCode":"8400390"}],"direction":"BOTH"},"description":"er rijden bussen","level":"LESS_TRAINS"},"sectionType":"NL"}],"summaryAdditionalTravelTime":{"label":"De extra reistijd is ongeveer 15 minuten.","shortLabel":"Extra reistijd 15 min.","minimumDurationInMinutes":15,"maximumDurationInMinutes":15},"timespans":[{"start":"2024-12-03T01:30:00+0100","end":"2024-12-03T05:30:00+0100","period":"Dinsdag 3 december 1:30 uur t/m dinsdag 3 december 5:30 uur.","situation":{"label":"Door werkzaamheden: tussen Schiphol Airport en Leiden Centraal rijden er bussen."},"cause":{"label":"werkzaamheden"},"additionalTravelTime":{"label":"De extra reistijd is ongeveer 15 minuten.","shortLabel":"Extra reistijd 15 min.","minimumDurationInMinutes":15,"maximumDurationInMinutes":15},"alternativeTransport":{"label":"er rijden snelbussen","shortLabel":"er rijden snelbussen"},"advices":[]}],"alternativeTransportTimespans":[{"start":"2024-12-03T01:30:00+0100","end":"2024-12-03T05:30:00+0100","alternativeTransport":{"location":[{"station":{"coordinate":{"lat":52.3094444274902,"lng":4.76194429397583},"countryCode":"NL","name":"Schiphol Airport","stationCode":"SHL","uicCode":"8400561"},"description":"vanaf de Halte F6, volg borden Touring coaches"},{"station":{"coordinate":{"lat":52.1661109924316,"lng":4.48166656494141},"countryCode":"NL","name":"Leiden Centraal","stationCode":"LEDN","uicCode":"8400390"},"description":"vanaf het stadsbusstation"}],"label":"Er rijden snelbussen tussen Schiphol Airport en Leiden Centraal.","shortLabel":"Er rijden snelbussen Schiphol Airport - Leiden C."}}]},{"type":"MAINTENANCE","id":"7005272","title":"Heerlen - Aachen Hbf.","isActive":false,"local":false,"titleSections":[[{"type":"STATION","value":"Heerlen"},{"type":"ICON","value":"MAINTENANCE"},{"type":"STATION","value":"Aachen Hbf"}]],"registrationTime":"2024-11-22T11:26:57+0100","start":"2024-12-03T21:00:00+0100","releaseTime":"2024-11-22T11:26:57+0100","end":"2024-12-04T01:30:00+0100","period":"Dinsdag 3 december 21:00 uur t/m woensdag 4 december 1:30 uur.","impact":{"value":2},"publicationSections":[{"section":{"stations":[{"coordinate":{"lat":50.8908348083496,"lng":5.97499990463257},"countryCode":"NL","name":"Heerlen","stationCode":"HRL","uicCode":"8400307"},{"coordinate":{"lat":50.8963890075684,"lng":6.01916646957398},"countryCode":"NL","name":"Landgraaf","stationCode":"LG","uicCode":"8400548"},{"coordinate":{"lat":50.8960498196442,"lng":6.0602474212646396},"countryCode":"NL","name":"Eygelshoven Markt","stationCode":"EGHM","uicCode":"8400234"},{"coordinate":{"lat":50.870916,"lng":6.094486},"countryCode":"D","name":"Herzogenrath","stationCode":"HZ","uicCode":"8015190"},{"coordinate":{"lat":50.7678,"lng":6.091499},"countryCode":"D","name":"Aachen Hbf","stationCode":"AHBF","uicCode":"8015345"}],"direction":"BOTH"},"consequence":{"section":{"stations":[{"coordinate":{"lat":50.8908348083496,"lng":5.97499990463257},"countryCode":"NL","name":"Heerlen","stationCode":"HRL","uicCode":"8400307"},{"coordinate":{"lat":50.8963890075684,"lng":6.01916646957398},"countryCode":"NL","name":"Landgraaf","stationCode":"LG","uicCode":"8400548"},{"coordinate":{"lat":50.8960498196442,"lng":6.0602474212646396},"countryCode":"NL","name":"Eygelshoven Markt","stationCode":"EGHM","uicCode":"8400234"},{"coordinate":{"lat":50.870916,"lng":6.094486},"countryCode":"D","name":"Herzogenrath","stationCode":"HZ","uicCode":"8015190"},{"coordinate":{"lat":50.7678,"lng":6.091499},"countryCode":"D","name":"Aachen Hbf","stationCode":"AHBF","uicCode":"8015345"}],"direction":"BOTH"},"description":"er rijden bussen","level":"LESS_TRAINS"},"sectionType":"NEIGHBORING_COUNTRY"}],"summaryAdditionalTravelTime":{"label":"De extra reistijd is ongeveer 30 minuten.","shortLabel":"Extra reistijd 30 min.","minimumDurationInMinutes":30,"maximumDurationInMinutes":30},"timespans":[{"start":"2024-12-03T21:00:00+0100","end":"2024-12-04T01:30:00+0100","period":"Dinsdag 3 december 21:00 uur t/m woensdag 4 december 1:30 uur.","situation":{"label":"Door werkzaamheden: tussen Heerlen en Aachen Hbf rijden er bussen."},"cause":{"label":"werkzaamheden"},"additionalTravelTime":{"label":"De extra reistijd is ongeveer 30 minuten.","shortLabel":"Extra reistijd 30 min.","minimumDurationInMinutes":30,"maximumDurationInMinutes":30},"alternativeTransport":{"label":"er rijden stopbussen","shortLabel":"er rijden stopbussen"},"advices":[]}],"alternativeTransportTimespans":[{"start":"2024-12-03T21:00:00+0100","end":"2024-12-04T01:30:00+0100","alternativeTransport":{"location":[{"station":{"coordinate":{"lat":50.8908348083496,"lng":5.97499990463257},"countryCode":"NL","name":"Heerlen","stationCode":"HRL","uicCode":"8400307"},"description":"vanaf het busstation Perron A"},{"station":{"coordinate":{"lat":50.8963890075684,"lng":6.01916646957398},"countryCode":"NL","name":"Landgraaf","stationCode":"LG","uicCode":"8400548"},"description":"vanaf de doorgaande weg, voorzijde station"},{"station":{"coordinate":{"lat":50.8960498196442,"lng":6.0602474212646396},"countryCode":"NL","name":"Eygelshoven Markt","stationCode":"EGHM","uicCode":"8400234"},"description":"vanaf de bushalte Centrum"},{"station":{"coordinate":{"lat":50.870916,"lng":6.094486},"countryCode":"D","name":"Herzogenrath","stationCode":"HZ","uicCode":"8015190"},"description":"volg de aanwijzingen op het station"},{"station":{"coordinate":{"lat":50.78036,"lng":6.070715},"countryCode":"D","name":"Aachen West","stationCode":"AW","uicCode":"8015199"},"description":"volg de aanwijzingen op het station"},{"station":{"coordinate":{"lat":50.7678,"lng":6.091499},"countryCode":"D","name":"Aachen Hbf","stationCode":"AHBF","uicCode":"8015345"},"description":"volg de aanwijzingen op het station"}],"label":"Er rijden stopbussen tussen Heerlen, Landgraaf, Eygelshoven Markt, Herzogenrath, Aachen West en Aachen Hbf.","shortLabel":"Er rijden stopbussen Heerlen - Landgraaf - Eygelshoven Mrkt - Herzogenrath - Aachen West - Aachen Hbf."}}]},{"type":"MAINTENANCE","id":"7005621","title":"Amsterdam - Köln - Frankfurt.","isActive":false,"local":false,"titleSections":[[{"type":"STATION","value":"Amsterdam C."},{"type":"STATION","value":"Emmerich"},{"type":"ICON","value":"MAINTENANCE"},{"type":"STATION","value":"Oberhausen Hbf"},{"type":"STATION","value":"Frankfurt Hbf"}]],"registrationTime":"2024-11-20T13:32:13+0100","start":"2024-12-05T04:00:00+0100","releaseTime":"2024-11-20T13:32:13+0100","end":"2024-12-07T02:00:00+0100","period":"Donderdag 5 december 4:00 uur t/m zaterdag 7 december 2:00 uur.","impact":{"value":2},"publicationSections":[{"section":{"stations":[{"coordinate":{"lat":52.3788871765137,"lng":4.90027761459351},"countryCode":"NL","name":"Amsterdam Centraal","stationCode":"ASD","uicCode":"8400058"},{"coordinate":{"lat":52.3605537414551,"lng":4.93111133575439},"countryCode":"NL","name":"Amsterdam Muiderpoort","stationCode":"ASDM","uicCode":"8400060"},{"coordinate":{"lat":52.3466682434082,"lng":4.91777801513672},"countryCode":"NL","name":"Amsterdam Amstel","stationCode":"ASA","uicCode":"8400057"},{"coordinate":{"lat":52.3233337402344,"lng":4.93638896942139},"countryCode":"NL","name":"Duivendrecht","stationCode":"DVD","uicCode":"8400194"},{"coordinate":{"lat":52.3122215270996,"lng":4.94694423675537},"countryCode":"NL","name":"Amsterdam Bijlmer ArenA","stationCode":"ASB","uicCode":"8400074"},{"coordinate":{"lat":52.29844,"lng":4.95972},"countryCode":"NL","name":"Amsterdam Holendrecht","stationCode":"ASHD","uicCode":"8400231"},{"coordinate":{"lat":52.2785,"lng":4.977},"countryCode":"NL","name":"Abcoude","stationCode":"AC","uicCode":"8400047"},{"coordinate":{"lat":52.17149,"lng":4.9906},"countryCode":"NL","name":"Breukelen","stationCode":"BKL","uicCode":"8400133"},{"coordinate":{"lat":52.1352767944336,"lng":5.03361129760742},"countryCode":"NL","name":"Maarssen","stationCode":"MAS","uicCode":"8400419"},{"coordinate":{"lat":52.103055,"lng":5.09},"countryCode":"NL","name":"Utrecht Zuilen","stationCode":"UTZL","uicCode":"8400613"},{"coordinate":{"lat":52.0888900756836,"lng":5.11027765274048},"countryCode":"NL","name":"Utrecht Centraal","stationCode":"UT","uicCode":"8400621"},{"coordinate":{"lat":52.078889,"lng":5.121667},"countryCode":"NL","name":"Utrecht Vaartsche Rijn","stationCode":"UTVR","uicCode":"8400606"},{"coordinate":{"lat":52.0630569458008,"lng":5.19444465637207},"countryCode":"NL","name":"Bunnik","stationCode":"BNK","uicCode":"8400141"},{"coordinate":{"lat":52.0652770996094,"lng":5.25861120223999},"countryCode":"NL","name":"Driebergen-Zeist","stationCode":"DB","uicCode":"8400182"},{"coordinate":{"lat":52.0641670227051,"lng":5.36999988555908},"countryCode":"NL","name":"Maarn","stationCode":"MRN","uicCode":"8400417"},{"coordinate":{"lat":52.0458335876465,"lng":5.57388877868652},"countryCode":"NL","name":"Veenendaal-De Klomp","stationCode":"KLP","uicCode":"8400637"},{"coordinate":{"lat":52.0277786254883,"lng":5.67305564880371},"countryCode":"NL","name":"Ede-Wageningen","stationCode":"ED","uicCode":"8400200"},{"coordinate":{"lat":52.0055541992188,"lng":5.7936110496521},"countryCode":"NL","name":"Wolfheze","stationCode":"WF","uicCode":"8400704"},{"coordinate":{"lat":51.9949989318848,"lng":5.84000015258789},"countryCode":"NL","name":"Oosterbeek","stationCode":"OTB","uicCode":"8400489"},{"coordinate":{"lat":51.9850006103516,"lng":5.89916658401489},"countryCode":"NL","name":"Arnhem Centraal","stationCode":"AH","uicCode":"8400071"},{"coordinate":{"lat":51.985279083252,"lng":5.91944456100464},"countryCode":"NL","name":"Arnhem Velperpoort","stationCode":"AHP","uicCode":"8400072"},{"coordinate":{"lat":51.96286,"lng":5.9695},"countryCode":"NL","name":"Westervoort","stationCode":"WTV","uicCode":"8400688"},{"coordinate":{"lat":51.9433326721191,"lng":6.01472234725952},"countryCode":"NL","name":"Duiven","stationCode":"DVN","uicCode":"8400193"},{"coordinate":{"lat":51.9230537414551,"lng":6.07194423675537},"countryCode":"NL","name":"Zevenaar","stationCode":"ZV","uicCode":"8400735"},{"coordinate":{"lat":51.8743,"lng":6.15417},"countryCode":"D","name":"Emmerich-Elten","stationCode":"EL","uicCode":"8033415"},{"coordinate":{"lat":51.834283,"lng":6.255718},"countryCode":"D","name":"Emmerich","stationCode":"EM","uicCode":"8010288"},{"coordinate":{"lat":51.47512,"lng":6.852038},"countryCode":"D","name":"Oberhausen Hbf","stationCode":"OBERH","uicCode":"8010263"},{"coordinate":{"lat":51.4297785713316,"lng":6.77590370178222},"countryCode":"D","name":"Duisburg Hbf","stationCode":"DUISB","uicCode":"8010316"},{"coordinate":{"lat":51.220146,"lng":6.793137},"countryCode":"D","name":"Düsseldorf Hbf","stationCode":"DUSSEL","uicCode":"8008094"},{"coordinate":{"lat":50.940874,"lng":6.975001},"countryCode":"D","name":"Köln Messe/Deutz","stationCode":"KKD","uicCode":"8015561"},{"coordinate":{"lat":50.9432158,"lng":6.9589214},"countryCode":"D","name":"Köln Hbf","stationCode":"KOLN","uicCode":"8015458"},{"coordinate":{"lat":50.7939411,"lng":7.2030017},"countryCode":"D","name":"Siegburg/Bonn","stationCode":"KSB","uicCode":"8015588"},{"coordinate":{"lat":50.444834,"lng":7.825333},"countryCode":"D","name":"Montabaur","stationCode":"KMB","uicCode":"8019585"},{"coordinate":{"lat":50.382498,"lng":8.096112},"countryCode":"D","name":"Limburg Süd","stationCode":"FLB","uicCode":"8032572"},{"coordinate":{"lat":50.0531710299286,"lng":8.570237159729},"countryCode":"D","name":"Frankfurt Flughafen Fernb","stationCode":"FNAF","uicCode":"8061676"},{"coordinate":{"lat":50.1071222,"lng":8.6638338},"countryCode":"D","name":"Frankfurt (M) Hbf","stationCode":"FFFM","uicCode":"8011068"}],"direction":"BOTH"},"consequence":{"section":{"stations":[{"coordinate":{"lat":51.834283,"lng":6.255718},"countryCode":"D","name":"Emmerich","stationCode":"EM","uicCode":"8010288"},{"coordinate":{"lat":51.47512,"lng":6.852038},"countryCode":"D","name":"Oberhausen Hbf","stationCode":"OBERH","uicCode":"8010263"}],"direction":"BOTH"},"description":"aangepaste internationale dienstregeling","level":"LESS_TRAINS"},"sectionType":"NEIGHBORING_COUNTRY"}],"summaryAdditionalTravelTime":{"label":"U heeft geen langere reistijd.","shortLabel":"Geen extra reistijd."},"timespans":[{"start":"2024-12-05T04:00:00+0100","end":"2024-12-07T02:00:00+0100","period":"Donderdag 5 december 4:00 uur t/m zaterdag 7 december 2:00 uur.","situation":{"label":"Door werkzaamheden: tussen Oberhausen Hbf en Emmerich is de internationale dienstregeling aangepast."},"cause":{"label":"werkzaamheden"},"additionalTravelTime":{"label":"U heeft geen langere reistijd.","shortLabel":"Geen extra reistijd."},"advices":["ICE International stopt niet in Arnhem Centraal."]}],"alternativeTransportTimespans":[]},{"type":"MAINTENANCE","id":"7005578","title":"Utrecht - Leiden.","isActive":false,"local":false,"titleSections":[[{"type":"STATION","value":"Utrecht C."},{"type":"STATION","value":"Alphen a/d Rijn"},{"type":"ICON","value":"MAINTENANCE"},{"type":"STATION","value":"Leiden C."}],[{"type":"STATION","value":"Utrecht C."},{"type":"STATION","value":"Bodegraven"},{"type":"ICON","value":"MAINTENANCE"},{"type":"STATION","value":"Leiden C."}]],"registrationTime":"2024-12-02T10:55:11+0100","start":"2024-12-06T00:50:00+0100","releaseTime":"2024-12-02T10:55:11+0100","end":"2024-12-10T03:00:00+0100","period":"Vrijdag 6 december 0:50 uur t/m dinsdag 10 december 3:00 uur.","impact":{"value":3},"publicationSections":[{"section":{"stations":[{"coordinate":{"lat":52.0888900756836,"lng":5.11027765274048},"countryCode":"NL","name":"Utrecht Centraal","stationCode":"UT","uicCode":"8400621"},{"coordinate":{"lat":52.09896,"lng":5.06523},"countryCode":"NL","name":"Utrecht Leidsche Rijn","stationCode":"UTLR","uicCode":"8400607"},{"coordinate":{"lat":52.1000753,"lng":5.0439547},"countryCode":"NL","name":"Utrecht Terwijde","stationCode":"UTT","uicCode":"8400614"},{"coordinate":{"lat":52.103056,"lng":5.007404},"countryCode":"NL","name":"Vleuten","stationCode":"VTN","uicCode":"8400651"},{"coordinate":{"lat":52.0849990844727,"lng":4.89361095428467},"countryCode":"NL","name":"Woerden","stationCode":"WD","uicCode":"8400702"},{"coordinate":{"lat":52.0813903808594,"lng":4.7461109161377},"countryCode":"NL","name":"Bodegraven","stationCode":"BDG","uicCode":"8400121"},{"coordinate":{"lat":52.1244430541992,"lng":4.65777778625488},"countryCode":"NL","name":"Alphen a/d Rijn","stationCode":"APN","uicCode":"8400053"},{"coordinate":{"lat":52.1469459533691,"lng":4.49249982833862},"countryCode":"NL","name":"Leiden Lammenschans","stationCode":"LDL","uicCode":"8400384"},{"coordinate":{"lat":52.1661109924316,"lng":4.48166656494141},"countryCode":"NL","name":"Leiden Centraal","stationCode":"LEDN","uicCode":"8400390"}],"direction":"BOTH"},"consequence":{"section":{"stations":[{"coordinate":{"lat":52.1244430541992,"lng":4.65777778625488},"countryCode":"NL","name":"Alphen a/d Rijn","stationCode":"APN","uicCode":"8400053"},{"coordinate":{"lat":52.1469459533691,"lng":4.49249982833862},"countryCode":"NL","name":"Leiden Lammenschans","stationCode":"LDL","uicCode":"8400384"},{"coordinate":{"lat":52.1661109924316,"lng":4.48166656494141},"countryCode":"NL","name":"Leiden Centraal","stationCode":"LEDN","uicCode":"8400390"}],"direction":"BOTH"},"description":"er rijden bussen","level":"LESS_TRAINS"},"sectionType":"NL"},{"section":{"stations":[{"coordinate":{"lat":52.0888900756836,"lng":5.11027765274048},"countryCode":"NL","name":"Utrecht Centraal","stationCode":"UT","uicCode":"8400621"},{"coordinate":{"lat":52.09896,"lng":5.06523},"countryCode":"NL","name":"Utrecht Leidsche Rijn","stationCode":"UTLR","uicCode":"8400607"},{"coordinate":{"lat":52.1000753,"lng":5.0439547},"countryCode":"NL","name":"Utrecht Terwijde","stationCode":"UTT","uicCode":"8400614"},{"coordinate":{"lat":52.103056,"lng":5.007404},"countryCode":"NL","name":"Vleuten","stationCode":"VTN","uicCode":"8400651"},{"coordinate":{"lat":52.0849990844727,"lng":4.89361095428467},"countryCode":"NL","name":"Woerden","stationCode":"WD","uicCode":"8400702"},{"coordinate":{"lat":52.0813903808594,"lng":4.7461109161377},"countryCode":"NL","name":"Bodegraven","stationCode":"BDG","uicCode":"8400121"},{"coordinate":{"lat":52.1244430541992,"lng":4.65777778625488},"countryCode":"NL","name":"Alphen a/d Rijn","stationCode":"APN","uicCode":"8400053"},{"coordinate":{"lat":52.1469459533691,"lng":4.49249982833862},"countryCode":"NL","name":"Leiden Lammenschans","stationCode":"LDL","uicCode":"8400384"},{"coordinate":{"lat":52.1661109924316,"lng":4.48166656494141},"countryCode":"NL","name":"Leiden Centraal","stationCode":"LEDN","uicCode":"8400390"}],"direction":"BOTH"},"consequence":{"section":{"stations":[{"coordinate":{"lat":52.0813903808594,"lng":4.7461109161377},"countryCode":"NL","name":"Bodegraven","stationCode":"BDG","uicCode":"8400121"},{"coordinate":{"lat":52.1244430541992,"lng":4.65777778625488},"countryCode":"NL","name":"Alphen a/d Rijn","stationCode":"APN","uicCode":"8400053"},{"coordinate":{"lat":52.1469459533691,"lng":4.49249982833862},"countryCode":"NL","name":"Leiden Lammenschans","stationCode":"LDL","uicCode":"8400384"},{"coordinate":{"lat":52.1661109924316,"lng":4.48166656494141},"countryCode":"NL","name":"Leiden Centraal","stationCode":"LEDN","uicCode":"8400390"}],"direction":"BOTH"},"description":"er rijden bussen","level":"LESS_TRAINS"},"sectionType":"NL"}],"summaryAdditionalTravelTime":{"label":"De extra reistijd kan oplopen tot 45 minuten.","shortLabel":"Extra reistijd tot 45 min.","minimumDurationInMinutes":45,"maximumDurationInMinutes":45},"timespans":[{"start":"2024-12-06T00:50:00+0100","end":"2024-12-08T06:00:00+0100","period":"Vrijdag 6 december 0:50 uur t/m zondag 8 december 6:00 uur.","situation":{"label":"Door werkzaamheden: tussen Leiden Centraal en Alphen a/d Rijn rijden er bussen."},"cause":{"label":"werkzaamheden"},"additionalTravelTime":{"label":"De extra reistijd is ongeveer 30 minuten.","shortLabel":"Extra reistijd 30 min.","minimumDurationInMinutes":30,"maximumDurationInMinutes":30},"alternativeTransport":{"label":"er rijden stopbussen","shortLabel":"er rijden stopbussen"},"advices":["Let op! Op zondagochtend 8 december zijn er ook werkzaamheden tussen Alphen a/d Rijn en Gouda.","Tussen Leiden C. en Utrecht C. reis via Schiphol Airport.","Tussen Alphen a/d Rijn en Den Haag C. reis via Gouda."]},{"start":"2024-12-08T06:00:00+0100","end":"2024-12-08T11:00:00+0100","period":"Zondag 8 december 6:00 uur t/m zondag 8 december 11:00 uur.","situation":{"label":"Door werkzaamheden: tussen Leiden Centraal en Bodegraven rijden er bussen."},"cause":{"label":"werkzaamheden"},"additionalTravelTime":{"label":"De extra reistijd is ongeveer 45 minuten.","shortLabel":"Extra reistijd 45 min.","minimumDurationInMinutes":45,"maximumDurationInMinutes":45},"alternativeTransport":{"label":"er rijden stopbussen","shortLabel":"er rijden stopbussen"},"advices":["Let op! Op zondagochtend 8 december zijn er ook werkzaamheden tussen Alphen a/d Rijn en Gouda.","Tussen Leiden C. en Utrecht C. reis via Schiphol Airport.","Tussen Leiden C. en Woerden reis via Den Haag C."]},{"start":"2024-12-08T11:00:00+0100","end":"2024-12-10T03:00:00+0100","period":"Zondag 8 december 11:00 uur t/m dinsdag 10 december 3:00 uur.","situation":{"label":"Door werkzaamheden: tussen Leiden Centraal en Alphen a/d Rijn rijden er bussen."},"cause":{"label":"werkzaamheden"},"additionalTravelTime":{"label":"De extra reistijd is ongeveer 30 minuten.","shortLabel":"Extra reistijd 30 min.","minimumDurationInMinutes":30,"maximumDurationInMinutes":30},"alternativeTransport":{"label":"er rijden stopbussen","shortLabel":"er rijden stopbussen"},"advices":["Let op! Op zondagochtend 8 december zijn er ook werkzaamheden tussen Alphen a/d Rijn en Gouda.","Tussen Leiden C. en Utrecht C. reis via Schiphol Airport.","Tussen Alphen a/d Rijn en Den Haag C. reis via Gouda."]}],"alternativeTransportTimespans":[{"start":"2024-12-06T00:50:00+0100","end":"2024-12-08T06:00:00+0100","alternativeTransport":{"location":[{"station":{"coordinate":{"lat":52.1661109924316,"lng":4.48166656494141},"countryCode":"NL","name":"Leiden Centraal","stationCode":"LEDN","uicCode":"8400390"},"description":"vanaf het stadsbusstation"},{"station":{"coordinate":{"lat":52.1469459533691,"lng":4.49249982833862},"countryCode":"NL","name":"Leiden Lammenschans","stationCode":"LDL","uicCode":"8400384"},"description":"vanaf de Lammenschansweg"},{"station":{"coordinate":{"lat":52.1244430541992,"lng":4.65777778625488},"countryCode":"NL","name":"Alphen a/d Rijn","stationCode":"APN","uicCode":"8400053"},"description":"vanaf het busstation, centrumzijde"}],"label":"Er rijden stopbussen tussen Leiden Centraal, Leiden Lammenschans en Alphen a/d Rijn.","shortLabel":"Er rijden stopbussen Leiden C. - Lammenschans - Alphen a/d Rijn."}},{"start":"2024-12-08T06:00:00+0100","end":"2024-12-08T11:00:00+0100","alternativeTransport":{"location":[{"station":{"coordinate":{"lat":52.1661109924316,"lng":4.48166656494141},"countryCode":"NL","name":"Leiden Centraal","stationCode":"LEDN","uicCode":"8400390"},"description":"vanaf het stadsbusstation"},{"station":{"coordinate":{"lat":52.1469459533691,"lng":4.49249982833862},"countryCode":"NL","name":"Leiden Lammenschans","stationCode":"LDL","uicCode":"8400384"},"description":"vanaf de Lammenschansweg"},{"station":{"coordinate":{"lat":52.1244430541992,"lng":4.65777778625488},"countryCode":"NL","name":"Alphen a/d Rijn","stationCode":"APN","uicCode":"8400053"},"description":"vanaf het busstation, centrumzijde"},{"station":{"coordinate":{"lat":52.0813903808594,"lng":4.7461109161377},"countryCode":"NL","name":"Bodegraven","stationCode":"BDG","uicCode":"8400121"},"description":"vanaf het Stationsplein"}],"label":"Er rijden stopbussen tussen Leiden Centraal, Leiden Lammenschans, Alphen a/d Rijn en Bodegraven.","shortLabel":"Er rijden stopbussen Leiden C. - Lammenschans - Alphen a/d Rijn - Bodegraven."}},{"start":"2024-12-08T11:00:00+0100","end":"2024-12-10T03:00:00+0100","alternativeTransport":{"location":[{"station":{"coordinate":{"lat":52.1661109924316,"lng":4.48166656494141},"countryCode":"NL","name":"Leiden Centraal","stationCode":"LEDN","uicCode":"8400390"},"description":"vanaf het stadsbusstation"},{"station":{"coordinate":{"lat":52.1469459533691,"lng":4.49249982833862},"countryCode":"NL","name":"Leiden Lammenschans","stationCode":"LDL","uicCode":"8400384"},"description":"vanaf de Lammenschansweg"},{"station":{"coordinate":{"lat":52.1244430541992,"lng":4.65777778625488},"countryCode":"NL","name":"Alphen a/d Rijn","stationCode":"APN","uicCode":"8400053"},"description":"vanaf het busstation, centrumzijde"}],"label":"Er rijden stopbussen tussen Leiden Centraal, Leiden Lammenschans en Alphen a/d Rijn.","shortLabel":"Er rijden stopbussen Leiden C. - Lammenschans - Alphen a/d Rijn."}}]},{"type":"MAINTENANCE","id":"7005554","title":"Amsterdam - Hannover - Berlin.","isActive":false,"local":false,"titleSections":[[{"type":"STATION","value":"Amsterdam C."},{"type":"ICON","value":"MAINTENANCE"},{"type":"STATION","value":"Amersfoort C."},{"type":"STATION","value":"Berlin Hbf"}]],"registrationTime":"2024-11-20T13:31:02+0100","start":"2024-12-06T15:55:00+0100","releaseTime":"2024-11-20T13:31:02+0100","end":"2024-12-06T19:50:00+0100","period":"Vrijdag 6 december 15:55 uur t/m vrijdag 6 december 19:50 uur.","impact":{"value":2},"publicationSections":[{"section":{"stations":[{"coordinate":{"lat":52.3788871765137,"lng":4.90027761459351},"countryCode":"NL","name":"Amsterdam Centraal","stationCode":"ASD","uicCode":"8400058"},{"coordinate":{"lat":52.3605537414551,"lng":4.93111133575439},"countryCode":"NL","name":"Amsterdam Muiderpoort","stationCode":"ASDM","uicCode":"8400060"},{"coordinate":{"lat":52.35274,"lng":4.94855},"countryCode":"NL","name":"Amsterdam Science Park","stationCode":"ASSP","uicCode":"8400235"},{"coordinate":{"lat":52.34515,"lng":4.967566},"countryCode":"NL","name":"Diemen","stationCode":"DMN","uicCode":"8400165"},{"coordinate":{"lat":52.3127784729004,"lng":5.04305553436279},"countryCode":"NL","name":"Weesp","stationCode":"WP","uicCode":"8400685"},{"coordinate":{"lat":52.2802772521973,"lng":5.15694427490234},"countryCode":"NL","name":"Naarden-Bussum","stationCode":"NDB","uicCode":"8400452"},{"coordinate":{"lat":52.2658348083496,"lng":5.16305541992188},"countryCode":"NL","name":"Bussum Zuid","stationCode":"BSMZ","uicCode":"8400145"},{"coordinate":{"lat":52.2380561828613,"lng":5.17388868331909},"countryCode":"NL","name":"Hilversum Media Park","stationCode":"HVSM","uicCode":"8400324"},{"coordinate":{"lat":52.2258338928223,"lng":5.18194437026978},"countryCode":"NL","name":"Hilversum","stationCode":"HVS","uicCode":"8400322"},{"coordinate":{"lat":52.2083320617676,"lng":5.28083324432373},"countryCode":"NL","name":"Baarn","stationCode":"BRN","uicCode":"8400086"},{"coordinate":{"lat":52.1538887023926,"lng":5.37055540084839},"countryCode":"NL","name":"Amersfoort Centraal","stationCode":"AMF","uicCode":"8400055"},{"coordinate":{"lat":52.16652,"lng":5.45718},"countryCode":"NL","name":"Hoevelaken","stationCode":"HVL","uicCode":"8400490"},{"coordinate":{"lat":52.2091674804687,"lng":5.97027778625488},"countryCode":"NL","name":"Apeldoorn","stationCode":"APD","uicCode":"8400066"},{"coordinate":{"lat":52.2152786254883,"lng":6.00444459915161},"countryCode":"NL","name":"Apeldoorn Osseveld","stationCode":"APDO","uicCode":"8400229"},{"coordinate":{"lat":52.2377777099609,"lng":6.09861087799072},"countryCode":"NL","name":"Twello","stationCode":"TWL","uicCode":"8400599"},{"coordinate":{"lat":52.2574996948242,"lng":6.16055536270142},"countryCode":"NL","name":"Deventer","stationCode":"DV","uicCode":"8400173"},{"coordinate":{"lat":52.2502784729004,"lng":6.21444463729858},"countryCode":"NL","name":"Deventer Colmschate","stationCode":"DVC","uicCode":"8400185"},{"coordinate":{"lat":52.2838897705078,"lng":6.42027759552002},"countryCode":"NL","name":"Holten","stationCode":"HON","uicCode":"8400328"},{"coordinate":{"lat":52.3122215270996,"lng":6.52027797698975},"countryCode":"NL","name":"Rijssen","stationCode":"RSN","uicCode":"8400538"},{"coordinate":{"lat":52.3613891601562,"lng":6.59166669845581},"countryCode":"NL","name":"Wierden","stationCode":"WDN","uicCode":"8400691"},{"coordinate":{"lat":52.3580551147461,"lng":6.65388870239258},"countryCode":"NL","name":"Almelo","stationCode":"AML","uicCode":"8400051"},{"coordinate":{"lat":52.3419456481934,"lng":6.66666650772095},"countryCode":"NL","name":"Almelo de Riet","stationCode":"AMRI","uicCode":"8400520"},{"coordinate":{"lat":52.2988891601562,"lng":6.74805545806885},"countryCode":"NL","name":"Borne","stationCode":"BN","uicCode":"8400124"},{"coordinate":{"lat":52.2616653442383,"lng":6.79388904571533},"countryCode":"NL","name":"Hengelo","stationCode":"HGL","uicCode":"8400316"},{"coordinate":{"lat":52.2688903808594,"lng":6.81944465637207},"countryCode":"NL","name":"Hengelo Oost","stationCode":"HGLO","uicCode":"8400312"},{"coordinate":{"lat":52.3063888549805,"lng":6.93472242355347},"countryCode":"NL","name":"Oldenzaal","stationCode":"ODZ","uicCode":"8400483"},{"coordinate":{"lat":52.309685595156,"lng":7.15853691101074},"countryCode":"D","name":"Bad Bentheim","stationCode":"BH","uicCode":"8021156"},{"coordinate":{"lat":52.276299,"lng":7.434255},"countryCode":"D","name":"Rheine","stationCode":"RHEINE","uicCode":"8021067"},{"coordinate":{"lat":52.272851,"lng":8.061781},"countryCode":"D","name":"Osnabrück Hbf","stationCode":"OSNH","uicCode":"8021025"},{"coordinate":{"lat":52.3770401,"lng":9.7416759},"countryCode":"D","name":"Hannover Hbf","stationCode":"HANN","uicCode":"8013552"},{"coordinate":{"lat":52.52503,"lng":13.36946},"countryCode":"D","name":"Berlin Hbf","stationCode":"BERHBL","uicCode":"8065969"}],"direction":"ONE_WAY"},"consequence":{"section":{"stations":[{"coordinate":{"lat":52.3788871765137,"lng":4.90027761459351},"countryCode":"NL","name":"Amsterdam Centraal","stationCode":"ASD","uicCode":"8400058"},{"coordinate":{"lat":52.3605537414551,"lng":4.93111133575439},"countryCode":"NL","name":"Amsterdam Muiderpoort","stationCode":"ASDM","uicCode":"8400060"},{"coordinate":{"lat":52.35274,"lng":4.94855},"countryCode":"NL","name":"Amsterdam Science Park","stationCode":"ASSP","uicCode":"8400235"},{"coordinate":{"lat":52.34515,"lng":4.967566},"countryCode":"NL","name":"Diemen","stationCode":"DMN","uicCode":"8400165"},{"coordinate":{"lat":52.3127784729004,"lng":5.04305553436279},"countryCode":"NL","name":"Weesp","stationCode":"WP","uicCode":"8400685"},{"coordinate":{"lat":52.2802772521973,"lng":5.15694427490234},"countryCode":"NL","name":"Naarden-Bussum","stationCode":"NDB","uicCode":"8400452"},{"coordinate":{"lat":52.2658348083496,"lng":5.16305541992188},"countryCode":"NL","name":"Bussum Zuid","stationCode":"BSMZ","uicCode":"8400145"},{"coordinate":{"lat":52.2380561828613,"lng":5.17388868331909},"countryCode":"NL","name":"Hilversum Media Park","stationCode":"HVSM","uicCode":"8400324"},{"coordinate":{"lat":52.2258338928223,"lng":5.18194437026978},"countryCode":"NL","name":"Hilversum","stationCode":"HVS","uicCode":"8400322"},{"coordinate":{"lat":52.2083320617676,"lng":5.28083324432373},"countryCode":"NL","name":"Baarn","stationCode":"BRN","uicCode":"8400086"},{"coordinate":{"lat":52.1538887023926,"lng":5.37055540084839},"countryCode":"NL","name":"Amersfoort Centraal","stationCode":"AMF","uicCode":"8400055"}],"direction":"ONE_WAY"},"description":"aangepaste internationale dienstregeling","level":"LESS_TRAINS"},"sectionType":"NEIGHBORING_COUNTRY"}],"summaryAdditionalTravelTime":{"label":"U heeft geen langere reistijd.","shortLabel":"Geen extra reistijd."},"timespans":[{"start":"2024-12-06T15:55:00+0100","end":"2024-12-06T19:50:00+0100","period":"Vrijdag 6 december 15:55 uur t/m vrijdag 6 december 19:50 uur.","situation":{"label":"Door werkzaamheden: van Amersfoort Centraal naar Amsterdam Centraal is de internationale dienstregeling aangepast."},"cause":{"label":"werkzaamheden"},"additionalTravelTime":{"label":"U heeft geen langere reistijd.","shortLabel":"Geen extra reistijd."},"advices":[]}],"alternativeTransportTimespans":[]},{"type":"MAINTENANCE","id":"7005665","title":"Arnhem - Duisburg - Düsseldorf.","isActive":false,"local":false,"titleSections":[[{"type":"STATION","value":"Arnhem C."},{"type":"ICON","value":"MAINTENANCE"},{"type":"STATION","value":"Oberhausen Hbf"},{"type":"STATION","value":"Düsseldorf Hbf"}]],"registrationTime":"2024-11-28T17:45:53+0100","start":"2024-12-06T19:00:00+0100","releaseTime":"2024-11-28T17:45:53+0100","end":"2024-12-09T02:00:00+0100","period":"Vrijdag 6 december 19:00 uur t/m maandag 9 december 2:00 uur.","impact":{"value":2},"publicationSections":[{"section":{"stations":[{"coordinate":{"lat":51.9850006103516,"lng":5.89916658401489},"countryCode":"NL","name":"Arnhem Centraal","stationCode":"AH","uicCode":"8400071"},{"coordinate":{"lat":51.985279083252,"lng":5.91944456100464},"countryCode":"NL","name":"Arnhem Velperpoort","stationCode":"AHP","uicCode":"8400072"},{"coordinate":{"lat":51.96286,"lng":5.9695},"countryCode":"NL","name":"Westervoort","stationCode":"WTV","uicCode":"8400688"},{"coordinate":{"lat":51.9433326721191,"lng":6.01472234725952},"countryCode":"NL","name":"Duiven","stationCode":"DVN","uicCode":"8400193"},{"coordinate":{"lat":51.9230537414551,"lng":6.07194423675537},"countryCode":"NL","name":"Zevenaar","stationCode":"ZV","uicCode":"8400735"},{"coordinate":{"lat":51.8743,"lng":6.15417},"countryCode":"D","name":"Emmerich-Elten","stationCode":"EL","uicCode":"8033415"},{"coordinate":{"lat":51.834283,"lng":6.255718},"countryCode":"D","name":"Emmerich","stationCode":"EM","uicCode":"8010288"},{"coordinate":{"lat":51.655833,"lng":6.627222},"countryCode":"D","name":"Wesel","stationCode":"WESEL","uicCode":"8010275"},{"coordinate":{"lat":51.47512,"lng":6.852038},"countryCode":"D","name":"Oberhausen Hbf","stationCode":"OBERH","uicCode":"8010263"},{"coordinate":{"lat":51.4297785713316,"lng":6.77590370178222},"countryCode":"D","name":"Duisburg Hbf","stationCode":"DUISB","uicCode":"8010316"},{"coordinate":{"lat":51.292009,"lng":6.786836},"countryCode":"D","name":"Düsseldorf Flughafen","stationCode":"KDFFH","uicCode":"8039904"},{"coordinate":{"lat":51.220146,"lng":6.793137},"countryCode":"D","name":"Düsseldorf Hbf","stationCode":"DUSSEL","uicCode":"8008094"}],"direction":"BOTH"},"consequence":{"section":{"stations":[{"coordinate":{"lat":51.9850006103516,"lng":5.89916658401489},"countryCode":"NL","name":"Arnhem Centraal","stationCode":"AH","uicCode":"8400071"},{"coordinate":{"lat":51.985279083252,"lng":5.91944456100464},"countryCode":"NL","name":"Arnhem Velperpoort","stationCode":"AHP","uicCode":"8400072"},{"coordinate":{"lat":51.96286,"lng":5.9695},"countryCode":"NL","name":"Westervoort","stationCode":"WTV","uicCode":"8400688"},{"coordinate":{"lat":51.9433326721191,"lng":6.01472234725952},"countryCode":"NL","name":"Duiven","stationCode":"DVN","uicCode":"8400193"},{"coordinate":{"lat":51.9230537414551,"lng":6.07194423675537},"countryCode":"NL","name":"Zevenaar","stationCode":"ZV","uicCode":"8400735"},{"coordinate":{"lat":51.8743,"lng":6.15417},"countryCode":"D","name":"Emmerich-Elten","stationCode":"EL","uicCode":"8033415"},{"coordinate":{"lat":51.834283,"lng":6.255718},"countryCode":"D","name":"Emmerich","stationCode":"EM","uicCode":"8010288"},{"coordinate":{"lat":51.655833,"lng":6.627222},"countryCode":"D","name":"Wesel","stationCode":"WESEL","uicCode":"8010275"},{"coordinate":{"lat":51.47512,"lng":6.852038},"countryCode":"D","name":"Oberhausen Hbf","stationCode":"OBERH","uicCode":"8010263"}],"direction":"BOTH"},"description":"er rijden bussen","level":"LESS_TRAINS"},"sectionType":"NEIGHBORING_COUNTRY"}],"summaryAdditionalTravelTime":{"label":"De extra reistijd is ongeveer 30 minuten.","shortLabel":"Extra reistijd 30 min.","minimumDurationInMinutes":30,"maximumDurationInMinutes":30},"timespans":[{"start":"2024-12-06T19:00:00+0100","end":"2024-12-09T02:00:00+0100","period":"Vrijdag 6 december 19:00 uur t/m maandag 9 december 2:00 uur.","situation":{"label":"Door werkzaamheden: tussen Arnhem Centraal en Oberhausen Hbf rijden er bussen."},"cause":{"label":"werkzaamheden"},"additionalTravelTime":{"label":"De extra reistijd is ongeveer 30 minuten.","shortLabel":"Extra reistijd 30 min.","minimumDurationInMinutes":30,"maximumDurationInMinutes":30},"alternativeTransport":{"label":"er rijden snelbussen","shortLabel":"er rijden snelbussen"},"advices":["In Emmerich kunt u overstappen op een stopbus naar Wesel en Oberhausen Hbf voor de tussengelegen Duitse stations."]}],"alternativeTransportTimespans":[{"start":"2024-12-06T19:00:00+0100","end":"2024-12-09T02:00:00+0100","alternativeTransport":{"location":[{"station":{"coordinate":{"lat":51.9850006103516,"lng":5.89916658401489},"countryCode":"NL","name":"Arnhem Centraal","stationCode":"AH","uicCode":"8400071"},"description":"vanaf de bus-terminal"},{"station":{"coordinate":{"lat":51.9230537414551,"lng":6.07194423675537},"countryCode":"NL","name":"Zevenaar","stationCode":"ZV","uicCode":"8400735"},"description":"vanaf het stationsplein bij de Kiss & Ride plaatsen, aan beide zijden van de weg"},{"station":{"coordinate":{"lat":51.8743,"lng":6.15417},"countryCode":"D","name":"Emmerich-Elten","stationCode":"EL","uicCode":"8033415"},"description":"volg de aanwijzingen op het station"},{"station":{"coordinate":{"lat":51.834283,"lng":6.255718},"countryCode":"D","name":"Emmerich","stationCode":"EM","uicCode":"8010288"},"description":"volg de aanwijzingen op het station"},{"station":{"coordinate":{"lat":51.655833,"lng":6.627222},"countryCode":"D","name":"Wesel","stationCode":"WESEL","uicCode":"8010275"},"description":"volg de aanwijzingen op het station"},{"station":{"coordinate":{"lat":51.47512,"lng":6.852038},"countryCode":"D","name":"Oberhausen Hbf","stationCode":"OBERH","uicCode":"8010263"},"description":"volg de aanwijzingen op het station"}],"label":"Er rijden snelbussen tussen Arnhem Centraal, Zevenaar, Emmerich-Elten, Emmerich, Wesel en Oberhausen Hbf.","shortLabel":"Er rijden snelbussen Arnhem C. - Zevenaar - Emmerich-Elten - Emmerich - Wesel - Oberhausen Hbf."}}]},{"type":"MAINTENANCE","id":"7005602","title":"Amsterdam - Zaandam - Alkmaar; Amsterdam - Enkhuizen.","isActive":false,"local":false,"titleSections":[[{"type":"STATION","value":"Amsterdam C."},{"type":"ICON","value":"MAINTENANCE"},{"type":"STATION","value":"Sloterdijk"},{"type":"STATION","value":"Alkmaar"}],[{"type":"STATION","value":"Amsterdam C."},{"type":"ICON","value":"MAINTENANCE"},{"type":"STATION","value":"Sloterdijk"},{"type":"STATION","value":"Enkhuizen"}]],"registrationTime":"2024-11-11T13:54:21+0100","start":"2024-12-06T23:30:00+0100","releaseTime":"2024-11-11T13:54:21+0100","end":"2024-12-09T02:00:00+0100","period":"Vrijdag 6 december 23:30 uur t/m maandag 9 december 2:00 uur.","impact":{"value":2},"publicationSections":[{"section":{"stations":[{"coordinate":{"lat":52.3788871765137,"lng":4.90027761459351},"countryCode":"NL","name":"Amsterdam Centraal","stationCode":"ASD","uicCode":"8400058"},{"coordinate":{"lat":52.3888893127441,"lng":4.83777761459351},"countryCode":"NL","name":"Amsterdam Sloterdijk","stationCode":"ASS","uicCode":"8400059"},{"coordinate":{"lat":52.4388885498047,"lng":4.81361103057861},"countryCode":"NL","name":"Zaandam","stationCode":"ZD","uicCode":"8400731"},{"coordinate":{"lat":52.458610534668,"lng":4.80555534362793},"countryCode":"NL","name":"Koog aan de Zaan","stationCode":"KZ","uicCode":"8400363"},{"coordinate":{"lat":52.469165802002,"lng":4.80499982833862},"countryCode":"NL","name":"Zaandijk Zaanse Schans","stationCode":"ZZS","uicCode":"8400364"},{"coordinate":{"lat":52.4891662597656,"lng":4.79222202301025},"countryCode":"NL","name":"Wormerveer","stationCode":"WM","uicCode":"8400707"},{"coordinate":{"lat":52.49511,"lng":4.75417},"countryCode":"NL","name":"Krommenie-Assendelft","stationCode":"KMA","uicCode":"8400368"},{"coordinate":{"lat":52.5216674804687,"lng":4.70166683197022},"countryCode":"NL","name":"Uitgeest","stationCode":"UTG","uicCode":"8400615"},{"coordinate":{"lat":52.5458335876465,"lng":4.65861129760742},"countryCode":"NL","name":"Castricum","stationCode":"CAS","uicCode":"8400151"},{"coordinate":{"lat":52.5994453430176,"lng":4.70055532455444},"countryCode":"NL","name":"Heiloo","stationCode":"HLO","uicCode":"8400309"},{"coordinate":{"lat":52.6377792358398,"lng":4.73972225189209},"countryCode":"NL","name":"Alkmaar","stationCode":"AMR","uicCode":"8400050"}],"direction":"BOTH"},"consequence":{"section":{"stations":[{"coordinate":{"lat":52.3788871765137,"lng":4.90027761459351},"countryCode":"NL","name":"Amsterdam Centraal","stationCode":"ASD","uicCode":"8400058"},{"coordinate":{"lat":52.3888893127441,"lng":4.83777761459351},"countryCode":"NL","name":"Amsterdam Sloterdijk","stationCode":"ASS","uicCode":"8400059"}],"direction":"BOTH"},"description":"minder treinen","level":"LESS_TRAINS"},"sectionType":"NL"},{"section":{"stations":[{"coordinate":{"lat":52.3788871765137,"lng":4.90027761459351},"countryCode":"NL","name":"Amsterdam Centraal","stationCode":"ASD","uicCode":"8400058"},{"coordinate":{"lat":52.3888893127441,"lng":4.83777761459351},"countryCode":"NL","name":"Amsterdam Sloterdijk","stationCode":"ASS","uicCode":"8400059"},{"coordinate":{"lat":52.4388885498047,"lng":4.81361103057861},"countryCode":"NL","name":"Zaandam","stationCode":"ZD","uicCode":"8400731"},{"coordinate":{"lat":52.4566650390625,"lng":4.82027769088745},"countryCode":"NL","name":"Zaandam Kogerveld","stationCode":"ZDK","uicCode":"8400728"},{"coordinate":{"lat":52.4965906325416,"lng":4.93562936782836},"countryCode":"NL","name":"Purmerend Weidevenne","stationCode":"PMW","uicCode":"8400499"},{"coordinate":{"lat":52.5030555725098,"lng":4.95361089706421},"countryCode":"NL","name":"Purmerend","stationCode":"PMR","uicCode":"8400508"},{"coordinate":{"lat":52.5113906860352,"lng":4.96833324432373},"countryCode":"NL","name":"Purmerend Overwhere","stationCode":"PMO","uicCode":"8400506"},{"coordinate":{"lat":52.6447219848633,"lng":5.05555534362793},"countryCode":"NL","name":"Hoorn","stationCode":"HN","uicCode":"8400337"},{"coordinate":{"lat":52.6536102294922,"lng":5.08555555343628},"countryCode":"NL","name":"Hoorn Kersenboogerd","stationCode":"HNK","uicCode":"8400336"},{"coordinate":{"lat":52.6905555725098,"lng":5.18388891220093},"countryCode":"NL","name":"Hoogkarspel","stationCode":"HKS","uicCode":"8400334"},{"coordinate":{"lat":52.6949996948242,"lng":5.23777770996094},"countryCode":"NL","name":"Bovenkarspel-Grootebroek","stationCode":"BKG","uicCode":"8400127"},{"coordinate":{"lat":52.6961097717285,"lng":5.25277757644653},"countryCode":"NL","name":"Bovenkarspel Flora","stationCode":"BKF","uicCode":"8400230"},{"coordinate":{"lat":52.6991653442383,"lng":5.28638887405396},"countryCode":"NL","name":"Enkhuizen","stationCode":"EKZ","uicCode":"8400210"}],"direction":"BOTH"},"consequence":{"section":{"stations":[{"coordinate":{"lat":52.3788871765137,"lng":4.90027761459351},"countryCode":"NL","name":"Amsterdam Centraal","stationCode":"ASD","uicCode":"8400058"},{"coordinate":{"lat":52.3888893127441,"lng":4.83777761459351},"countryCode":"NL","name":"Amsterdam Sloterdijk","stationCode":"ASS","uicCode":"8400059"}],"direction":"BOTH"},"description":"minder treinen","level":"LESS_TRAINS"},"sectionType":"NL"}],"summaryAdditionalTravelTime":{"label":"De extra reistijd is ongeveer 15 minuten.","shortLabel":"Extra reistijd 15 min.","minimumDurationInMinutes":15,"maximumDurationInMinutes":15},"timespans":[{"start":"2024-12-06T23:30:00+0100","end":"2024-12-09T02:00:00+0100","period":"Vrijdag 6 december 23:30 uur t/m maandag 9 december 2:00 uur.","situation":{"label":"Door werkzaamheden: tussen Amsterdam Centraal en Amsterdam Sloterdijk rijden er minder treinen."},"cause":{"label":"werkzaamheden"},"additionalTravelTime":{"label":"De extra reistijd is ongeveer 15 minuten.","shortLabel":"Extra reistijd 15 min.","minimumDurationInMinutes":15,"maximumDurationInMinutes":15},"advices":["Houd rekening met een extra overstap in Amsterdam Sloterdijk."]}],"alternativeTransportTimespans":[]},{"type":"MAINTENANCE","id":"7005629","title":"Amsterdam - Rotterdam - Brussel.","isActive":false,"local":false,"titleSections":[[{"type":"STATION","value":"Amsterdam C."},{"type":"STATION","value":"Hoofddorp"},{"type":"ICON","value":"MAINTENANCE"},{"type":"STATION","value":"Rotterdam C."},{"type":"STATION","value":"Brussel-Z. Midi"}]],"registrationTime":"2024-11-20T13:55:38+0100","start":"2024-12-07T04:00:00+0100","releaseTime":"2024-11-20T13:55:38+0100","end":"2024-12-08T23:59:00+0100","period":"Zaterdag 7 december 4:00 uur t/m zondag 8 december 23:59 uur.","impact":{"value":2},"publicationSections":[{"section":{"stations":[{"coordinate":{"lat":52.3788871765137,"lng":4.90027761459351},"countryCode":"NL","name":"Amsterdam Centraal","stationCode":"ASD","uicCode":"8400058"},{"coordinate":{"lat":52.3888893127441,"lng":4.83777761459351},"countryCode":"NL","name":"Amsterdam Sloterdijk","stationCode":"ASS","uicCode":"8400059"},{"coordinate":{"lat":52.3577766418457,"lng":4.83388900756836},"countryCode":"NL","name":"Amsterdam Lelylaan","stationCode":"ASDL","uicCode":"8400079"},{"coordinate":{"lat":52.3094444274902,"lng":4.76194429397583},"countryCode":"NL","name":"Schiphol Airport","stationCode":"SHL","uicCode":"8400561"},{"coordinate":{"lat":52.2933349609375,"lng":4.70055532455444},"countryCode":"NL","name":"Hoofddorp","stationCode":"HFD","uicCode":"8400332"},{"coordinate":{"lat":51.9249992370605,"lng":4.46888875961304},"countryCode":"NL","name":"Rotterdam Centraal","stationCode":"RTD","uicCode":"8400530"},{"coordinate":{"lat":51.9202766418457,"lng":4.48888874053955},"countryCode":"NL","name":"Rotterdam Blaak","stationCode":"RTB","uicCode":"8400529"},{"coordinate":{"lat":51.9044456481934,"lng":4.51027774810791},"countryCode":"NL","name":"Rotterdam Zuid","stationCode":"RTZ","uicCode":"8400533"},{"coordinate":{"lat":51.8800010681152,"lng":4.53138875961304},"countryCode":"NL","name":"Rotterdam Lombardijen","stationCode":"RLB","uicCode":"8400542"},{"coordinate":{"lat":51.606388092041,"lng":4.72083330154419},"countryCode":"NL","name":"Breda-Prinsenbeek","stationCode":"BDPB","uicCode":"8400132"},{"coordinate":{"lat":51.5955543518066,"lng":4.78000020980835},"countryCode":"NL","name":"Breda","stationCode":"BD","uicCode":"8400131"},{"coordinate":{"lat":51.358088,"lng":4.633977},"countryCode":"B","name":"Noorderkempen","stationCode":"NDKP","uicCode":"8821105"},{"coordinate":{"lat":51.2449375,"lng":4.4251543},"countryCode":"B","name":"Antwerpen-Luchtbal","stationCode":"ATWLB","uicCode":"8821063"},{"coordinate":{"lat":51.21686,"lng":4.421242},"countryCode":"B","name":"Antwerpen-Centraal","stationCode":"ATW","uicCode":"8821006"},{"coordinate":{"lat":51.198914,"lng":4.4332},"countryCode":"B","name":"Antwerpen-Berchem","stationCode":"BERCH","uicCode":"8821121"},{"coordinate":{"lat":51.01758,"lng":4.48313},"countryCode":"B","name":"Mechelen","stationCode":"MECH","uicCode":"8822004"},{"coordinate":{"lat":50.859658,"lng":4.360854},"countryCode":"B","name":"Brussel-Noord","stationCode":"BRUSN","uicCode":"8812005"},{"coordinate":{"lat":50.845175,"lng":4.357131},"countryCode":"B","name":"Brussel-Centraal","stationCode":"BRUSC","uicCode":"8813003"},{"coordinate":{"lat":50.836782,"lng":4.336922},"countryCode":"B","name":"Brussel-Zuid Midi","stationCode":"BRUSZ","uicCode":"8814001"}],"direction":"BOTH"},"consequence":{"section":{"stations":[{"coordinate":{"lat":52.2933349609375,"lng":4.70055532455444},"countryCode":"NL","name":"Hoofddorp","stationCode":"HFD","uicCode":"8400332"},{"coordinate":{"lat":51.9249992370605,"lng":4.46888875961304},"countryCode":"NL","name":"Rotterdam Centraal","stationCode":"RTD","uicCode":"8400530"}],"direction":"BOTH"},"description":"aangepaste internationale dienstregeling","level":"LESS_TRAINS"},"sectionType":"HSL"}],"summaryAdditionalTravelTime":{"label":"U heeft geen langere reistijd.","shortLabel":"Geen extra reistijd."},"timespans":[{"start":"2024-12-07T04:00:00+0100","end":"2024-12-08T23:59:00+0100","period":"Zaterdag 7 december 4:00 uur t/m zondag 8 december 23:59 uur.","situation":{"label":"Door werkzaamheden: tussen Hoofddorp en Rotterdam Centraal is de internationale dienstregeling aangepast."},"cause":{"label":"werkzaamheden"},"additionalTravelTime":{"label":"U heeft geen langere reistijd.","shortLabel":"Geen extra reistijd."},"advices":["IC Brussel rijdt niet tussen Amsterdam C en Rotterdam C."]}],"alternativeTransportTimespans":[]},{"type":"MAINTENANCE","id":"7005651","title":"Groningen - Bad Nieuweschans; Groningen - Veendam.","isActive":false,"local":false,"titleSections":[[{"type":"STATION","value":"Groningen"},{"type":"ICON","value":"MAINTENANCE"},{"type":"STATION","value":"Bad Nieuweschans"}],[{"type":"STATION","value":"Groningen"},{"type":"ICON","value":"MAINTENANCE"},{"type":"STATION","value":"Veendam"}]],"registrationTime":"2024-11-28T09:42:45+0100","start":"2024-12-07T04:00:00+0100","releaseTime":"2024-11-28T09:42:45+0100","end":"2024-12-09T02:00:00+0100","period":"Zaterdag 7 december 4:00 uur t/m maandag 9 december 2:00 uur.","impact":{"value":4},"publicationSections":[{"section":{"stations":[{"coordinate":{"lat":53.2105560302734,"lng":6.56472206115723},"countryCode":"NL","name":"Groningen","stationCode":"GN","uicCode":"8400263"},{"coordinate":{"lat":53.20480027,"lng":6.5854178},"countryCode":"NL","name":"Groningen Europapark","stationCode":"GERP","uicCode":"8400238"},{"coordinate":{"lat":53.1617362,"lng":6.7220882},"countryCode":"NL","name":"Kropswolde","stationCode":"KW","uicCode":"8400369"},{"coordinate":{"lat":53.1607232,"lng":6.7402989},"countryCode":"NL","name":"Martenshoek","stationCode":"MTH","uicCode":"8400430"},{"coordinate":{"lat":53.1598181316756,"lng":6.77075386047363},"countryCode":"NL","name":"Hoogezand-Sappemeer","stationCode":"HGZ","uicCode":"8400331"},{"coordinate":{"lat":53.1596122800056,"lng":6.8679141998291},"countryCode":"NL","name":"Zuidbroek","stationCode":"ZB","uicCode":"8400742"},{"coordinate":{"lat":53.1655362,"lng":6.9777775},"countryCode":"NL","name":"Scheemda","stationCode":"SDA","uicCode":"8400551"},{"coordinate":{"lat":53.1392377,"lng":7.035101},"countryCode":"NL","name":"Winschoten","stationCode":"WS","uicCode":"8400696"},{"coordinate":{"lat":53.1844,"lng":7.19937},"countryCode":"NL","name":"Bad Nieuweschans","stationCode":"NSCH","uicCode":"8400457"}],"direction":"BOTH"},"consequence":{"section":{"stations":[{"coordinate":{"lat":53.2105560302734,"lng":6.56472206115723},"countryCode":"NL","name":"Groningen","stationCode":"GN","uicCode":"8400263"},{"coordinate":{"lat":53.20480027,"lng":6.5854178},"countryCode":"NL","name":"Groningen Europapark","stationCode":"GERP","uicCode":"8400238"},{"coordinate":{"lat":53.1617362,"lng":6.7220882},"countryCode":"NL","name":"Kropswolde","stationCode":"KW","uicCode":"8400369"},{"coordinate":{"lat":53.1607232,"lng":6.7402989},"countryCode":"NL","name":"Martenshoek","stationCode":"MTH","uicCode":"8400430"},{"coordinate":{"lat":53.1598181316756,"lng":6.77075386047363},"countryCode":"NL","name":"Hoogezand-Sappemeer","stationCode":"HGZ","uicCode":"8400331"},{"coordinate":{"lat":53.1596122800056,"lng":6.8679141998291},"countryCode":"NL","name":"Zuidbroek","stationCode":"ZB","uicCode":"8400742"},{"coordinate":{"lat":53.1655362,"lng":6.9777775},"countryCode":"NL","name":"Scheemda","stationCode":"SDA","uicCode":"8400551"},{"coordinate":{"lat":53.1392377,"lng":7.035101},"countryCode":"NL","name":"Winschoten","stationCode":"WS","uicCode":"8400696"},{"coordinate":{"lat":53.1844,"lng":7.19937},"countryCode":"NL","name":"Bad Nieuweschans","stationCode":"NSCH","uicCode":"8400457"}],"direction":"BOTH"},"description":"er rijden bussen","level":"LESS_TRAINS"},"sectionType":"NL"},{"section":{"stations":[{"coordinate":{"lat":53.2105560302734,"lng":6.56472206115723},"countryCode":"NL","name":"Groningen","stationCode":"GN","uicCode":"8400263"},{"coordinate":{"lat":53.20480027,"lng":6.5854178},"countryCode":"NL","name":"Groningen Europapark","stationCode":"GERP","uicCode":"8400238"},{"coordinate":{"lat":53.1617362,"lng":6.7220882},"countryCode":"NL","name":"Kropswolde","stationCode":"KW","uicCode":"8400369"},{"coordinate":{"lat":53.1607232,"lng":6.7402989},"countryCode":"NL","name":"Martenshoek","stationCode":"MTH","uicCode":"8400430"},{"coordinate":{"lat":53.1598181316756,"lng":6.77075386047363},"countryCode":"NL","name":"Hoogezand-Sappemeer","stationCode":"HGZ","uicCode":"8400331"},{"coordinate":{"lat":53.1596122800056,"lng":6.8679141998291},"countryCode":"NL","name":"Zuidbroek","stationCode":"ZB","uicCode":"8400742"},{"coordinate":{"lat":53.10324,"lng":6.88475},"countryCode":"NL","name":"Veendam","stationCode":"VDM","uicCode":"8400636"}],"direction":"BOTH"},"consequence":{"section":{"stations":[{"coordinate":{"lat":53.2105560302734,"lng":6.56472206115723},"countryCode":"NL","name":"Groningen","stationCode":"GN","uicCode":"8400263"},{"coordinate":{"lat":53.20480027,"lng":6.5854178},"countryCode":"NL","name":"Groningen Europapark","stationCode":"GERP","uicCode":"8400238"},{"coordinate":{"lat":53.1617362,"lng":6.7220882},"countryCode":"NL","name":"Kropswolde","stationCode":"KW","uicCode":"8400369"},{"coordinate":{"lat":53.1607232,"lng":6.7402989},"countryCode":"NL","name":"Martenshoek","stationCode":"MTH","uicCode":"8400430"},{"coordinate":{"lat":53.1598181316756,"lng":6.77075386047363},"countryCode":"NL","name":"Hoogezand-Sappemeer","stationCode":"HGZ","uicCode":"8400331"},{"coordinate":{"lat":53.1596122800056,"lng":6.8679141998291},"countryCode":"NL","name":"Zuidbroek","stationCode":"ZB","uicCode":"8400742"},{"coordinate":{"lat":53.10324,"lng":6.88475},"countryCode":"NL","name":"Veendam","stationCode":"VDM","uicCode":"8400636"}],"direction":"BOTH"},"description":"er rijden bussen","level":"LESS_TRAINS"},"sectionType":"NL"}],"summaryAdditionalTravelTime":{"label":"De extra reistijd kan oplopen tot 45 minuten.","shortLabel":"Extra reistijd tot 45 min.","maximumDurationInMinutes":45},"timespans":[{"start":"2024-12-07T04:00:00+0100","end":"2024-12-09T02:00:00+0100","period":"Zaterdag 7 december 4:00 uur t/m maandag 9 december 2:00 uur.","situation":{"label":"Door werkzaamheden: tussen Groningen en Bad Nieuweschans rijden er bussen en tussen Groningen en Veendam rijden er bussen."},"cause":{"label":"werkzaamheden"},"additionalTravelTime":{"label":"De extra reistijd kan oplopen tot 45 minuten.","shortLabel":"Extra reistijd tot 45 min.","maximumDurationInMinutes":45},"alternativeTransport":{"label":"er rijden stopbussen","shortLabel":"er rijden stopbussen"},"advices":[]}],"alternativeTransportTimespans":[{"start":"2024-12-07T04:00:00+0100","end":"2024-12-09T02:00:00+0100","alternativeTransport":{"location":[{"station":{"coordinate":{"lat":53.2105560302734,"lng":6.56472206115723},"countryCode":"NL","name":"Groningen","stationCode":"GN","uicCode":"8400263"},"description":"vanaf het busstation halte AB"},{"station":{"coordinate":{"lat":53.20480027,"lng":6.5854178},"countryCode":"NL","name":"Groningen Europapark","stationCode":"GERP","uicCode":"8400238"},"description":"vanaf de bushalte"},{"station":{"coordinate":{"lat":53.1617362,"lng":6.7220882},"countryCode":"NL","name":"Kropswolde","stationCode":"KW","uicCode":"8400369"},"description":"vanaf de provinciale weg"},{"station":{"coordinate":{"lat":53.1607232,"lng":6.7402989},"countryCode":"NL","name":"Martenshoek","stationCode":"MTH","uicCode":"8400430"},"description":"vanaf de bushalte"},{"station":{"coordinate":{"lat":53.1598181316756,"lng":6.77075386047363},"countryCode":"NL","name":"Hoogezand-Sappemeer","stationCode":"HGZ","uicCode":"8400331"},"description":"vanaf de voorzijde van het station"},{"station":{"coordinate":{"lat":53.1596122800056,"lng":6.8679141998291},"countryCode":"NL","name":"Zuidbroek","stationCode":"ZB","uicCode":"8400742"},"description":"vanaf de bushalte"},{"station":{"coordinate":{"lat":53.10324,"lng":6.88475},"countryCode":"NL","name":"Veendam","stationCode":"VDM","uicCode":"8400636"},"description":"vanaf de voorzijde van het station"}],"label":"Er rijden stopbussen tussen Groningen, Groningen Europapark, Kropswolde, Martenshoek, Hoogezand-Sappemeer, Zuidbroek en Veendam.","shortLabel":"Er rijden stopbussen Groningen - Europapark - Kropswolde - Martenshoek - Hoogezand-Sap. - Zuidbroek - Veendam."}},{"start":"2024-12-07T04:00:00+0100","end":"2024-12-09T02:00:00+0100","alternativeTransport":{"location":[{"station":{"coordinate":{"lat":53.2105560302734,"lng":6.56472206115723},"countryCode":"NL","name":"Groningen","stationCode":"GN","uicCode":"8400263"},"description":"vanaf het busstation halte AB"},{"station":{"coordinate":{"lat":53.20480027,"lng":6.5854178},"countryCode":"NL","name":"Groningen Europapark","stationCode":"GERP","uicCode":"8400238"},"description":"vanaf de bushalte"},{"station":{"coordinate":{"lat":53.1617362,"lng":6.7220882},"countryCode":"NL","name":"Kropswolde","stationCode":"KW","uicCode":"8400369"},"description":"vanaf de provinciale weg"},{"station":{"coordinate":{"lat":53.1607232,"lng":6.7402989},"countryCode":"NL","name":"Martenshoek","stationCode":"MTH","uicCode":"8400430"},"description":"vanaf de bushalte"},{"station":{"coordinate":{"lat":53.1598181316756,"lng":6.77075386047363},"countryCode":"NL","name":"Hoogezand-Sappemeer","stationCode":"HGZ","uicCode":"8400331"},"description":"vanaf de voorzijde van het station"},{"station":{"coordinate":{"lat":53.1596122800056,"lng":6.8679141998291},"countryCode":"NL","name":"Zuidbroek","stationCode":"ZB","uicCode":"8400742"},"description":"vanaf de bushalte"},{"station":{"coordinate":{"lat":53.10324,"lng":6.88475},"countryCode":"NL","name":"Veendam","stationCode":"VDM","uicCode":"8400636"},"description":"vanaf de voorzijde van het station"},{"station":{"coordinate":{"lat":53.1655362,"lng":6.9777775},"countryCode":"NL","name":"Scheemda","stationCode":"SDA","uicCode":"8400551"},"description":"vanaf de bushalte"},{"station":{"coordinate":{"lat":53.1392377,"lng":7.035101},"countryCode":"NL","name":"Winschoten","stationCode":"WS","uicCode":"8400696"},"description":"vanaf het busstation"},{"station":{"coordinate":{"lat":53.1844,"lng":7.19937},"countryCode":"NL","name":"Bad Nieuweschans","stationCode":"NSCH","uicCode":"8400457"},"description":"vanaf de voorzijde van het station"}],"label":"Er rijden stopbussen tussen Groningen, Groningen Europapark, Kropswolde, Martenshoek, Hoogezand-Sappemeer, Zuidbroek, Veendam, Scheemda, Winschoten en Bad Nieuweschans.","shortLabel":"Er rijden stopbussen Groningen - Europapark - Kropswolde - Martenshoek - Hoogezand-Sap. - Zuidbroek - Veendam - Scheemda - Winschoten - Bad Nieuweschans."}}]},{"type":"MAINTENANCE","id":"7005555","title":"Amsterdam - Hannover - Berlin.","isActive":false,"local":false,"titleSections":[[{"type":"STATION","value":"Amsterdam C."},{"type":"ICON","value":"MAINTENANCE"},{"type":"STATION","value":"Amersfoort C."},{"type":"STATION","value":"Berlin Hbf"}]],"registrationTime":"2024-11-20T13:24:18+0100","start":"2024-12-07T04:00:00+0100","releaseTime":"2024-11-20T13:24:18+0100","end":"2024-12-09T02:00:00+0100","period":"Zaterdag 7 december 4:00 uur t/m maandag 9 december 2:00 uur.","impact":{"value":2},"publicationSections":[{"section":{"stations":[{"coordinate":{"lat":52.3788871765137,"lng":4.90027761459351},"countryCode":"NL","name":"Amsterdam Centraal","stationCode":"ASD","uicCode":"8400058"},{"coordinate":{"lat":52.3605537414551,"lng":4.93111133575439},"countryCode":"NL","name":"Amsterdam Muiderpoort","stationCode":"ASDM","uicCode":"8400060"},{"coordinate":{"lat":52.35274,"lng":4.94855},"countryCode":"NL","name":"Amsterdam Science Park","stationCode":"ASSP","uicCode":"8400235"},{"coordinate":{"lat":52.34515,"lng":4.967566},"countryCode":"NL","name":"Diemen","stationCode":"DMN","uicCode":"8400165"},{"coordinate":{"lat":52.3127784729004,"lng":5.04305553436279},"countryCode":"NL","name":"Weesp","stationCode":"WP","uicCode":"8400685"},{"coordinate":{"lat":52.2802772521973,"lng":5.15694427490234},"countryCode":"NL","name":"Naarden-Bussum","stationCode":"NDB","uicCode":"8400452"},{"coordinate":{"lat":52.2658348083496,"lng":5.16305541992188},"countryCode":"NL","name":"Bussum Zuid","stationCode":"BSMZ","uicCode":"8400145"},{"coordinate":{"lat":52.2380561828613,"lng":5.17388868331909},"countryCode":"NL","name":"Hilversum Media Park","stationCode":"HVSM","uicCode":"8400324"},{"coordinate":{"lat":52.2258338928223,"lng":5.18194437026978},"countryCode":"NL","name":"Hilversum","stationCode":"HVS","uicCode":"8400322"},{"coordinate":{"lat":52.2083320617676,"lng":5.28083324432373},"countryCode":"NL","name":"Baarn","stationCode":"BRN","uicCode":"8400086"},{"coordinate":{"lat":52.1538887023926,"lng":5.37055540084839},"countryCode":"NL","name":"Amersfoort Centraal","stationCode":"AMF","uicCode":"8400055"},{"coordinate":{"lat":52.16652,"lng":5.45718},"countryCode":"NL","name":"Hoevelaken","stationCode":"HVL","uicCode":"8400490"},{"coordinate":{"lat":52.2091674804687,"lng":5.97027778625488},"countryCode":"NL","name":"Apeldoorn","stationCode":"APD","uicCode":"8400066"},{"coordinate":{"lat":52.2152786254883,"lng":6.00444459915161},"countryCode":"NL","name":"Apeldoorn Osseveld","stationCode":"APDO","uicCode":"8400229"},{"coordinate":{"lat":52.2377777099609,"lng":6.09861087799072},"countryCode":"NL","name":"Twello","stationCode":"TWL","uicCode":"8400599"},{"coordinate":{"lat":52.2574996948242,"lng":6.16055536270142},"countryCode":"NL","name":"Deventer","stationCode":"DV","uicCode":"8400173"},{"coordinate":{"lat":52.2502784729004,"lng":6.21444463729858},"countryCode":"NL","name":"Deventer Colmschate","stationCode":"DVC","uicCode":"8400185"},{"coordinate":{"lat":52.2838897705078,"lng":6.42027759552002},"countryCode":"NL","name":"Holten","stationCode":"HON","uicCode":"8400328"},{"coordinate":{"lat":52.3122215270996,"lng":6.52027797698975},"countryCode":"NL","name":"Rijssen","stationCode":"RSN","uicCode":"8400538"},{"coordinate":{"lat":52.3613891601562,"lng":6.59166669845581},"countryCode":"NL","name":"Wierden","stationCode":"WDN","uicCode":"8400691"},{"coordinate":{"lat":52.3580551147461,"lng":6.65388870239258},"countryCode":"NL","name":"Almelo","stationCode":"AML","uicCode":"8400051"},{"coordinate":{"lat":52.3419456481934,"lng":6.66666650772095},"countryCode":"NL","name":"Almelo de Riet","stationCode":"AMRI","uicCode":"8400520"},{"coordinate":{"lat":52.2988891601562,"lng":6.74805545806885},"countryCode":"NL","name":"Borne","stationCode":"BN","uicCode":"8400124"},{"coordinate":{"lat":52.2616653442383,"lng":6.79388904571533},"countryCode":"NL","name":"Hengelo","stationCode":"HGL","uicCode":"8400316"},{"coordinate":{"lat":52.2688903808594,"lng":6.81944465637207},"countryCode":"NL","name":"Hengelo Oost","stationCode":"HGLO","uicCode":"8400312"},{"coordinate":{"lat":52.3063888549805,"lng":6.93472242355347},"countryCode":"NL","name":"Oldenzaal","stationCode":"ODZ","uicCode":"8400483"},{"coordinate":{"lat":52.309685595156,"lng":7.15853691101074},"countryCode":"D","name":"Bad Bentheim","stationCode":"BH","uicCode":"8021156"},{"coordinate":{"lat":52.276299,"lng":7.434255},"countryCode":"D","name":"Rheine","stationCode":"RHEINE","uicCode":"8021067"},{"coordinate":{"lat":52.272851,"lng":8.061781},"countryCode":"D","name":"Osnabrück Hbf","stationCode":"OSNH","uicCode":"8021025"},{"coordinate":{"lat":52.3770401,"lng":9.7416759},"countryCode":"D","name":"Hannover Hbf","stationCode":"HANN","uicCode":"8013552"},{"coordinate":{"lat":52.52503,"lng":13.36946},"countryCode":"D","name":"Berlin Hbf","stationCode":"BERHBL","uicCode":"8065969"}],"direction":"BOTH"},"consequence":{"section":{"stations":[{"coordinate":{"lat":52.3788871765137,"lng":4.90027761459351},"countryCode":"NL","name":"Amsterdam Centraal","stationCode":"ASD","uicCode":"8400058"},{"coordinate":{"lat":52.3605537414551,"lng":4.93111133575439},"countryCode":"NL","name":"Amsterdam Muiderpoort","stationCode":"ASDM","uicCode":"8400060"},{"coordinate":{"lat":52.35274,"lng":4.94855},"countryCode":"NL","name":"Amsterdam Science Park","stationCode":"ASSP","uicCode":"8400235"},{"coordinate":{"lat":52.34515,"lng":4.967566},"countryCode":"NL","name":"Diemen","stationCode":"DMN","uicCode":"8400165"},{"coordinate":{"lat":52.3127784729004,"lng":5.04305553436279},"countryCode":"NL","name":"Weesp","stationCode":"WP","uicCode":"8400685"},{"coordinate":{"lat":52.2802772521973,"lng":5.15694427490234},"countryCode":"NL","name":"Naarden-Bussum","stationCode":"NDB","uicCode":"8400452"},{"coordinate":{"lat":52.2658348083496,"lng":5.16305541992188},"countryCode":"NL","name":"Bussum Zuid","stationCode":"BSMZ","uicCode":"8400145"},{"coordinate":{"lat":52.2380561828613,"lng":5.17388868331909},"countryCode":"NL","name":"Hilversum Media Park","stationCode":"HVSM","uicCode":"8400324"},{"coordinate":{"lat":52.2258338928223,"lng":5.18194437026978},"countryCode":"NL","name":"Hilversum","stationCode":"HVS","uicCode":"8400322"},{"coordinate":{"lat":52.2083320617676,"lng":5.28083324432373},"countryCode":"NL","name":"Baarn","stationCode":"BRN","uicCode":"8400086"},{"coordinate":{"lat":52.1538887023926,"lng":5.37055540084839},"countryCode":"NL","name":"Amersfoort Centraal","stationCode":"AMF","uicCode":"8400055"}],"direction":"BOTH"},"description":"aangepaste internationale dienstregeling","level":"LESS_TRAINS"},"sectionType":"NEIGHBORING_COUNTRY"}],"summaryAdditionalTravelTime":{"label":"U heeft geen langere reistijd.","shortLabel":"Geen extra reistijd."},"timespans":[{"start":"2024-12-07T04:00:00+0100","end":"2024-12-09T02:00:00+0100","period":"Zaterdag 7 december 4:00 uur t/m maandag 9 december 2:00 uur.","situation":{"label":"Door werkzaamheden: tussen Amsterdam Centraal en Amersfoort Centraal is de internationale dienstregeling aangepast."},"cause":{"label":"werkzaamheden"},"additionalTravelTime":{"label":"U heeft geen langere reistijd.","shortLabel":"Geen extra reistijd."},"advices":["Intercity Berlin rijdt niet tussen Amsterdam Centraal en Amersfoort Centraal."]}],"alternativeTransportTimespans":[]},{"type":"MAINTENANCE","id":"7005627","title":"Schiphol - Rotterdam.","isActive":false,"local":false,"titleSections":[[{"type":"STATION","value":"Schiphol Airport"},{"type":"STATION","value":"Hoofddorp"},{"type":"ICON","value":"MAINTENANCE"},{"type":"STATION","value":"Rotterdam C."}]],"registrationTime":"2024-11-20T12:07:55+0100","start":"2024-12-07T04:00:00+0100","releaseTime":"2024-11-20T12:07:55+0100","end":"2024-12-09T02:00:00+0100","period":"Zaterdag 7 december 4:00 uur t/m maandag 9 december 2:00 uur.","impact":{"value":2},"publicationSections":[{"section":{"stations":[{"coordinate":{"lat":52.3094444274902,"lng":4.76194429397583},"countryCode":"NL","name":"Schiphol Airport","stationCode":"SHL","uicCode":"8400561"},{"coordinate":{"lat":52.2933349609375,"lng":4.70055532455444},"countryCode":"NL","name":"Hoofddorp","stationCode":"HFD","uicCode":"8400332"},