[{"id":"6021899","type":"DISRUPTION","registrationTime":"2023-02-28T07:19:26+0100","releaseTime":"2023-02-28T07:19:26+0100","local":false,"title":"Zwolle-Enschede","titleSections":[[{"type":"STATION","value":"Zwolle"},{"type":"ICON","value":"DISRUPTION"},{"type":"STATION","value":"Almelo"},{"type":"ICON","value":"DISRUPTION"},{"type":"STATION","value":"Enschede"}]],"topic":"disruption_6021899_nl","isActive":true,"start":"2023-02-27T19:18:03+0100","end":"2023-02-28T09:49:26+0100","phase":{"id":"2","label":"Impact bekend"},"impact":{"value":1},"expectedDuration":{"description":"Dit duurt de rest van de dag."},"publicationSections":[{"section":{"stations":[{"uicCode":"8400747","stationCode":"ZL","name":"Zwolle","coordinate":{"lat":52.5047225952148,"lng":6.09194421768188},"countryCode":"NL"},{"uicCode":"8400310","stationCode":"HNO","name":"Heino","coordinate":{"lat":52.4272232055664,"lng":6.22111129760742},"countryCode":"NL"},{"uicCode":"8400513","stationCode":"RAT","name":"Raalte","coordinate":{"lat":52.3916664123535,"lng":6.27750015258789},"countryCode":"NL"},{"uicCode":"8400472","stationCode":"NVD","name":"Nijverdal","coordinate":{"lat":52.366111,"lng":6.462},"countryCode":"NL"},{"uicCode":"8400691","stationCode":"WDN","name":"Wierden","coordinate":{"lat":52.3613891601562,"lng":6.59166669845581},"countryCode":"NL"},{"uicCode":"8400051","stationCode":"AML","name":"Almelo","coordinate":{"lat":52.3580551147461,"lng":6.65388870239258},"countryCode":"NL"},{"uicCode":"8400520","stationCode":"AMRI","name":"Almelo de Riet","coordinate":{"lat":52.3419456481934,"lng":6.66666650772095},"countryCode":"NL"},{"uicCode":"8400124","stationCode":"BN","name":"Borne","coordinate":{"lat":52.2988891601562,"lng":6.74805545806885},"countryCode":"NL"},{"uicCode":"8400316","stationCode":"HGL","name":"Hengelo","coordinate":{"lat":52.2616653442383,"lng":6.79388904571533},"countryCode":"NL"},{"uicCode":"8400221","stationCode":"ESK","name":"Enschede Kennispark","coordinate":{"lat":52.2374992370605,"lng":6.83888912200928},"countryCode":"NL"},{"uicCode":"8400212","stationCode":"ES","name":"Enschede","coordinate":{"lat":52.2224998474121,"lng":6.8899998664856},"countryCode":"NL"}],"direction":"BOTH"},"consequence":{"section":{"stations":[{"uicCode":"8400747","stationCode":"ZL","name":"Zwolle","coordinate":{"lat":52.5047225952148,"lng":6.09194421768188},"countryCode":"NL"},{"uicCode":"8400310","stationCode":"HNO","name":"Heino","coordinate":{"lat":52.4272232055664,"lng":6.22111129760742},"countryCode":"NL"},{"uicCode":"8400513","stationCode":"RAT","name":"Raalte","coordinate":{"lat":52.3916664123535,"lng":6.27750015258789},"countryCode":"NL"},{"uicCode":"8400472","stationCode":"NVD","name":"Nijverdal","coordinate":{"lat":52.366111,"lng":6.462},"countryCode":"NL"},{"uicCode":"8400691","stationCode":"WDN","name":"Wierden","coordinate":{"lat":52.3613891601562,"lng":6.59166669845581},"countryCode":"NL"},{"uicCode":"8400051","stationCode":"AML","name":"Almelo","coordinate":{"lat":52.3580551147461,"lng":6.65388870239258},"countryCode":"NL"}],"direction":"ONE_WAY"},"description":"geen treinen","level":"NO_OR_MUCH_LESS_TRAINS"},"sectionType":"NL"},{"section":{"stations":[{"uicCode":"8400747","stationCode":"ZL","name":"Zwolle","coordinate":{"lat":52.5047225952148,"lng":6.09194421768188},"countryCode":"NL"},{"uicCode":"8400310","stationCode":"HNO","name":"Heino","coordinate":{"lat":52.4272232055664,"lng":6.22111129760742},"countryCode":"NL"},{"uicCode":"8400513","stationCode":"RAT","name":"Raalte","coordinate":{"lat":52.3916664123535,"lng":6.27750015258789},"countryCode":"NL"},{"uicCode":"8400472","stationCode":"NVD","name":"Nijverdal","coordinate":{"lat":52.366111,"lng":6.462},"countryCode":"NL"},{"uicCode":"8400691","stationCode":"WDN","name":"Wierden","coordinate":{"lat":52.3613891601562,"lng":6.59166669845581},"countryCode":"NL"},{"uicCode":"8400051","stationCode":"AML","name":"Almelo","coordinate":{"lat":52.3580551147461,"lng":6.65388870239258},"countryCode":"NL"},{"uicCode":"8400520","stationCode":"AMRI","name":"Almelo de Riet","coordinate":{"lat":52.3419456481934,"lng":6.66666650772095},"countryCode":"NL"},{"uicCode":"8400124","stationCode":"BN","name":"Borne","coordinate":{"lat":52.2988891601562,"lng":6.74805545806885},"countryCode":"NL"},{"uicCode":"8400316","stationCode":"HGL","name":"Hengelo","coordinate":{"lat":52.2616653442383,"lng":6.79388904571533},"countryCode":"NL"},{"uicCode":"8400221","stationCode":"ESK","name":"Enschede Kennispark","coordinate":{"lat":52.2374992370605,"lng":6.83888912200928},"countryCode":"NL"},{"uicCode":"8400212","stationCode":"ES","name":"Enschede","coordinate":{"lat":52.2224998474121,"lng":6.8899998664856},"countryCode":"NL"}],"direction":"BOTH"},"consequence":{"section":{"stations":[{"uicCode":"8400051","stationCode":"AML","name":"Almelo","coordinate":{"lat":52.3580551147461,"lng":6.65388870239258},"countryCode":"NL"},{"uicCode":"8400520","stationCode":"AMRI","name":"Almelo de Riet","coordinate":{"lat":52.3419456481934,"lng":6.66666650772095},"countryCode":"NL"},{"uicCode":"8400124","stationCode":"BN","name":"Borne","coordinate":{"lat":52.2988891601562,"lng":6.74805545806885},"countryCode":"NL"},{"uicCode":"8400316","stationCode":"HGL","name":"Hengelo","coordinate":{"lat":52.2616653442383,"lng":6.79388904571533},"countryCode":"NL"},{"uicCode":"8400221","stationCode":"ESK","name":"Enschede Kennispark","coordinate":{"lat":52.2374992370605,"lng":6.83888912200928},"countryCode":"NL"},{"uicCode":"8400212","stationCode":"ES","name":"Enschede","coordinate":{"lat":52.2224998474121,"lng":6.8899998664856},"countryCode":"NL"}],"direction":"ONE_WAY"},"description":"minder treinen","level":"LESS_TRAINS"},"sectionType":"NL"}],"timespans":[{"start":"2023-02-27T19:18:03+0100","end":"2023-02-28T09:49:26+0100","situation":{"label":"Tussen Zwolle en Almelo rijden er geen treinen en tussen Almelo en Enschede rijden er minder treinen door een staking bij Keolis."},"cause":{"label":"Staking Keolis"},"advices":[]}],"alternativeTransportTimespans":[]},{"id":"6021901","type":"DISRUPTION","registrationTime":"2023-02-28T07:27:57+0100","releaseTime":"2023-02-28T07:27:57+0100","local":false,"title":"Zwolle-Kampen","titleSections":[[{"type":"STATION","value":"Zwolle"},{"type":"ICON","value":"DISRUPTION"},{"type":"STATION","value":"Kampen"}]],"topic":"disruption_6021901_nl","isActive":true,"start":"2023-02-27T19:25:31+0100","end":"2023-02-28T09:57:57+0100","phase":{"id":"2","label":"Impact bekend"},"impact":{"value":1},"expectedDuration":{"description":"Dit duurt de rest van de dag."},"publicationSections":[{"section":{"stations":[{"uicCode":"8400747","stationCode":"ZL","name":"Zwolle","coordinate":{"lat":52.5047225952148,"lng":6.09194421768188},"countryCode":"NL"},{"uicCode":"8400746","stationCode":"ZLSH","name":"Zwolle Stadshagen","coordinate":{"lat":52.52764,"lng":6.05146},"countryCode":"NL"},{"uicCode":"8400353","stationCode":"KPN","name":"Kampen","coordinate":{"lat":52.5597229003906,"lng":5.92166662216186},"countryCode":"NL"}],"direction":"BOTH"},"consequence":{"section":{"stations":[{"uicCode":"8400747","stationCode":"ZL","name":"Zwolle","coordinate":{"lat":52.5047225952148,"lng":6.09194421768188},"countryCode":"NL"},{"uicCode":"8400746","stationCode":"ZLSH","name":"Zwolle Stadshagen","coordinate":{"lat":52.52764,"lng":6.05146},"countryCode":"NL"},{"uicCode":"8400353","stationCode":"KPN","name":"Kampen","coordinate":{"lat":52.5597229003906,"lng":5.92166662216186},"countryCode":"NL"}],"direction":"ONE_WAY"},"description":"geen treinen","level":"NO_OR_MUCH_LESS_TRAINS"},"sectionType":"NL"}],"timespans":[{"start":"2023-02-27T19:25:31+0100","end":"2023-02-28T09:57:57+0100","situation":{"label":"Tussen Zwolle en Kampen rijden er geen treinen door een staking bij Keolis."},"cause":{"label":"Staking Keolis"},"advices":[]}],"alternativeTransportTimespans":[]},{"id":"6021902","type":"DISRUPTION","registrationTime":"2023-02-28T07:27:50+0100","releaseTime":"2023-02-28T07:27:50+0100","local":false,"title":"Zutphen-Hengelo","titleSections":[[{"type":"STATION","value":"Zutphen"},{"type":"ICON","value":"DISRUPTION"},{"type":"STATION","value":"Oldenzaal"}]],"topic":"disruption_6021902_nl","isActive":true,"start":"2023-02-27T19:27:17+0100","end":"2023-02-28T09:57:50+0100","phase":{"id":"2","label":"Impact bekend"},"impact":{"value":1},"expectedDuration":{"description":"Dit duurt de rest van de dag."},"publicationSections":[{"section":{"stations":[{"uicCode":"8400744","stationCode":"ZP","name":"Zutphen","coordinate":{"lat":52.1452789306641,"lng":6.19416666030884},"countryCode":"NL"},{"uicCode":"8400399","stationCode":"LC","name":"Lochem","coordinate":{"lat":52.1666679382324,"lng":6.42638874053955},"countryCode":"NL"},{"uicCode":"8400254","stationCode":"GO","name":"Goor","coordinate":{"lat":52.2302780151367,"lng":6.58444452285767},"countryCode":"NL"},{"uicCode":"8400169","stationCode":"DDN","name":"Delden","coordinate":{"lat":52.2599983215332,"lng":6.7161111831665},"countryCode":"NL"},{"uicCode":"8400433","stationCode":"HGLG","name":"Hengelo Gezondheidspark","coordinate":{"lat":52.261667,"lng":6.767778},"countryCode":"NL"},{"uicCode":"8400316","stationCode":"HGL","name":"Hengelo","coordinate":{"lat":52.2616653442383,"lng":6.79388904571533},"countryCode":"NL"},{"uicCode":"8400312","stationCode":"HGLO","name":"Hengelo Oost","coordinate":{"lat":52.2688903808594,"lng":6.81944465637207},"countryCode":"NL"},{"uicCode":"8400483","stationCode":"ODZ","name":"Oldenzaal","coordinate":{"lat":52.3063888549805,"lng":6.93472242355347},"countryCode":"NL"}],"direction":"BOTH"},"consequence":{"section":{"stations":[{"uicCode":"8400744","stationCode":"ZP","name":"Zutphen","coordinate":{"lat":52.1452789306641,"lng":6.19416666030884},"countryCode":"NL"},{"uicCode":"8400399","stationCode":"LC","name":"Lochem","coordinate":{"lat":52.1666679382324,"lng":6.42638874053955},"countryCode":"NL"},{"uicCode":"8400254","stationCode":"GO","name":"Goor","coordinate":{"lat":52.2302780151367,"lng":6.58444452285767},"countryCode":"NL"},{"uicCode":"8400169","stationCode":"DDN","name":"Delden","coordinate":{"lat":52.2599983215332,"lng":6.7161111831665},"countryCode":"NL"},{"uicCode":"8400433","stationCode":"HGLG","name":"Hengelo Gezondheidspark","coordinate":{"lat":52.261667,"lng":6.767778},"countryCode":"NL"},{"uicCode":"8400316","stationCode":"HGL","name":"Hengelo","coordinate":{"lat":52.2616653442383,"lng":6.79388904571533},"countryCode":"NL"},{"uicCode":"8400312","stationCode":"HGLO","name":"Hengelo Oost","coordinate":{"lat":52.2688903808594,"lng":6.81944465637207},"countryCode":"NL"},{"uicCode":"8400483","stationCode":"ODZ","name":"Oldenzaal","coordinate":{"lat":52.3063888549805,"lng":6.93472242355347},"countryCode":"NL"}],"direction":"ONE_WAY"},"description":"geen treinen","level":"NO_OR_MUCH_LESS_TRAINS"},"sectionType":"NL"}],"timespans":[{"start":"2023-02-27T19:27:17+0100","end":"2023-02-28T09:57:50+0100","situation":{"label":"Tussen Zutphen en Oldenzaal rijden er geen treinen door een staking bij Keolis."},"cause":{"label":"Staking Keolis"},"advices":[]}],"alternativeTransportTimespans":[]},{"id":"6021908","type":"DISRUPTION","registrationTime":"2023-02-28T07:13:35+0100","releaseTime":"2023-02-28T07:13:35+0100","local":false,"title":"Apeldoorn-Zutphen; Zutphen-Winterswijk","titleSections":[[{"type":"STATION","value":"Apeldoorn"},{"type":"ICON","value":"DISRUPTION"},{"type":"STATION","value":"Zutphen"}],[{"type":"STATION","value":"Zutphen"},{"type":"ICON","value":"DISRUPTION"},{"type":"STATION","value":"Winterswijk"}]],"topic":"disruption_6021908_nl","isActive":true,"start":"2023-02-27T19:37:19+0100","end":"2023-02-28T09:43:35+0100","phase":{"id":"2","label":"Impact bekend"},"impact":{"value":1},"expectedDuration":{"description":"Dit duurt de rest van de dag."},"publicationSections":[{"section":{"stations":[{"uicCode":"8400066","stationCode":"APD","name":"Apeldoorn","coordinate":{"lat":52.2091674804687,"lng":5.97027778625488},"countryCode":"NL"},{"uicCode":"8400233","stationCode":"APDM","name":"Apeldoorn De Maten","coordinate":{"lat":52.2052764892578,"lng":6.00055551528931},"countryCode":"NL"},{"uicCode":"8400361","stationCode":"KBK","name":"Klarenbeek","coordinate":{"lat":52.1780548095703,"lng":6.08361101150513},"countryCode":"NL"},{"uicCode":"8400668","stationCode":"VEM","name":"Voorst-Empe","coordinate":{"lat":52.1575012207031,"lng":6.14361095428467},"countryCode":"NL"},{"uicCode":"8400744","stationCode":"ZP","name":"Zutphen","coordinate":{"lat":52.1452789306641,"lng":6.19416666030884},"countryCode":"NL"}],"direction":"BOTH"},"consequence":{"section":{"stations":[{"uicCode":"8400066","stationCode":"APD","name":"Apeldoorn","coordinate":{"lat":52.2091674804687,"lng":5.97027778625488},"countryCode":"NL"},{"uicCode":"8400233","stationCode":"APDM","name":"Apeldoorn De Maten","coordinate":{"lat":52.2052764892578,"lng":6.00055551528931},"countryCode":"NL"},{"uicCode":"8400361","stationCode":"KBK","name":"Klarenbeek","coordinate":{"lat":52.1780548095703,"lng":6.08361101150513},"countryCode":"NL"},{"uicCode":"8400668","stationCode":"VEM","name":"Voorst-Empe","coordinate":{"lat":52.1575012207031,"lng":6.14361095428467},"countryCode":"NL"},{"uicCode":"8400744","stationCode":"ZP","name":"Zutphen","coordinate":{"lat":52.1452789306641,"lng":6.19416666030884},"countryCode":"NL"}],"direction":"ONE_WAY"},"description":"geen treinen","level":"NO_OR_MUCH_LESS_TRAINS"},"sectionType":"NL"},{"section":{"stations":[{"uicCode":"8400744","stationCode":"ZP","name":"Zutphen","coordinate":{"lat":52.1452789306641,"lng":6.19416666030884},"countryCode":"NL"},{"uicCode":"8400661","stationCode":"VD","name":"Vorden","coordinate":{"lat":52.1071949,"lng":6.3170457},"countryCode":"NL"},{"uicCode":"8400537","stationCode":"RL","name":"Ruurlo","coordinate":{"lat":52.0810888,"lng":6.4492656},"countryCode":"NL"},{"uicCode":"8400395","stationCode":"LTV","name":"Lichtenvoorde-Groenlo","coordinate":{"lat":52.01188,"lng":6.59641},"countryCode":"NL"},{"uicCode":"8400700","stationCode":"WWW","name":"Winterswijk West","coordinate":{"lat":51.97453,"lng":6.70417},"countryCode":"NL"},{"uicCode":"8400698","stationCode":"WW","name":"Winterswijk","coordinate":{"lat":51.9677307,"lng":6.7155181},"countryCode":"NL"}],"direction":"BOTH"},"consequence":{"section":{"stations":[{"uicCode":"8400744","stationCode":"ZP","name":"Zutphen","coordinate":{"lat":52.1452789306641,"lng":6.19416666030884},"countryCode":"NL"},{"uicCode":"8400661","stationCode":"VD","name":"Vorden","coordinate":{"lat":52.1071949,"lng":6.3170457},"countryCode":"NL"},{"uicCode":"8400537","stationCode":"RL","name":"Ruurlo","coordinate":{"lat":52.0810888,"lng":6.4492656},"countryCode":"NL"},{"uicCode":"8400395","stationCode":"LTV","name":"Lichtenvoorde-Groenlo","coordinate":{"lat":52.01188,"lng":6.59641},"countryCode":"NL"},{"uicCode":"8400700","stationCode":"WWW","name":"Winterswijk West","coordinate":{"lat":51.97453,"lng":6.70417},"countryCode":"NL"},{"uicCode":"8400698","stationCode":"WW","name":"Winterswijk","coordinate":{"lat":51.9677307,"lng":6.7155181},"countryCode":"NL"}],"direction":"ONE_WAY"},"description":"geen treinen","level":"NO_OR_MUCH_LESS_TRAINS"},"sectionType":"NL"}],"timespans":[{"start":"2023-02-27T19:37:19+0100","end":"2023-02-28T09:43:35+0100","situation":{"label":"Tussen Apeldoorn en Zutphen rijden er geen treinen en tussen Zutphen en Winterswijk rijden er geen treinen door een staking bij Arriva."},"cause":{"label":"Staking Arriva"},"advices":[]}],"alternativeTransportTimespans":[]},{"id":"6021909","type":"DISRUPTION","registrationTime":"2023-02-28T07:14:01+0100","releaseTime":"2023-02-28T07:14:01+0100","local":false,"title":"Arnhem-Tiel","titleSections":[[{"type":"STATION","value":"Arnhem C."},{"type":"ICON","value":"DISRUPTION"},{"type":"STATION","value":"Tiel"}]],"topic":"disruption_6021909_nl","isActive":true,"start":"2023-02-27T19:37:19+0100","end":"2023-02-28T09:44:01+0100","phase":{"id":"2","label":"Impact bekend"},"impact":{"value":1},"expectedDuration":{"description":"Dit duurt de rest van de dag."},"publicationSections":[{"section":{"stations":[{"uicCode":"8400071","stationCode":"AH","name":"Arnhem Centraal","coordinate":{"lat":51.9850006103516,"lng":5.89916658401489},"countryCode":"NL"},{"uicCode":"8400227","stationCode":"AHZ","name":"Arnhem Zuid","coordinate":{"lat":51.9550018310547,"lng":5.85194444656372},"countryCode":"NL"},{"uicCode":"8400207","stationCode":"EST","name":"Elst","coordinate":{"lat":51.9169425964355,"lng":5.85500001907349},"countryCode":"NL"},{"uicCode":"8400734","stationCode":"ZA","name":"Zetten-Andelst","coordinate":{"lat":51.920056,"lng":5.7228408},"countryCode":"NL"},{"uicCode":"8400315","stationCode":"HMN","name":"Hemmen-Dodewaard","coordinate":{"lat":51.9222129,"lng":5.6737254},"countryCode":"NL"},{"uicCode":"8400494","stationCode":"OP","name":"Opheusden","coordinate":{"lat":51.9261615,"lng":5.6371145},"countryCode":"NL"},{"uicCode":"8400359","stationCode":"KTR","name":"Kesteren","coordinate":{"lat":51.9313869,"lng":5.5833465},"countryCode":"NL"},{"uicCode":"8400596","stationCode":"TL","name":"Tiel","coordinate":{"lat":51.8894462585449,"lng":5.42222213745117},"countryCode":"NL"}],"direction":"BOTH"},"consequence":{"section":{"stations":[{"uicCode":"8400071","stationCode":"AH","name":"Arnhem Centraal","coordinate":{"lat":51.9850006103516,"lng":5.89916658401489},"countryCode":"NL"},{"uicCode":"8400227","stationCode":"AHZ","name":"Arnhem Zuid","coordinate":{"lat":51.9550018310547,"lng":5.85194444656372},"countryCode":"NL"},{"uicCode":"8400207","stationCode":"EST","name":"Elst","coordinate":{"lat":51.9169425964355,"lng":5.85500001907349},"countryCode":"NL"},{"uicCode":"8400734","stationCode":"ZA","name":"Zetten-Andelst","coordinate":{"lat":51.920056,"lng":5.7228408},"countryCode":"NL"},{"uicCode":"8400315","stationCode":"HMN","name":"Hemmen-Dodewaard","coordinate":{"lat":51.9222129,"lng":5.6737254},"countryCode":"NL"},{"uicCode":"8400494","stationCode":"OP","name":"Opheusden","coordinate":{"lat":51.9261615,"lng":5.6371145},"countryCode":"NL"},{"uicCode":"8400359","stationCode":"KTR","name":"Kesteren","coordinate":{"lat":51.9313869,"lng":5.5833465},"countryCode":"NL"},{"uicCode":"8400596","stationCode":"TL","name":"Tiel","coordinate":{"lat":51.8894462585449,"lng":5.42222213745117},"countryCode":"NL"}],"direction":"ONE_WAY"},"description":"geen stoptreinen","level":"LESS_TRAINS"},"sectionType":"NL"}],"timespans":[{"start":"2023-02-27T19:37:19+0100","end":"2023-02-28T09:44:01+0100","situation":{"label":"Tussen Arnhem Centraal en Tiel rijden er geen stoptreinen door een staking bij Arriva."},"cause":{"label":"Staking Arriva"},"advices":[]}],"alternativeTransportTimespans":[]},{"id":"6021904","type":"DISRUPTION","registrationTime":"2023-02-28T07:18:10+0100","releaseTime":"2023-02-28T07:18:10+0100","local":false,"title":"Arnhem-Winterswijk","titleSections":[[{"type":"STATION","value":"Arnhem C."},{"type":"ICON","value":"DISRUPTION"},{"type":"STATION","value":"Doetinchem"},{"type":"ICON","value":"DISRUPTION"},{"type":"STATION","value":"Winterswijk"}]],"topic":"disruption_6021904_nl","isActive":true,"start":"2023-02-27T19:37:19+0100","end":"2023-02-28T09:48:10+0100","phase":{"id":"2","label":"Impact bekend"},"impact":{"value":1},"expectedDuration":{"description":"Dit duurt de rest van de dag."},"publicationSections":[{"section":{"stations":[{"uicCode":"8400071","stationCode":"AH","name":"Arnhem Centraal","coordinate":{"lat":51.9850006103516,"lng":5.89916658401489},"countryCode":"NL"},{"uicCode":"8400072","stationCode":"AHP","name":"Arnhem Velperpoort","coordinate":{"lat":51.985279083252,"lng":5.91944456100464},"countryCode":"NL"},{"uicCode":"8400688","stationCode":"WTV","name":"Westervoort","coordinate":{"lat":51.96286,"lng":5.9695},"countryCode":"NL"},{"uicCode":"8400193","stationCode":"DVN","name":"Duiven","coordinate":{"lat":51.9433326721191,"lng":6.01472234725952},"countryCode":"NL"},{"uicCode":"8400735","stationCode":"ZV","name":"Zevenaar","coordinate":{"lat":51.9230537414551,"lng":6.07194423675537},"countryCode":"NL"},{"uicCode":"8400174","stationCode":"DID","name":"Didam","coordinate":{"lat":51.933502,"lng":6.1324106},"countryCode":"NL"},{"uicCode":"8400686","stationCode":"WL","name":"Wehl","coordinate":{"lat":51.9578065,"lng":6.213844},"countryCode":"NL"},{"uicCode":"8400184","stationCode":"DTCH","name":"Doetinchem De Huet","coordinate":{"lat":51.9591413,"lng":6.2598521},"countryCode":"NL"},{"uicCode":"8400177","stationCode":"DTC","name":"Doetinchem","coordinate":{"lat":51.9585962,"lng":6.2962148},"countryCode":"NL"},{"uicCode":"8400241","stationCode":"GDR","name":"Gaanderen","coordinate":{"lat":51.93074,"lng":6.3486},"countryCode":"NL"},{"uicCode":"8400592","stationCode":"TBG","name":"Terborg","coordinate":{"lat":51.9224549,"lng":6.3642466},"countryCode":"NL"},{"uicCode":"8400635","stationCode":"VSV","name":"Varsseveld","coordinate":{"lat":51.937257,"lng":6.458839},"countryCode":"NL"},{"uicCode":"8400045","stationCode":"ATN","name":"Aalten","coordinate":{"lat":51.9213265245505,"lng":6.57862722873687},"countryCode":"NL"},{"uicCode":"8400698","stationCode":"WW","name":"Winterswijk","coordinate":{"lat":51.9677307,"lng":6.7155181},"countryCode":"NL"}],"direction":"BOTH"},"consequence":{"section":{"stations":[{"uicCode":"8400071","stationCode":"AH","name":"Arnhem Centraal","coordinate":{"lat":51.9850006103516,"lng":5.89916658401489},"countryCode":"NL"},{"uicCode":"8400072","stationCode":"AHP","name":"Arnhem Velperpoort","coordinate":{"lat":51.985279083252,"lng":5.91944456100464},"countryCode":"NL"},{"uicCode":"8400688","stationCode":"WTV","name":"Westervoort","coordinate":{"lat":51.96286,"lng":5.9695},"countryCode":"NL"},{"uicCode":"8400193","stationCode":"DVN","name":"Duiven","coordinate":{"lat":51.9433326721191,"lng":6.01472234725952},"countryCode":"NL"},{"uicCode":"8400735","stationCode":"ZV","name":"Zevenaar","coordinate":{"lat":51.9230537414551,"lng":6.07194423675537},"countryCode":"NL"},{"uicCode":"8400174","stationCode":"DID","name":"Didam","coordinate":{"lat":51.933502,"lng":6.1324106},"countryCode":"NL"},{"uicCode":"8400686","stationCode":"WL","name":"Wehl","coordinate":{"lat":51.9578065,"lng":6.213844},"countryCode":"NL"},{"uicCode":"8400184","stationCode":"DTCH","name":"Doetinchem De Huet","coordinate":{"lat":51.9591413,"lng":6.2598521},"countryCode":"NL"},{"uicCode":"8400177","stationCode":"DTC","name":"Doetinchem","coordinate":{"lat":51.9585962,"lng":6.2962148},"countryCode":"NL"}],"direction":"ONE_WAY"},"description":"veel minder treinen","level":"NO_OR_MUCH_LESS_TRAINS"},"sectionType":"NL"},{"section":{"stations":[{"uicCode":"8400071","stationCode":"AH","name":"Arnhem Centraal","coordinate":{"lat":51.9850006103516,"lng":5.89916658401489},"countryCode":"NL"},{"uicCode":"8400072","stationCode":"AHP","name":"Arnhem Velperpoort","coordinate":{"lat":51.985279083252,"lng":5.91944456100464},"countryCode":"NL"},{"uicCode":"8400688","stationCode":"WTV","name":"Westervoort","coordinate":{"lat":51.96286,"lng":5.9695},"countryCode":"NL"},{"uicCode":"8400193","stationCode":"DVN","name":"Duiven","coordinate":{"lat":51.9433326721191,"lng":6.01472234725952},"countryCode":"NL"},{"uicCode":"8400735","stationCode":"ZV","name":"Zevenaar","coordinate":{"lat":51.9230537414551,"lng":6.07194423675537},"countryCode":"NL"},{"uicCode":"8400174","stationCode":"DID","name":"Didam","coordinate":{"lat":51.933502,"lng":6.1324106},"countryCode":"NL"},{"uicCode":"8400686","stationCode":"WL","name":"Wehl","coordinate":{"lat":51.9578065,"lng":6.213844},"countryCode":"NL"},{"uicCode":"8400184","stationCode":"DTCH","name":"Doetinchem De Huet","coordinate":{"lat":51.9591413,"lng":6.2598521},"countryCode":"NL"},{"uicCode":"8400177","stationCode":"DTC","name":"Doetinchem","coordinate":{"lat":51.9585962,"lng":6.2962148},"countryCode":"NL"},{"uicCode":"8400241","stationCode":"GDR","name":"Gaanderen","coordinate":{"lat":51.93074,"lng":6.3486},"countryCode":"NL"},{"uicCode":"8400592","stationCode":"TBG","name":"Terborg","coordinate":{"lat":51.9224549,"lng":6.3642466},"countryCode":"NL"},{"uicCode":"8400635","stationCode":"VSV","name":"Varsseveld","coordinate":{"lat":51.937257,"lng":6.458839},"countryCode":"NL"},{"uicCode":"8400045","stationCode":"ATN","name":"Aalten","coordinate":{"lat":51.9213265245505,"lng":6.57862722873687},"countryCode":"NL"},{"uicCode":"8400698","stationCode":"WW","name":"Winterswijk","coordinate":{"lat":51.9677307,"lng":6.7155181},"countryCode":"NL"}],"direction":"BOTH"},"consequence":{"section":{"stations":[{"uicCode":"8400177","stationCode":"DTC","name":"Doetinchem","coordinate":{"lat":51.9585962,"lng":6.2962148},"countryCode":"NL"},{"uicCode":"8400241","stationCode":"GDR","name":"Gaanderen","coordinate":{"lat":51.93074,"lng":6.3486},"countryCode":"NL"},{"uicCode":"8400592","stationCode":"TBG","name":"Terborg","coordinate":{"lat":51.9224549,"lng":6.3642466},"countryCode":"NL"},{"uicCode":"8400635","stationCode":"VSV","name":"Varsseveld","coordinate":{"lat":51.937257,"lng":6.458839},"countryCode":"NL"},{"uicCode":"8400045","stationCode":"ATN","name":"Aalten","coordinate":{"lat":51.9213265245505,"lng":6.57862722873687},"countryCode":"NL"},{"uicCode":"8400698","stationCode":"WW","name":"Winterswijk","coordinate":{"lat":51.9677307,"lng":6.7155181},"countryCode":"NL"}],"direction":"ONE_WAY"},"description":"geen treinen","level":"NO_OR_MUCH_LESS_TRAINS"},"sectionType":"NL"}],"timespans":[{"start":"2023-02-27T19:37:19+0100","end":"2023-02-28T09:48:10+0100","situation":{"label":"Tussen Arnhem Centraal en Doetinchem rijden er veel minder treinen en tussen Doetinchem en Winterswijk rijden er geen treinen door een staking bij Arriva."},"cause":{"label":"Staking Arriva"},"advices":[]}],"alternativeTransportTimespans":[]},{"id":"6021907","type":"DISRUPTION","registrationTime":"2023-02-28T07:14:34+0100","releaseTime":"2023-02-28T07:14:34+0100","local":false,"title":"Nijmegen-Roermond","titleSections":[[{"type":"STATION","value":"Nijmegen"},{"type":"ICON","value":"DISRUPTION"},{"type":"STATION","value":"Roermond"}]],"topic":"disruption_6021907_nl","isActive":true,"start":"2023-02-27T19:39:18+0100","end":"2023-02-28T09:44:34+0100","phase":{"id":"2","label":"Impact bekend"},"impact":{"value":1},"expectedDuration":{"description":"Dit duurt de rest van de dag."},"publicationSections":[{"section":{"stations":[{"uicCode":"8400470","stationCode":"NM","name":"Nijmegen","coordinate":{"lat":51.8436126708984,"lng":5.85222244262695},"countryCode":"NL"},{"uicCode":"8400468","stationCode":"NMH","name":"Nijmegen Heyendaal","coordinate":{"lat":51.8269462585449,"lng":5.86749982833862},"countryCode":"NL"},{"uicCode":"8400446","stationCode":"MMLH","name":"Mook-Molenhoek","coordinate":{"lat":51.766262,"lng":5.879133},"countryCode":"NL"},{"uicCode":"8400155","stationCode":"CK","name":"Cuijk","coordinate":{"lat":51.7266825879048,"lng":5.87429523468017},"countryCode":"NL"},{"uicCode":"8400128","stationCode":"BMR","name":"Boxmeer","coordinate":{"lat":51.6445217676531,"lng":5.93903303146362},"countryCode":"NL"},{"uicCode":"8400647","stationCode":"VLB","name":"Vierlingsbeek","coordinate":{"lat":51.59193,"lng":5.99714},"countryCode":"NL"},{"uicCode":"8400646","stationCode":"VRY","name":"Venray","coordinate":{"lat":51.526568099007,"lng":6.01417779922485},"countryCode":"NL"},{"uicCode":"8400117","stationCode":"BR","name":"Blerick","coordinate":{"lat":51.372501373291,"lng":6.15500020980835},"countryCode":"NL"},{"uicCode":"8400644","stationCode":"VL","name":"Venlo","coordinate":{"lat":51.3636093139648,"lng":6.17277765274048},"countryCode":"NL"},{"uicCode":"8400591","stationCode":"TG","name":"Tegelen","coordinate":{"lat":51.33894,"lng":6.14253},"countryCode":"NL"},{"uicCode":"8400518","stationCode":"RV","name":"Reuver","coordinate":{"lat":51.2832191665301,"lng":6.07895851135253},"countryCode":"NL"},{"uicCode":"8400583","stationCode":"SM","name":"Swalmen","coordinate":{"lat":51.23582,"lng":6.03228},"countryCode":"NL"},{"uicCode":"8400523","stationCode":"RM","name":"Roermond","coordinate":{"lat":51.1930541992188,"lng":5.9941668510437},"countryCode":"NL"}],"direction":"BOTH"},"consequence":{"section":{"stations":[{"uicCode":"8400470","stationCode":"NM","name":"Nijmegen","coordinate":{"lat":51.8436126708984,"lng":5.85222244262695},"countryCode":"NL"},{"uicCode":"8400468","stationCode":"NMH","name":"Nijmegen Heyendaal","coordinate":{"lat":51.8269462585449,"lng":5.86749982833862},"countryCode":"NL"},{"uicCode":"8400446","stationCode":"MMLH","name":"Mook-Molenhoek","coordinate":{"lat":51.766262,"lng":5.879133},"countryCode":"NL"},{"uicCode":"8400155","stationCode":"CK","name":"Cuijk","coordinate":{"lat":51.7266825879048,"lng":5.87429523468017},"countryCode":"NL"},{"uicCode":"8400128","stationCode":"BMR","name":"Boxmeer","coordinate":{"lat":51.6445217676531,"lng":5.93903303146362},"countryCode":"NL"},{"uicCode":"8400647","stationCode":"VLB","name":"Vierlingsbeek","coordinate":{"lat":51.59193,"lng":5.99714},"countryCode":"NL"},{"uicCode":"8400646","stationCode":"VRY","name":"Venray","coordinate":{"lat":51.526568099007,"lng":6.01417779922485},"countryCode":"NL"},{"uicCode":"8400117","stationCode":"BR","name":"Blerick","coordinate":{"lat":51.372501373291,"lng":6.15500020980835},"countryCode":"NL"},{"uicCode":"8400644","stationCode":"VL","name":"Venlo","coordinate":{"lat":51.3636093139648,"lng":6.17277765274048},"countryCode":"NL"},{"uicCode":"8400591","stationCode":"TG","name":"Tegelen","coordinate":{"lat":51.33894,"lng":6.14253},"countryCode":"NL"},{"uicCode":"8400518","stationCode":"RV","name":"Reuver","coordinate":{"lat":51.2832191665301,"lng":6.07895851135253},"countryCode":"NL"},{"uicCode":"8400583","stationCode":"SM","name":"Swalmen","coordinate":{"lat":51.23582,"lng":6.03228},"countryCode":"NL"},{"uicCode":"8400523","stationCode":"RM","name":"Roermond","coordinate":{"lat":51.1930541992188,"lng":5.9941668510437},"countryCode":"NL"}],"direction":"ONE_WAY"},"description":"geen treinen","level":"NO_OR_MUCH_LESS_TRAINS"},"sectionType":"NL"}],"timespans":[{"start":"2023-02-27T19:39:18+0100","end":"2023-02-28T09:44:34+0100","situation":{"label":"Tussen Nijmegen en Roermond rijden er geen treinen door een staking bij Arriva."},"cause":{"label":"Staking Arriva"},"advices":[]}],"alternativeTransportTimespans":[]},{"id":"6021906","type":"DISRUPTION","registrationTime":"2023-02-28T07:15:35+0100","releaseTime":"2023-02-28T07:15:35+0100","local":false,"title":"Roermond-Maastricht-Maastricht Randwyck","titleSections":[[{"type":"STATION","value":"Roermond"},{"type":"ICON","value":"DISRUPTION"},{"type":"STATION","value":"Maastricht"},{"type":"STATION","value":"Randwyck"}]],"topic":"disruption_6021906_nl","isActive":true,"start":"2023-02-27T19:39:18+0100","end":"2023-02-28T09:45:35+0100","phase":{"id":"2","label":"Impact bekend"},"impact":{"value":1},"expectedDuration":{"description":"Dit duurt de rest van de dag."},"summaryAdditionalTravelTime":{"label":"De extra reistijd is meer dan 60 minuten.","shortLabel":"Extra reistijd meer dan 60 min.","minimumDurationInMinutes":60},"publicationSections":[{"section":{"stations":[{"uicCode":"8400523","stationCode":"RM","name":"Roermond","coordinate":{"lat":51.1930541992188,"lng":5.9941668510437},"countryCode":"NL"},{"uicCode":"8400195","stationCode":"EC","name":"Echt","coordinate":{"lat":51.1005554199219,"lng":5.87888908386231},"countryCode":"NL"},{"uicCode":"8400582","stationCode":"SRN","name":"Susteren","coordinate":{"lat":51.0613899230957,"lng":5.86305570602417},"countryCode":"NL"},{"uicCode":"8400564","stationCode":"STD","name":"Sittard","coordinate":{"lat":51.0016670227051,"lng":5.85861110687256},"countryCode":"NL"},{"uicCode":"8400248","stationCode":"LUT","name":"Geleen-Lutterade","coordinate":{"lat":50.9755554199219,"lng":5.82472229003906},"countryCode":"NL"},{"uicCode":"8400096","stationCode":"BK","name":"Beek-Elsloo","coordinate":{"lat":50.9474983215332,"lng":5.78666687011719},"countryCode":"NL"},{"uicCode":"8400140","stationCode":"BDE","name":"Bunde","coordinate":{"lat":50.8969459533691,"lng":5.73666667938232},"countryCode":"NL"},{"uicCode":"8400424","stationCode":"MT","name":"Maastricht","coordinate":{"lat":50.8502769470215,"lng":5.70555543899536},"countryCode":"NL"},{"uicCode":"8400426","stationCode":"MTR","name":"Maastricht Randwyck","coordinate":{"lat":50.8386116027832,"lng":5.71722221374512},"countryCode":"NL"}],"direction":"BOTH"},"consequence":{"section":{"stations":[{"uicCode":"8400523","stationCode":"RM","name":"Roermond","coordinate":{"lat":51.1930541992188,"lng":5.9941668510437},"countryCode":"NL"},{"uicCode":"8400195","stationCode":"EC","name":"Echt","coordinate":{"lat":51.1005554199219,"lng":5.87888908386231},"countryCode":"NL"},{"uicCode":"8400582","stationCode":"SRN","name":"Susteren","coordinate":{"lat":51.0613899230957,"lng":5.86305570602417},"countryCode":"NL"},{"uicCode":"8400564","stationCode":"STD","name":"Sittard","coordinate":{"lat":51.0016670227051,"lng":5.85861110687256},"countryCode":"NL"},{"uicCode":"8400248","stationCode":"LUT","name":"Geleen-Lutterade","coordinate":{"lat":50.9755554199219,"lng":5.82472229003906},"countryCode":"NL"},{"uicCode":"8400096","stationCode":"BK","name":"Beek-Elsloo","coordinate":{"lat":50.9474983215332,"lng":5.78666687011719},"countryCode":"NL"},{"uicCode":"8400140","stationCode":"BDE","name":"Bunde","coordinate":{"lat":50.8969459533691,"lng":5.73666667938232},"countryCode":"NL"},{"uicCode":"8400424","stationCode":"MT","name":"Maastricht","coordinate":{"lat":50.8502769470215,"lng":5.70555543899536},"countryCode":"NL"}],"direction":"ONE_WAY"},"description":"geen stoptreinen","level":"LESS_TRAINS"},"sectionType":"NL"}],"timespans":[{"start":"2023-02-27T19:39:18+0100","end":"2023-02-28T09:45:35+0100","situation":{"label":"Tussen Roermond en Maastricht rijden er geen stoptreinen door een staking bij Arriva."},"cause":{"label":"Staking Arriva"},"additionalTravelTime":{"label":"De extra reistijd is meer dan 60 minuten.","shortLabel":"Extra reistijd meer dan 60 min.","minimumDurationInMinutes":60},"advices":[]}],"alternativeTransportTimespans":[]},{"id":"6021905","type":"DISRUPTION","registrationTime":"2023-02-28T07:16:00+0100","releaseTime":"2023-02-28T07:16:00+0100","local":false,"title":"Heerlen","titleSections":[[{"type":"STATION","value":"Heerlen"}]],"topic":"disruption_6021905_nl","isActive":true,"start":"2023-02-27T19:39:18+0100","end":"2023-02-28T09:46:00+0100","phase":{"id":"2","label":"Impact bekend"},"impact":{"value":1},"expectedDuration":{"description":"Dit duurt de rest van de dag."},"publicationSections":[{"section":{"stations":[{"uicCode":"8400564","stationCode":"STD","name":"Sittard","coordinate":{"lat":51.0016670227051,"lng":5.85861110687256},"countryCode":"NL"},{"uicCode":"8400246","stationCode":"GLN","name":"Geleen Oost","coordinate":{"lat":50.9669456481934,"lng":5.84305572509766},"countryCode":"NL"},{"uicCode":"8400572","stationCode":"SBK","name":"Spaubeek","coordinate":{"lat":50.94327,"lng":5.850529},"countryCode":"NL"},{"uicCode":"8400554","stationCode":"SN","name":"Schinnen","coordinate":{"lat":50.9391670227051,"lng":5.87444448471069},"countryCode":"NL"},{"uicCode":"8400467","stationCode":"NH","name":"Nuth","coordinate":{"lat":50.9194450378418,"lng":5.89277791976929},"countryCode":"NL"},{"uicCode":"8400326","stationCode":"HB","name":"Hoensbroek","coordinate":{"lat":50.9055557250977,"lng":5.93055534362793},"countryCode":"NL"},{"uicCode":"8400307","stationCode":"HRL","name":"Heerlen","coordinate":{"lat":50.8908348083496,"lng":5.97499990463257},"countryCode":"NL"}],"direction":"BOTH"},"consequence":{"section":{"stations":[{"uicCode":"8400307","stationCode":"HRL","name":"Heerlen","coordinate":{"lat":50.8908348083496,"lng":5.97499990463257},"countryCode":"NL"}],"direction":"ONE_WAY"},"description":"geen stoptreinen","level":"LESS_TRAINS"},"sectionType":"NL"},{"section":{"stations":[{"uicCode":"8400307","stationCode":"HRL","name":"Heerlen","coordinate":{"lat":50.8908348083496,"lng":5.97499990463257},"countryCode":"NL"},{"uicCode":"8400548","stationCode":"LG","name":"Landgraaf","coordinate":{"lat":50.8963890075684,"lng":6.01916646957398},"countryCode":"NL"},{"uicCode":"8400234","stationCode":"EGHM","name":"Eygelshoven Markt","coordinate":{"lat":50.8960498196442,"lng":6.0602474212646396},"countryCode":"NL"},{"uicCode":"8015190","stationCode":"HZ","name":"Herzogenrath","coordinate":{"lat":50.870916,"lng":6.094486},"countryCode":"D"},{"uicCode":"8015345","stationCode":"AHBF","name":"Aachen Hbf","coordinate":{"lat":50.7678,"lng":6.091499},"countryCode":"D"}],"direction":"BOTH"},"consequence":{"section":{"stations":[{"uicCode":"8400307","stationCode":"HRL","name":"Heerlen","coordinate":{"lat":50.8908348083496,"lng":5.97499990463257},"countryCode":"NL"}],"direction":"ONE_WAY"},"description":"geen stoptreinen","level":"LESS_TRAINS"},"sectionType":"NL"},{"section":{"stations":[{"uicCode":"8400307","stationCode":"HRL","name":"Heerlen","coordinate":{"lat":50.8908348083496,"lng":5.97499990463257},"countryCode":"NL"},{"uicCode":"8400548","stationCode":"LG","name":"Landgraaf","coordinate":{"lat":50.8963890075684,"lng":6.01916646957398},"countryCode":"NL"},{"uicCode":"8400338","stationCode":"EGH","name":"Eygelshoven","coordinate":{"lat":50.8905563354492,"lng":6.04500007629395},"countryCode":"NL"},{"uicCode":"8400152","stationCode":"CVM","name":"Chevremont","coordinate":{"lat":50.8761100769043,"lng":6.05972242355347},"countryCode":"NL"},{"uicCode":"8400355","stationCode":"KRD","name":"Kerkrade Centrum","coordinate":{"lat":50.8616676330566,"lng":6.05749988555908},"countryCode":"NL"}],"direction":"BOTH"},"consequence":{"section":{"stations":[{"uicCode":"8400307","stationCode":"HRL","name":"Heerlen","coordinate":{"lat":50.8908348083496,"lng":5.97499990463257},"countryCode":"NL"}],"direction":"ONE_WAY"},"description":"geen stoptreinen","level":"LESS_TRAINS"},"sectionType":"NL"},{"section":{"stations":[{"uicCode":"8400307","stationCode":"HRL","name":"Heerlen","coordinate":{"lat":50.8908348083496,"lng":5.97499990463257},"countryCode":"NL"},{"uicCode":"8400404","stationCode":"HRLW","name":"Heerlen Woonboulevard","coordinate":{"lat":50.896667,"lng":5.952222},"countryCode":"NL"},{"uicCode":"8400656","stationCode":"VDL","name":"Voerendaal","coordinate":{"lat":50.8872222900391,"lng":5.93027782440186},"countryCode":"NL"},{"uicCode":"8400362","stationCode":"KMR","name":"Klimmen-Ransdaal","coordinate":{"lat":50.8663902282715,"lng":5.8905553817749},"countryCode":"NL"},{"uicCode":"8400555","stationCode":"SOG","name":"Schin op Geul","coordinate":{"lat":50.856388092041,"lng":5.87222242355347},"countryCode":"NL"},{"uicCode":"8400632","stationCode":"VK","name":"Valkenburg","coordinate":{"lat":50.8697204589844,"lng":5.83222198486328},"countryCode":"NL"},{"uicCode":"8400341","stationCode":"SGL","name":"Houthem-St. Gerlach","coordinate":{"lat":50.8733329772949,"lng":5.79722213745117},"countryCode":"NL"},{"uicCode":"8400434","stationCode":"MES","name":"Meerssen","coordinate":{"lat":50.882879392551,"lng":5.75099945068359},"countryCode":"NL"},{"uicCode":"8400449","stationCode":"MTN","name":"Maastricht Noord","coordinate":{"lat":50.87087,"lng":5.71774},"countryCode":"NL"},{"uicCode":"8400424","stationCode":"MT","name":"Maastricht","coordinate":{"lat":50.8502769470215,"lng":5.70555543899536},"countryCode":"NL"}],"direction":"BOTH"},"consequence":{"section":{"stations":[{"uicCode":"8400307","stationCode":"HRL","name":"Heerlen","coordinate":{"lat":50.8908348083496,"lng":5.97499990463257},"countryCode":"NL"}],"direction":"ONE_WAY"},"description":"geen stoptreinen","level":"LESS_TRAINS"},"sectionType":"NL"}],"timespans":[{"start":"2023-02-27T19:39:18+0100","end":"2023-02-28T09:46:00+0100","situation":{"label":"Van en naar Heerlen rijden er geen stoptreinen door een staking bij Arriva."},"cause":{"label":"Staking Arriva"},"advices":[]}],"alternativeTransportTimespans":[]},{"id":"6021910","type":"DISRUPTION","registrationTime":"2023-02-28T07:10:59+0100","releaseTime":"2023-02-28T07:10:59+0100","local":false,"title":"Hengelo-Bielefeld","titleSections":[[{"type":"STATION","value":"Hengelo"},{"type":"ICON","value":"DISRUPTION"},{"type":"STATION","value":"Rheine"},{"type":"STATION","value":"Bielefeld Hbf"}]],"topic":"disruption_6021910_nl","isActive":true,"start":"2023-02-27T21:17:47+0100","end":"2023-02-28T09:40:59+0100","phase":{"id":"3","label":"Vervangend vervoer"},"impact":{"value":1},"expectedDuration":{"description":"Dit duurt de rest van de dag."},"summaryAdditionalTravelTime":{"label":"De extra reistijd kan oplopen tot 60 minuten.","shortLabel":"Extra reistijd tot 60 min.","maximumDurationInMinutes":60},"publicationSections":[{"section":{"stations":[{"uicCode":"8400316","stationCode":"HGL","name":"Hengelo","coordinate":{"lat":52.2616653442383,"lng":6.79388904571533},"countryCode":"NL"},{"uicCode":"8400312","stationCode":"HGLO","name":"Hengelo Oost","coordinate":{"lat":52.2688903808594,"lng":6.81944465637207},"countryCode":"NL"},{"uicCode":"8400483","stationCode":"ODZ","name":"Oldenzaal","coordinate":{"lat":52.3063888549805,"lng":6.93472242355347},"countryCode":"NL"},{"uicCode":"8021156","stationCode":"BH","name":"Bad Bentheim","coordinate":{"lat":52.309685595156,"lng":7.15853691101074},"countryCode":"D"},{"uicCode":"8021067","stationCode":"RHEINE","name":"Rheine","coordinate":{"lat":52.276299,"lng":7.434255},"countryCode":"D"},{"uicCode":"8021025","stationCode":"OSNH","name":"Osnabrück Hbf","coordinate":{"lat":52.272851,"lng":8.061781},"countryCode":"D"},{"uicCode":"8021173","stationCode":"BUENDE","name":"Bünde (Westf)","coordinate":{"lat":52.202075,"lng":8.573876},"countryCode":"D"},{"uicCode":"8013597","stationCode":"BIELEF","name":"Bielefeld Hbf","coordinate":{"lat":52.029261,"lng":8.532722},"countryCode":"D"}],"direction":"BOTH"},"consequence":{"section":{"stations":[{"uicCode":"8400316","stationCode":"HGL","name":"Hengelo","coordinate":{"lat":52.2616653442383,"lng":6.79388904571533},"countryCode":"NL"},{"uicCode":"8400312","stationCode":"HGLO","name":"Hengelo Oost","coordinate":{"lat":52.2688903808594,"lng":6.81944465637207},"countryCode":"NL"},{"uicCode":"8400483","stationCode":"ODZ","name":"Oldenzaal","coordinate":{"lat":52.3063888549805,"lng":6.93472242355347},"countryCode":"NL"},{"uicCode":"8021156","stationCode":"BH","name":"Bad Bentheim","coordinate":{"lat":52.309685595156,"lng":7.15853691101074},"countryCode":"D"},{"uicCode":"8021067","stationCode":"RHEINE","name":"Rheine","coordinate":{"lat":52.276299,"lng":7.434255},"countryCode":"D"}],"direction":"ONE_WAY"},"description":"minder stoptreinen","level":"LESS_TRAINS"},"sectionType":"NEIGHBORING_COUNTRY"}],"timespans":[{"start":"2023-02-27T21:17:47+0100","end":"2023-02-28T09:40:59+0100","situation":{"label":"Tussen Hengelo en Rheine rijden er minder stoptreinen door een staking bij Keolis."},"cause":{"label":"Staking Keolis"},"additionalTravelTime":{"label":"De extra reistijd kan oplopen tot 60 minuten.","shortLabel":"Extra reistijd tot 60 min.","maximumDurationInMinutes":60},"alternativeTransport":{"label":"Er rijden ook stopbussen.","shortLabel":"Er rijden ook stopbussen"},"advices":[]}],"alternativeTransportTimespans":[{"start":"2023-02-27T21:17:47+0100","end":"2023-02-28T09:40:59+0100","alternativeTransport":{"location":[{"station":{"uicCode":"8400316","stationCode":"HGL","name":"Hengelo","coordinate":{"lat":52.2616653442383,"lng":6.79388904571533},"countryCode":"NL"},"description":"vanaf de voorzijde van het station"},{"station":{"uicCode":"8400483","stationCode":"ODZ","name":"Oldenzaal","coordinate":{"lat":52.3063888549805,"lng":6.93472242355347},"countryCode":"NL"},"description":"vanaf de voorzijde van het station"}],"label":"Er rijden ook stopbussen tussen Hengelo, Oldenzaal en Bad Bentheim.","shortLabel":"Er rijden ook stopbussen: Hengelo, Oldenzaal, Bad Bentheim"}}]},{"id":"6021915","type":"DISRUPTION","registrationTime":"2023-02-28T08:09:33+0100","releaseTime":"2023-02-28T08:09:33+0100","local":false,"title":"Breukelen-Rotterdam","titleSections":[[{"type":"STATION","value":"Breukelen"},{"type":"STATION","value":"Woerden"},{"type":"ICON","value":"DISRUPTION"},{"type":"STATION","value":"Goverwelle"},{"type":"STATION","value":"Rotterdam C."}]],"topic":"disruption_6021915_nl","isActive":true,"start":"2023-02-28T08:07:22+0100","end":"2023-02-28T11:00:00+0100","phase":{"id":"1b","label":"Gevolgen bekend"},"impact":{"value":2},"expectedDuration":{"description":"De treinen rijden weer normaal rond 11:00 uur.","endTime":"2023-02-28T11:00:00+0100"},"publicationSections":[{"section":{"stations":[{"uicCode":"8400133","stationCode":"BKL","name":"Breukelen","coordinate":{"lat":52.17149,"lng":4.9906},"countryCode":"NL"},{"uicCode":"8400702","stationCode":"WD","name":"Woerden","coordinate":{"lat":52.0849990844727,"lng":4.89361095428467},"countryCode":"NL"},{"uicCode":"8400257","stationCode":"GDG","name":"Gouda Goverwelle","coordinate":{"lat":52.0149993896484,"lng":4.7408332824707},"countryCode":"NL"},{"uicCode":"8400258","stationCode":"GD","name":"Gouda","coordinate":{"lat":52.0175018310547,"lng":4.70444440841675},"countryCode":"NL"},{"uicCode":"8400455","stationCode":"NWK","name":"Nieuwerkerk a/d IJssel","coordinate":{"lat":51.9652786254883,"lng":4.61694431304932},"countryCode":"NL"},{"uicCode":"8400147","stationCode":"CPS","name":"Capelle Schollevaar","coordinate":{"lat":51.9541664123535,"lng":4.58416652679443},"countryCode":"NL"},{"uicCode":"8400507","stationCode":"RTA","name":"Rotterdam Alexander","coordinate":{"lat":51.9519462585449,"lng":4.55361127853394},"countryCode":"NL"},{"uicCode":"8400531","stationCode":"RTN","name":"Rotterdam Noord","coordinate":{"lat":51.9422225952148,"lng":4.48166656494141},"countryCode":"NL"},{"uicCode":"8400530","stationCode":"RTD","name":"Rotterdam Centraal","coordinate":{"lat":51.9249992370605,"lng":4.46888875961304},"countryCode":"NL"}],"direction":"BOTH"},"consequence":{"section":{"stations":[{"uicCode":"8400702","stationCode":"WD","name":"Woerden","coordinate":{"lat":52.0849990844727,"lng":4.89361095428467},"countryCode":"NL"},{"uicCode":"8400257","stationCode":"GDG","name":"Gouda Goverwelle","coordinate":{"lat":52.0149993896484,"lng":4.7408332824707},"countryCode":"NL"}],"direction":"ONE_WAY"},"description":"later vandaag hinder in de treindienst","level":"NO_OR_MUCH_LESS_TRAINS"},"sectionType":"NL"}],"timespans":[{"start":"2023-02-28T08:07:22+0100","end":"2023-02-28T11:00:00+0100","situation":{"label":"Tussen Woerden en Gouda Goverwelle is er later vandaag hinder in de treindienst door herstelwerkzaamheden."},"cause":{"label":"Herstelwerkzaamheden"},"advices":["Na 10 uur minder Sprinters."]}],"alternativeTransportTimespans":[]},{"id":"15d5d288-c2c8-4840-b55e-c2c5b3b4e433","title":"Komende tijd stakingen aangekondigd in het regionaal vervoer","topic":"disruption_15d5d288-c2c8-4840-b55e-c2c5b3b4e433_nl","description":"Voor de periode van 28 februari tot en met 7 april zijn stakingen aangekondigd in het regionaal vervoer. Dit kan gevolgen hebben voor je reis. We raden je aan om de website van de vervoerder in de gaten te houden voor meer informatie. NS-treinen blijven volgens dienstregeling rijden.\r\n\r\nHet kan zijn dat de gevolgen voor de dienstregelingen pas op de dag zelf bekend worden. Plan je reis kort voor vertrek.","priority":"PRIO_3","lastUpdated":"2023-02-27T16:01:00+0100","bodyItems":[{"content":{"text":"<p>Het gaat om de volgende data:</p>\n\n<p>Dinsdag 28 februari<br />\nDonderdag 2 maart</p>\n\n<p>Maandag 6 maart<br />\nWoensdag 8 maart<br />\nVrijdag 10 maart</p>\n\n<p>Dinsdag 14 maart<br />\nWoensdag 15 maart</p>\n\n<p>Maandag 20 maart<br />\nWoensdag 22 maart</p>\n\n<p>Vrijdag 24 maart</p>\n\n<p>Woensdag 29 maart<br />\nDonderdag 30 maart</p>\n\n<p>Maandag 3 april<br />\nWoensdag 5 april<br />\nVrijdag 7 april</p>\n\n<p><a href=\"https://www.arriva.nl/a/staking.htm\" target=\"_blank\">Arriva</a><br />\n<a href=\"https://www.breng.nl/nl/nieuws/aangekondigde-stakingen-openbaar-vervoer\" target=\"_blank\">Breng</a><br />\n<a href=\"https://www.connexxion.nl/nl/nieuws/aangekondigde-stakingen-openbaar-vervoer\" target=\"_blank\">Connexxion</a><br />\n<a href=\"https://www.keolis.nl/staking\" target=\"_blank\">Keolis</a><br />\n<a href=\"https://www.qbuzz.nl/dmg/meer-qbuzz/nieuws/Y_NSthEAAB8A421K/aangekondigde-stakingen-openbaar-vervoer\" target=\"_blank\">Qbuzz</a></p>"},"type":"TEXT"}],"buttons":{"position":["BOTTOM"],"items":[]},"url":"https://www.ns.nl/reisinformatie/calamiteiten/komende-tijd-stakingen-aangekondigd-in-het-regionaal-vervoer.html","type":"CALAMITY","isActive":true},{"id":"7003197","type":"MAINTENANCE","registrationTime":"2023-01-17T11:55:38+0100","releaseTime":"2023-01-17T11:55:38+0100","local":false,"title":"Eindhoven - Weert","titleSections":[[{"type":"STATION","value":"Eindhoven C."},{"type":"ICON","value":"MAINTENANCE"},{"type":"STATION","value":"Weert"}]],"isActive":true,"start":"2023-02-22T04:00:00+0100","end":"2023-03-03T02:00:00+0100","period":"Woensdag 22-02-2023 04:00 uur t/m vrijdag 03-03-2023 02:00 uur.","impact":{"value":5},"summaryAdditionalTravelTime":{"label":"De extra reistijd kan oplopen tot 30 minuten.","shortLabel":"Extra reistijd tot 30 min.","maximumDurationInMinutes":30},"publicationSections":[{"section":{"stations":[{"uicCode":"8400206","stationCode":"EHV","name":"Eindhoven Centraal","coordinate":{"lat":51.4433326721191,"lng":5.48138904571533},"countryCode":"NL"},{"uicCode":"8400245","stationCode":"GP","name":"Geldrop","coordinate":{"lat":51.4197235107422,"lng":5.55055570602417},"countryCode":"NL"},{"uicCode":"8400308","stationCode":"HZE","name":"Heeze","coordinate":{"lat":51.3849983215332,"lng":5.56944465637207},"countryCode":"NL"},{"uicCode":"8400432","stationCode":"MZ","name":"Maarheeze","coordinate":{"lat":51.304986,"lng":5.629796},"countryCode":"NL"},{"uicCode":"8400684","stationCode":"WT","name":"Weert","coordinate":{"lat":51.2486114501953,"lng":5.70361089706421},"countryCode":"NL"}],"direction":"BOTH"},"consequence":{"section":{"stations":[{"uicCode":"8400206","stationCode":"EHV","name":"Eindhoven Centraal","coordinate":{"lat":51.4433326721191,"lng":5.48138904571533},"countryCode":"NL"},{"uicCode":"8400245","stationCode":"GP","name":"Geldrop","coordinate":{"lat":51.4197235107422,"lng":5.55055570602417},"countryCode":"NL"},{"uicCode":"8400308","stationCode":"HZE","name":"Heeze","coordinate":{"lat":51.3849983215332,"lng":5.56944465637207},"countryCode":"NL"},{"uicCode":"8400432","stationCode":"MZ","name":"Maarheeze","coordinate":{"lat":51.304986,"lng":5.629796},"countryCode":"NL"},{"uicCode":"8400684","stationCode":"WT","name":"Weert","coordinate":{"lat":51.2486114501953,"lng":5.70361089706421},"countryCode":"NL"}],"direction":"ONE_WAY"},"description":"rijden bussen","level":"NO_OR_MUCH_LESS_TRAINS"},"sectionType":"NL"}],"timespans":[{"start":"2023-02-22T04:00:00+0100","end":"2023-03-03T02:00:00+0100","period":"Woensdag 22-02-2023 04:00 uur t/m vrijdag 03-03-2023 02:00 uur.","situation":{"label":"Door werkzaamheden: tussen Eindhoven Centraal en Weert rijden er bussen."},"cause":{"label":"Werkzaamheden"},"additionalTravelTime":{"label":"De extra reistijd kan oplopen tot 30 minuten.","shortLabel":"Extra reistijd tot 30 min.","maximumDurationInMinutes":30},"alternativeTransport":{"label":"Er rijden stop- en snelbussen.","shortLabel":"er rijden stop- en snelbussen"},"advices":[]}],"alternativeTransportTimespans":[{"start":"2023-02-22T04:00:00+0100","end":"2023-03-03T02:00:00+0100","alternativeTransport":{"location":[{"station":{"uicCode":"8400206","stationCode":"EHV","name":"Eindhoven Centraal","coordinate":{"lat":51.4433326721191,"lng":5.48138904571533},"countryCode":"NL"},"description":"vanaf het Beursplein, aan de achterzijde van het station"},{"station":{"uicCode":"8400684","stationCode":"WT","name":"Weert","coordinate":{"lat":51.2486114501953,"lng":5.70361089706421},"countryCode":"NL"},"description":"vanaf het Q-park terrein"}],"label":"Er rijden snelbussen tussen Eindhoven Centraal en Weert.","shortLabel":"Er rijden snelbussen Eindhoven C. - Weert"}},{"start":"2023-02-22T04:00:00+0100","end":"2023-03-03T02:00:00+0100","alternativeTransport":{"location":[{"station":{"uicCode":"8400206","stationCode":"EHV","name":"Eindhoven Centraal","coordinate":{"lat":51.4433326721191,"lng":5.48138904571533},"countryCode":"NL"},"description":"vanaf het Beursplein, aan de achterzijde van het station"},{"station":{"uicCode":"8400245","stationCode":"GP","name":"Geldrop","coordinate":{"lat":51.4197235107422,"lng":5.55055570602417},"countryCode":"NL"},"description":"vanaf de achterzijde van het station"},{"station":{"uicCode":"8400308","stationCode":"HZE","name":"Heeze","coordinate":{"lat":51.3849983215332,"lng":5.56944465637207},"countryCode":"NL"},"description":"vanaf de Laarstukken"},{"station":{"uicCode":"8400432","stationCode":"MZ","name":"Maarheeze","coordinate":{"lat":51.304986,"lng":5.629796},"countryCode":"NL"},"description":"vanaf het busstation"},{"station":{"uicCode":"8400684","stationCode":"WT","name":"Weert","coordinate":{"lat":51.2486114501953,"lng":5.70361089706421},"countryCode":"NL"},"description":"vanaf het Q-park terrein"}],"label":"Er rijden stopbussen tussen Eindhoven Centraal, Geldrop, Heeze, Maarheeze en Weert.","shortLabel":"Er rijden stopbussen Eindhoven C. - Geldrop - Heeze - Maarheeze - Weert"}}]},{"id":"7003242","type":"MAINTENANCE","registrationTime":"2023-01-30T10:09:08+0100","releaseTime":"2023-01-30T10:09:08+0100","local":false,"title":"Zwolle - Deventer","titleSections":[[{"type":"STATION","value":"Zwolle"},{"type":"ICON","value":"MAINTENANCE"},{"type":"STATION","value":"Deventer"}]],"isActive":true,"start":"2023-02-25T01:15:00+0100","end":"2023-03-02T02:00:00+0100","period":"Zaterdag 25-02-2023 01:15 uur t/m donderdag 02-03-2023 02:00 uur.","impact":{"value":5},"summaryAdditionalTravelTime":{"label":"De extra reistijd kan oplopen tot 30 minuten.","shortLabel":"Extra reistijd tot 30 min.","maximumDurationInMinutes":30},"publicationSections":[{"section":{"stations":[{"uicCode":"8400747","stationCode":"ZL","name":"Zwolle","coordinate":{"lat":52.5047225952148,"lng":6.09194421768188},"countryCode":"NL"},{"uicCode":"8400711","stationCode":"WH","name":"Wijhe","coordinate":{"lat":52.3902778625488,"lng":6.1405553817749},"countryCode":"NL"},{"uicCode":"8400486","stationCode":"OST","name":"Olst","coordinate":{"lat":52.3347206115723,"lng":6.11305570602417},"countryCode":"NL"},{"uicCode":"8400173","stationCode":"DV","name":"Deventer","coordinate":{"lat":52.2574996948242,"lng":6.16055536270142},"countryCode":"NL"}],"direction":"BOTH"},"consequence":{"section":{"stations":[{"uicCode":"8400747","stationCode":"ZL","name":"Zwolle","coordinate":{"lat":52.5047225952148,"lng":6.09194421768188},"countryCode":"NL"},{"uicCode":"8400711","stationCode":"WH","name":"Wijhe","coordinate":{"lat":52.3902778625488,"lng":6.1405553817749},"countryCode":"NL"},{"uicCode":"8400486","stationCode":"OST","name":"Olst","coordinate":{"lat":52.3347206115723,"lng":6.11305570602417},"countryCode":"NL"},{"uicCode":"8400173","stationCode":"DV","name":"Deventer","coordinate":{"lat":52.2574996948242,"lng":6.16055536270142},"countryCode":"NL"}],"direction":"ONE_WAY"},"description":"rijden bussen","level":"NO_OR_MUCH_LESS_TRAINS"},"sectionType":"NL"}],"timespans":[{"start":"2023-02-25T01:15:00+0100","end":"2023-03-02T02:00:00+0100","period":"Zaterdag 25-02-2023 01:15 uur t/m donderdag 02-03-2023 02:00 uur.","situation":{"label":"Door werkzaamheden: tussen Zwolle en Deventer rijden er bussen."},"cause":{"label":"Werkzaamheden"},"additionalTravelTime":{"label":"De extra reistijd kan oplopen tot 30 minuten.","shortLabel":"Extra reistijd tot 30 min.","maximumDurationInMinutes":30},"alternativeTransport":{"label":"Er rijden stop- en snelbussen.","shortLabel":"er rijden stop- en snelbussen"},"advices":[]}],"alternativeTransportTimespans":[{"start":"2023-02-25T01:15:00+0100","end":"2023-03-02T02:00:00+0100","alternativeTransport":{"location":[{"station":{"uicCode":"8400747","stationCode":"ZL","name":"Zwolle","coordinate":{"lat":52.5047225952148,"lng":6.09194421768188},"countryCode":"NL"},"description":"vanaf de Hanzelaan, aan de zuidzijde van het station"},{"station":{"uicCode":"8400711","stationCode":"WH","name":"Wijhe","coordinate":{"lat":52.3902778625488,"lng":6.1405553817749},"countryCode":"NL"},"description":"vanaf de voorzijde van het station"},{"station":{"uicCode":"8400486","stationCode":"OST","name":"Olst","coordinate":{"lat":52.3347206115723,"lng":6.11305570602417},"countryCode":"NL"},"description":"vanaf de voorzijde van het station"},{"station":{"uicCode":"8400173","stationCode":"DV","name":"Deventer","coordinate":{"lat":52.2574996948242,"lng":6.16055536270142},"countryCode":"NL"},"description":"vanaf de Stationsstraat"}],"label":"Er rijden stopbussen tussen Zwolle, Wijhe, Olst en Deventer.","shortLabel":"Er rijden stopbussen Zwolle - Wijhe - Olst - Deventer"}},{"start":"2023-02-25T01:15:00+0100","end":"2023-03-02T02:00:00+0100","alternativeTransport":{"location":[{"station":{"uicCode":"8400747","stationCode":"ZL","name":"Zwolle","coordinate":{"lat":52.5047225952148,"lng":6.09194421768188},"countryCode":"NL"},"description":"vanaf de Hanzelaan, aan de zuidzijde van het station"},{"station":{"uicCode":"8400173","stationCode":"DV","name":"Deventer","coordinate":{"lat":52.2574996948242,"lng":6.16055536270142},"countryCode":"NL"},"description":"vanaf de Stationsstraat"}],"label":"Er rijden snelbussen tussen Zwolle en Deventer.","shortLabel":"Er rijden snelbussen Zwolle - Deventer"}}]},{"id":"7003202","type":"MAINTENANCE","registrationTime":"2023-02-11T15:46:54+0100","releaseTime":"2023-02-11T15:46:54+0100","local":false,"title":"Amsterdam - Köln - Basel SBB","titleSections":[[{"type":"STATION","value":"Amsterdam C."},{"type":"STATION","value":"Karlsruhe Hbf"},{"type":"ICON","value":"MAINTENANCE"},{"type":"STATION","value":"Basel SBB"}]],"isActive":true,"start":"2023-02-25T08:00:00+0100","end":"2023-03-17T09:05:00+0100","period":"Zaterdag 25-02-2023 08:00 uur t/m vrijdag 17-03-2023 09:05 uur.","impact":{"value":2},"publicationSections":[{"section":{"stations":[{"uicCode":"8400058","stationCode":"ASD","name":"Amsterdam Centraal","coordinate":{"lat":52.3788871765137,"lng":4.90027761459351},"countryCode":"NL"},{"uicCode":"8400060","stationCode":"ASDM","name":"Amsterdam Muiderpoort","coordinate":{"lat":52.3605537414551,"lng":4.93111133575439},"countryCode":"NL"},{"uicCode":"8400057","stationCode":"ASA","name":"Amsterdam Amstel","coordinate":{"lat":52.3466682434082,"lng":4.91777801513672},"countryCode":"NL"},{"uicCode":"8400194","stationCode":"DVD","name":"Duivendrecht","coordinate":{"lat":52.3233337402344,"lng":4.93638896942139},"countryCode":"NL"},{"uicCode":"8400074","stationCode":"ASB","name":"Amsterdam Bijlmer ArenA","coordinate":{"lat":52.3122215270996,"lng":4.94694423675537},"countryCode":"NL"},{"uicCode":"8400231","stationCode":"ASHD","name":"Amsterdam Holendrecht","coordinate":{"lat":52.29844,"lng":4.95972},"countryCode":"NL"},{"uicCode":"8400047","stationCode":"AC","name":"Abcoude","coordinate":{"lat":52.2785,"lng":4.977},"countryCode":"NL"},{"uicCode":"8400133","stationCode":"BKL","name":"Breukelen","coordinate":{"lat":52.17149,"lng":4.9906},"countryCode":"NL"},{"uicCode":"8400419","stationCode":"MAS","name":"Maarssen","coordinate":{"lat":52.1352767944336,"lng":5.03361129760742},"countryCode":"NL"},{"uicCode":"8400613","stationCode":"UTZL","name":"Utrecht Zuilen","coordinate":{"lat":52.103055,"lng":5.09},"countryCode":"NL"},{"uicCode":"8400621","stationCode":"UT","name":"Utrecht Centraal","coordinate":{"lat":52.0888900756836,"lng":5.11027765274048},"countryCode":"NL"},{"uicCode":"8400606","stationCode":"UTVR","name":"Utrecht Vaartsche Rijn","coordinate":{"lat":52.078889,"lng":5.121667},"countryCode":"NL"},{"uicCode":"8400141","stationCode":"BNK","name":"Bunnik","coordinate":{"lat":52.0630569458008,"lng":5.19444465637207},"countryCode":"NL"},{"uicCode":"8400182","stationCode":"DB","name":"Driebergen-Zeist","coordinate":{"lat":52.0652770996094,"lng":5.25861120223999},"countryCode":"NL"},{"uicCode":"8400417","stationCode":"MRN","name":"Maarn","coordinate":{"lat":52.0641670227051,"lng":5.36999988555908},"countryCode":"NL"},{"uicCode":"8400637","stationCode":"KLP","name":"Veenendaal-De Klomp","coordinate":{"lat":52.0458335876465,"lng":5.57388877868652},"countryCode":"NL"},{"uicCode":"8400200","stationCode":"ED","name":"Ede-Wageningen","coordinate":{"lat":52.0277786254883,"lng":5.67305564880371},"countryCode":"NL"},{"uicCode":"8400704","stationCode":"WF","name":"Wolfheze","coordinate":{"lat":52.0055541992188,"lng":5.7936110496521},"countryCode":"NL"},{"uicCode":"8400489","stationCode":"OTB","name":"Oosterbeek","coordinate":{"lat":51.9949989318848,"lng":5.84000015258789},"countryCode":"NL"},{"uicCode":"8400071","stationCode":"AH","name":"Arnhem Centraal","coordinate":{"lat":51.9850006103516,"lng":5.89916658401489},"countryCode":"NL"},{"uicCode":"8400072","stationCode":"AHP","name":"Arnhem Velperpoort","coordinate":{"lat":51.985279083252,"lng":5.91944456100464},"countryCode":"NL"},{"uicCode":"8400688","stationCode":"WTV","name":"Westervoort","coordinate":{"lat":51.96286,"lng":5.9695},"countryCode":"NL"},{"uicCode":"8400193","stationCode":"DVN","name":"Duiven","coordinate":{"lat":51.9433326721191,"lng":6.01472234725952},"countryCode":"NL"},{"uicCode":"8400735","stationCode":"ZV","name":"Zevenaar","coordinate":{"lat":51.9230537414551,"lng":6.07194423675537},"countryCode":"NL"},{"uicCode":"8033415","stationCode":"EL","name":"Emmerich-Elten","coordinate":{"lat":51.8743,"lng":6.15417},"countryCode":"D"},{"uicCode":"8010288","stationCode":"EM","name":"Emmerich","coordinate":{"lat":51.834283,"lng":6.255718},"countryCode":"D"},{"uicCode":"8010263","stationCode":"OBERH","name":"Oberhausen Hbf","coordinate":{"lat":51.47512,"lng":6.852038},"countryCode":"D"},{"uicCode":"8010316","stationCode":"DUISB","name":"Duisburg Hbf","coordinate":{"lat":51.4297785713316,"lng":6.77590370178222},"countryCode":"D"},{"uicCode":"8008094","stationCode":"DUSSEL","name":"Düsseldorf Hbf","coordinate":{"lat":51.220146,"lng":6.793137},"countryCode":"D"},{"uicCode":"8015561","stationCode":"KKD","name":"Köln Messe/Deutz","coordinate":{"lat":50.940874,"lng":6.975001},"countryCode":"D"},{"uicCode":"8015458","stationCode":"KOLN","name":"Köln Hbf","coordinate":{"lat":50.9432158,"lng":6.9589214},"countryCode":"D"},{"uicCode":"8015588","stationCode":"KSB","name":"Siegburg/Bonn","coordinate":{"lat":50.7939411,"lng":7.2030017},"countryCode":"D"},{"uicCode":"8019585","stationCode":"KMB","name":"Montabaur","coordinate":{"lat":50.444834,"lng":7.825333},"countryCode":"D"},{"uicCode":"8032572","stationCode":"FLB","name":"Limburg Süd","coordinate":{"lat":50.382498,"lng":8.096112},"countryCode":"D"},{"uicCode":"8061676","stationCode":"FNAF","name":"Frankfurt Flughafen Fernb","coordinate":{"lat":50.0531710299286,"lng":8.570237159729},"countryCode":"D"},{"uicCode":"8011068","stationCode":"FFFM","name":"Frankfurt (M) Hbf","coordinate":{"lat":50.1071222,"lng":8.6638338},"countryCode":"D"},{"uicCode":"8014008","stationCode":"MANNHE","name":"Mannheim Hbf","coordinate":{"lat":49.479354,"lng":8.468921},"countryCode":"D"},{"uicCode":"8014228","stationCode":"KARLSR","name":"Karlsruhe Hbf","coordinate":{"lat":48.9936223,"lng":8.400743},"countryCode":"D"},{"uicCode":"8014309","stationCode":"RO","name":"Offenburg","coordinate":{"lat":48.476475,"lng":7.946723},"countryCode":"D"},{"uicCode":"8014350","stationCode":"RF","name":"Freiburg (Breisgau) Hbf","coordinate":{"lat":47.99789,"lng":7.84134},"countryCode":"D"},{"uicCode":"8014431","stationCode":"BASELB","name":"Basel Bad Bf","coordinate":{"lat":47.56815,"lng":7.6073},"countryCode":"D"},{"uicCode":"8500010","stationCode":"BASELS","name":"Basel SBB","coordinate":{"lat":47.5474,"lng":7.58956},"countryCode":"CH"}],"direction":"ONE_WAY"},"consequence":{"section":{"stations":[{"uicCode":"8014228","stationCode":"KARLSR","name":"Karlsruhe Hbf","coordinate":{"lat":48.9936223,"lng":8.400743},"countryCode":"D"},{"uicCode":"8014309","stationCode":"RO","name":"Offenburg","coordinate":{"lat":48.476475,"lng":7.946723},"countryCode":"D"},{"uicCode":"8014350","stationCode":"RF","name":"Freiburg (Breisgau) Hbf","coordinate":{"lat":47.99789,"lng":7.84134},"countryCode":"D"},{"uicCode":"8014431","stationCode":"BASELB","name":"Basel Bad Bf","coordinate":{"lat":47.56815,"lng":7.6073},"countryCode":"D"},{"uicCode":"8500010","stationCode":"BASELS","name":"Basel SBB","coordinate":{"lat":47.5474,"lng":7.58956},"countryCode":"CH"}],"direction":"ONE_WAY"},"description":"aangepaste internationale dienstregeling","level":"LESS_TRAINS"},"sectionType":"NEIGHBORING_COUNTRY"}],"timespans":[{"start":"2023-02-28T08:00:00+0100","end":"2023-02-28T09:05:00+0100","period":"Dinsdag 28-02-2023 08:00 uur t/m dinsdag 28-02-2023 09:05 uur.","situation":{"label":"Door werkzaamheden: van Karlsruhe Hbf naar Basel SBB is de internationale dienstregeling aangepast."},"cause":{"label":"Werkzaamheden"},"additionalTravelTime":{"label":"U heeft geen langere reistijd.","shortLabel":"Geen extra reistijd"},"advices":["Dit kan gevolgen hebben voor uw reis. Plan uw reis in de (Internationale) app."]},{"start":"2023-03-01T08:00:00+0100","end":"2023-03-01T09:05:00+0100","period":"Woensdag 01-03-2023 08:00 uur t/m woensdag 01-03-2023 09:05 uur.","situation":{"label":"Door werkzaamheden: van Karlsruhe Hbf naar Basel SBB is de internationale dienstregeling aangepast."},"cause":{"label":"Werkzaamheden"},"additionalTravelTime":{"label":"U heeft geen langere reistijd.","shortLabel":"Geen extra reistijd"},"advices":["Dit kan gevolgen hebben voor uw reis. Plan uw reis in de (Internationale) app."]},{"start":"2023-03-02T08:00:00+0100","end":"2023-03-02T09:05:00+0100","period":"Donderdag 02-03-2023 08:00 uur t/m donderdag 02-03-2023 09:05 uur.","situation":{"label":"Door werkzaamheden: van Karlsruhe Hbf naar Basel SBB is de internationale dienstregeling aangepast."},"cause":{"label":"Werkzaamheden"},"additionalTravelTime":{"label":"U heeft geen langere reistijd.","shortLabel":"Geen extra reistijd"},"advices":["Dit kan gevolgen hebben voor uw reis. Plan uw reis in de (Internationale) app."]},{"start":"2023-03-03T08:00:00+0100","end":"2023-03-03T09:05:00+0100","period":"Vrijdag 03-03-2023 08:00 uur t/m vrijdag 03-03-2023 09:05 uur.","situation":{"label":"Door werkzaamheden: van Karlsruhe Hbf naar Basel SBB is de internationale dienstregeling aangepast."},"cause":{"label":"Werkzaamheden"},"additionalTravelTime":{"label":"U heeft geen langere reistijd.","shortLabel":"Geen extra reistijd"},"advices":["Dit kan gevolgen hebben voor uw reis. Plan uw reis in de (Internationale) app."]},{"start":"2023-03-04T08:00:00+0100","end":"2023-03-04T09:05:00+0100","period":"Zaterdag 04-03-2023 08:00 uur t/m zaterdag 04-03-2023 09:05 uur.","situation":{"label":"Door werkzaamheden: van Karlsruhe Hbf naar Basel SBB is de internationale dienstregeling aangepast."},"cause":{"label":"Werkzaamheden"},"additionalTravelTime":{"label":"U heeft geen langere reistijd.","shortLabel":"Geen extra reistijd"},"advices":["Dit kan gevolgen hebben voor uw reis. Plan uw reis in de (Internationale) app."]},{"start":"2023-03-05T08:00:00+0100","end":"2023-03-05T09:05:00+0100","period":"Zondag 05-03-2023 08:00 uur t/m zondag 05-03-2023 09:05 uur.","situation":{"label":"Door werkzaamheden: van Karlsruhe Hbf naar Basel SBB is de internationale dienstregeling aangepast."},"cause":{"label":"Werkzaamheden"},"additionalTravelTime":{"label":"U heeft geen langere reistijd.","shortLabel":"Geen extra reistijd"},"advices":["Dit kan gevolgen hebben voor uw reis. Plan uw reis in de (Internationale) app."]},{"start":"2023-03-06T08:00:00+0100","end":"2023-03-06T09:05:00+0100","period":"Maandag 06-03-2023 08:00 uur t/m maandag 06-03-2023 09:05 uur.","situation":{"label":"Door werkzaamheden: van Karlsruhe Hbf naar Basel SBB is de internationale dienstregeling aangepast."},"cause":{"label":"Werkzaamheden"},"additionalTravelTime":{"label":"U heeft geen langere reistijd.","shortLabel":"Geen extra reistijd"},"advices":["Dit kan gevolgen hebben voor uw reis. Plan uw reis in de (Internationale) app."]},{"start":"2023-03-07T08:00:00+0100","end":"2023-03-07T09:05:00+0100","period":"Dinsdag 07-03-2023 08:00 uur t/m dinsdag 07-03-2023 09:05 uur.","situation":{"label":"Door werkzaamheden: van Karlsruhe Hbf naar Basel SBB is de internationale dienstregeling aangepast."},"cause":{"label":"Werkzaamheden"},"additionalTravelTime":{"label":"U heeft geen langere reistijd.","shortLabel":"Geen extra reistijd"},"advices":["Dit kan gevolgen hebben voor uw reis. Plan uw reis in de (Internationale) app."]},{"start":"2023-03-08T08:00:00+0100","end":"2023-03-08T09:05:00+0100","period":"Woensdag 08-03-2023 08:00 uur t/m woensdag 08-03-2023 09:05 uur.","situation":{"label":"Door werkzaamheden: van Karlsruhe Hbf naar Basel SBB is de internationale dienstregeling aangepast."},"cause":{"label":"Werkzaamheden"},"additionalTravelTime":{"label":"U heeft geen langere reistijd.","shortLabel":"Geen extra reistijd"},"advices":["Dit kan gevolgen hebben voor uw reis. Plan uw reis in de (Internationale) app."]},{"start":"2023-03-09T08:00:00+0100","end":"2023-03-09T09:05:00+0100","period":"Donderdag 09-03-2023 08:00 uur t/m donderdag 09-03-2023 09:05 uur.","situation":{"label":"Door werkzaamheden: van Karlsruhe Hbf naar Basel SBB is de internationale dienstregeling aangepast."},"cause":{"label":"Werkzaamheden"},"additionalTravelTime":{"label":"U heeft geen langere reistijd.","shortLabel":"Geen extra reistijd"},"advices":["Dit kan gevolgen hebben voor uw reis. Plan uw reis in de (Internationale) app."]},{"start":"2023-03-10T08:00:00+0100","end":"2023-03-10T09:05:00+0100","period":"Vrijdag 10-03-2023 08:00 uur t/m vrijdag 10-03-2023 09:05 uur.","situation":{"label":"Door werkzaamheden: van Karlsruhe Hbf naar Basel SBB is de internationale dienstregeling aangepast."},"cause":{"label":"Werkzaamheden"},"additionalTravelTime":{"label":"U heeft geen langere reistijd.","shortLabel":"Geen extra reistijd"},"advices":["Dit kan gevolgen hebben voor uw reis. Plan uw reis in de (Internationale) app."]},{"start":"2023-03-11T08:00:00+0100","end":"2023-03-11T09:05:00+0100","period":"Zaterdag 11-03-2023 08:00 uur t/m zaterdag 11-03-2023 09:05 uur.","situation":{"label":"Door werkzaamheden: van Karlsruhe Hbf naar Basel SBB is de internationale dienstregeling aangepast."},"cause":{"label":"Werkzaamheden"},"additionalTravelTime":{"label":"U heeft geen langere reistijd.","shortLabel":"Geen extra reistijd"},"advices":["Dit kan gevolgen hebben voor uw reis. Plan uw reis in de (Internationale) app."]},{"start":"2023-03-12T08:00:00+0100","end":"2023-03-12T09:05:00+0100","period":"Zondag 12-03-2023 08:00 uur t/m zondag 12-03-2023 09:05 uur.","situation":{"label":"Door werkzaamheden: van Karlsruhe Hbf naar Basel SBB is de internationale dienstregeling aangepast."},"cause":{"label":"Werkzaamheden"},"additionalTravelTime":{"label":"U heeft geen langere reistijd.","shortLabel":"Geen extra reistijd"},"advices":["Dit kan gevolgen hebben voor uw reis. Plan uw reis in de (Internationale) app."]},{"start":"2023-03-13T08:00:00+0100","end":"2023-03-13T09:05:00+0100","period":"Maandag 13-03-2023 08:00 uur t/m maandag 13-03-2023 09:05 uur.","situation":{"label":"Door werkzaamheden: van Karlsruhe Hbf naar Basel SBB is de internationale dienstregeling aangepast."},"cause":{"label":"Werkzaamheden"},"additionalTravelTime":{"label":"U heeft geen langere reistijd.","shortLabel":"Geen extra reistijd"},"advices":["Dit kan gevolgen hebben voor uw reis. Plan uw reis in de (Internationale) app."]},{"start":"2023-03-14T08:00:00+0100","end":"2023-03-14T09:05:00+0100","period":"Dinsdag 14-03-2023 08:00 uur t/m dinsdag 14-03-2023 09:05 uur.","situation":{"label":"Door werkzaamheden: van Karlsruhe Hbf naar Basel SBB is de internationale dienstregeling aangepast."},"cause":{"label":"Werkzaamheden"},"additionalTravelTime":{"label":"U heeft geen langere reistijd.","shortLabel":"Geen extra reistijd"},"advices":["Dit kan gevolgen hebben voor uw reis. Plan uw reis in de (Internationale) app."]},{"start":"2023-03-15T08:00:00+0100","end":"2023-03-15T09:05:00+0100","period":"Woensdag 15-03-2023 08:00 uur t/m woensdag 15-03-2023 09:05 uur.","situation":{"label":"Door werkzaamheden: van Karlsruhe Hbf naar Basel SBB is de internationale dienstregeling aangepast."},"cause":{"label":"Werkzaamheden"},"additionalTravelTime":{"label":"U heeft geen langere reistijd.","shortLabel":"Geen extra reistijd"},"advices":["Dit kan gevolgen hebben voor uw reis. Plan uw reis in de (Internationale) app."]},{"start":"2023-03-16T08:00:00+0100","end":"2023-03-16T09:05:00+0100","period":"Donderdag 16-03-2023 08:00 uur t/m donderdag 16-03-2023 09:05 uur.","situation":{"label":"Door werkzaamheden: van Karlsruhe Hbf naar Basel SBB is de internationale dienstregeling aangepast."},"cause":{"label":"Werkzaamheden"},"additionalTravelTime":{"label":"U heeft geen langere reistijd.","shortLabel":"Geen extra reistijd"},"advices":["Dit kan gevolgen hebben voor uw reis. Plan uw reis in de (Internationale) app."]},{"start":"2023-03-17T08:00:00+0100","end":"2023-03-17T09:05:00+0100","period":"Vrijdag 17-03-2023 08:00 uur t/m vrijdag 17-03-2023 09:05 uur.","situation":{"label":"Door werkzaamheden: van Karlsruhe Hbf naar Basel SBB is de internationale dienstregeling aangepast."},"cause":{"label":"Werkzaamheden"},"additionalTravelTime":{"label":"U heeft geen langere reistijd.","shortLabel":"Geen extra reistijd"},"advices":["Dit kan gevolgen hebben voor uw reis. Plan uw reis in de (Internationale) app."]}],"alternativeTransportTimespans":[]},{"id":"7003237","type":"MAINTENANCE","registrationTime":"2023-02-27T16:19:28+0100","releaseTime":"2023-02-27T16:19:28+0100","local":false,"title":"Rotterdam Blaak","titleSections":[[{"type":"STATION","value":"Blaak"}]],"isActive":true,"start":"2023-02-26T04:00:00+0100","end":"2023-03-06T02:00:00+0100","period":"Zondag 26-02-2023 04:00 uur t/m maandag 06-03-2023 02:00 uur.","impact":{"value":2},"summaryAdditionalTravelTime":{"label":"De extra reistijd is ongeveer 15 minuten.","shortLabel":"Extra reistijd 15 min.","minimumDurationInMinutes":15,"maximumDurationInMinutes":15},"publicationSections":[{"section":{"stations":[{"uicCode":"8400530","stationCode":"RTD","name":"Rotterdam Centraal","coordinate":{"lat":51.9249992370605,"lng":4.46888875961304},"countryCode":"NL"},{"uicCode":"8400529","stationCode":"RTB","name":"Rotterdam Blaak","coordinate":{"lat":51.9202766418457,"lng":4.48888874053955},"countryCode":"NL"},{"uicCode":"8400533","stationCode":"RTZ","name":"Rotterdam Zuid","coordinate":{"lat":51.9044456481934,"lng":4.51027774810791},"countryCode":"NL"},{"uicCode":"8400542","stationCode":"RLB","name":"Rotterdam Lombardijen","coordinate":{"lat":51.8800010681152,"lng":4.53138875961304},"countryCode":"NL"},{"uicCode":"8400090","stationCode":"BRD","name":"Barendrecht","coordinate":{"lat":51.8547210693359,"lng":4.5533332824707},"countryCode":"NL"},{"uicCode":"8400752","stationCode":"ZWD","name":"Zwijndrecht","coordinate":{"lat":51.814998626709,"lng":4.64166688919067},"countryCode":"NL"},{"uicCode":"8400180","stationCode":"DDR","name":"Dordrecht","coordinate":{"lat":51.8072204589844,"lng":4.66833353042603},"countryCode":"NL"}],"direction":"BOTH"},"consequence":{"section":{"stations":[{"uicCode":"8400529","stationCode":"RTB","name":"Rotterdam Blaak","coordinate":{"lat":51.9202766418457,"lng":4.48888874053955},"countryCode":"NL"}],"direction":"ONE_WAY"},"description":"rijden bussen","level":"LESS_TRAINS"},"sectionType":"NL"}],"timespans":[{"start":"2023-02-26T04:00:00+0100","end":"2023-03-06T02:00:00+0100","period":"Zondag 26-02-2023 04:00 uur t/m maandag 06-03-2023 02:00 uur.","situation":{"label":"Door werkzaamheden op een station: van, via en naar Rotterdam Blaak rijden er bussen."},"cause":{"label":"Werkzaamheden op station"},"additionalTravelTime":{"label":"De extra reistijd is ongeveer 15 minuten.","shortLabel":"Extra reistijd 15 min.","minimumDurationInMinutes":15,"maximumDurationInMinutes":15},"alternativeTransport":{"label":"Er rijden bussen.","shortLabel":"er rijden bussen"},"advices":["Tussen Blaak en Rotterdam Zuid/Dordrecht reist u via Rotterdam C."]}],"alternativeTransportTimespans":[{"start":"2023-02-26T04:00:00+0100","end":"2023-03-06T02:00:00+0100","alternativeTransport":{"location":[{"station":{"uicCode":"8400530","stationCode":"RTD","name":"Rotterdam Centraal","coordinate":{"lat":51.9249992370605,"lng":4.46888875961304},"countryCode":"NL"},"description":"vanaf de Conradstraat aan de centrumzijde"},{"station":{"uicCode":"8400529","stationCode":"RTB","name":"Rotterdam Blaak","coordinate":{"lat":51.9202766418457,"lng":4.48888874053955},"countryCode":"NL"},"description":"vanaf de voorzijde van het station"}],"label":"Er rijden bussen tussen Rotterdam Centraal en Rotterdam Blaak.","shortLabel":"Er rijden bussen Rotterdam C. - Blaak"}}]},{"id":"7003198","type":"MAINTENANCE","registrationTime":"2023-01-16T10:05:48+0100","releaseTime":"2023-01-16T10:05:48+0100","local":false,"title":"Amsterdam - Rotterdam - Brussel (HSL)","titleSections":[[{"type":"STATION","value":"Amsterdam C."},{"type":"ICON","value":"MAINTENANCE"},{"type":"STATION","value":"Rotterdam C."},{"type":"STATION","value":"Brussel-Z. Midi"}]],"isActive":true,"start":"2023-02-26T09:00:00+0100","end":"2023-03-03T19:00:00+0100","period":"Zondag 26-02-2023 09:00 uur t/m vrijdag 03-03-2023 19:00 uur.","impact":{"value":2},"publicationSections":[{"section":{"stations":[{"uicCode":"8400058","stationCode":"ASD","name":"Amsterdam Centraal","coordinate":{"lat":52.3788871765137,"lng":4.90027761459351},"countryCode":"NL"},{"uicCode":"8400059","stationCode":"ASS","name":"Amsterdam Sloterdijk","coordinate":{"lat":52.3888893127441,"lng":4.83777761459351},"countryCode":"NL"},{"uicCode":"8400079","stationCode":"ASDL","name":"Amsterdam Lelylaan","coordinate":{"lat":52.3577766418457,"lng":4.83388900756836},"countryCode":"NL"},{"uicCode":"8400561","stationCode":"SHL","name":"Schiphol Airport","coordinate":{"lat":52.3094444274902,"lng":4.76194429397583},"countryCode":"NL"},{"uicCode":"8400332","stationCode":"HFD","name":"Hoofddorp","coordinate":{"lat":52.2933349609375,"lng":4.70055532455444},"countryCode":"NL"},{"uicCode":"8400530","stationCode":"RTD","name":"Rotterdam Centraal","coordinate":{"lat":51.9249992370605,"lng":4.46888875961304},"countryCode":"NL"},{"uicCode":"8400529","stationCode":"RTB","name":"Rotterdam Blaak","coordinate":{"lat":51.9202766418457,"lng":4.48888874053955},"countryCode":"NL"},{"uicCode":"8400533","stationCode":"RTZ","name":"Rotterdam Zuid","coordinate":{"lat":51.9044456481934,"lng":4.51027774810791},"countryCode":"NL"},{"uicCode":"8400542","stationCode":"RLB","name":"Rotterdam Lombardijen","coordinate":{"lat":51.8800010681152,"lng":4.53138875961304},"countryCode":"NL"},{"uicCode":"8400132","stationCode":"BDPB","name":"Breda-Prinsenbeek","coordinate":{"lat":51.606388092041,"lng":4.72083330154419},"countryCode":"NL"},{"uicCode":"8400131","stationCode":"BD","name":"Breda","coordinate":{"lat":51.5955543518066,"lng":4.78000020980835},"countryCode":"NL"},{"uicCode":"8821105","stationCode":"NDKP","name":"Noorderkempen","coordinate":{"lat":51.358088,"lng":4.633977},"countryCode":"B"},{"uicCode":"8821063","stationCode":"ATWLB","name":"Antwerpen-Luchtbal","coordinate":{"lat":51.2449375,"lng":4.4251543},"countryCode":"B"},{"uicCode":"8821006","stationCode":"ATW","name":"Antwerpen-Centraal","coordinate":{"lat":51.21686,"lng":4.421242},"countryCode":"B"},{"uicCode":"8821121","stationCode":"BERCH","name":"Antwerpen-Berchem","coordinate":{"lat":51.198914,"lng":4.4332},"countryCode":"B"},{"uicCode":"8822004","stationCode":"MECH","name":"Mechelen","coordinate":{"lat":51.01758,"lng":4.48313},"countryCode":"B"},{"uicCode":"8812005","stationCode":"BRUSN","name":"Brussel-Noord","coordinate":{"lat":50.859658,"lng":4.360854},"countryCode":"B"},{"uicCode":"8813003","stationCode":"BRUSC","name":"Brussel-Centraal","coordinate":{"lat":50.845175,"lng":4.357131},"countryCode":"B"},{"uicCode":"8814001","stationCode":"BRUSZ","name":"Brussel-Zuid Midi","coordinate":{"lat":50.836782,"lng":4.336922},"countryCode":"B"}],"direction":"BOTH"},"consequence":{"section":{"stations":[{"uicCode":"8400058","stationCode":"ASD","name":"Amsterdam Centraal","coordinate":{"lat":52.3788871765137,"lng":4.90027761459351},"countryCode":"NL"},{"uicCode":"8400059","stationCode":"ASS","name":"Amsterdam Sloterdijk","coordinate":{"lat":52.3888893127441,"lng":4.83777761459351},"countryCode":"NL"},{"uicCode":"8400079","stationCode":"ASDL","name":"Amsterdam Lelylaan","coordinate":{"lat":52.3577766418457,"lng":4.83388900756836},"countryCode":"NL"},{"uicCode":"8400561","stationCode":"SHL","name":"Schiphol Airport","coordinate":{"lat":52.3094444274902,"lng":4.76194429397583},"countryCode":"NL"},{"uicCode":"8400332","stationCode":"HFD","name":"Hoofddorp","coordinate":{"lat":52.2933349609375,"lng":4.70055532455444},"countryCode":"NL"},{"uicCode":"8400530","stationCode":"RTD","name":"Rotterdam Centraal","coordinate":{"lat":51.9249992370605,"lng":4.46888875961304},"countryCode":"NL"}],"direction":"ONE_WAY"},"description":"aangepaste internationale dienstregeling","level":"LESS_TRAINS"},"sectionType":"HSL"}],"timespans":[{"start":"2023-02-28T09:00:00+0100","end":"2023-02-28T19:00:00+0100","period":"Dinsdag 28-02-2023 09:00 uur t/m dinsdag 28-02-2023 19:00 uur.","situation":{"label":"Door werkzaamheden: tussen Amsterdam Centraal en Rotterdam Centraal is de internationale dienstregeling aangepast."},"cause":{"label":"Werkzaamheden"},"additionalTravelTime":{"label":"U heeft geen langere reistijd.","shortLabel":"Geen extra reistijd"},"advices":[]},{"start":"2023-03-01T09:00:00+0100","end":"2023-03-01T19:00:00+0100","period":"Woensdag 01-03-2023 09:00 uur t/m woensdag 01-03-2023 19:00 uur.","situation":{"label":"Door werkzaamheden: tussen Amsterdam Centraal en Rotterdam Centraal is de internationale dienstregeling aangepast."},"cause":{"label":"Werkzaamheden"},"additionalTravelTime":{"label":"U heeft geen langere reistijd.","shortLabel":"Geen extra reistijd"},"advices":[]},{"start":"2023-03-02T09:00:00+0100","end":"2023-03-02T19:00:00+0100","period":"Donderdag 02-03-2023 09:00 uur t/m donderdag 02-03-2023 19:00 uur.","situation":{"label":"Door werkzaamheden: tussen Amsterdam Centraal en Rotterdam Centraal is de internationale dienstregeling aangepast."},"cause":{"label":"Werkzaamheden"},"additionalTravelTime":{"label":"U heeft geen langere reistijd.","shortLabel":"Geen extra reistijd"},"advices":[]},{"start":"2023-03-03T09:00:00+0100","end":"2023-03-03T19:00:00+0100","period":"Vrijdag 03-03-2023 09:00 uur t/m vrijdag 03-03-2023 19:00 uur.","situation":{"label":"Door werkzaamheden: tussen Amsterdam Centraal en Rotterdam Centraal is de internationale dienstregeling aangepast."},"cause":{"label":"Werkzaamheden"},"additionalTravelTime":{"label":"U heeft geen langere reistijd.","shortLabel":"Geen extra reistijd"},"advices":[]}],"alternativeTransportTimespans":[]},{"id":"7003292","type":"MAINTENANCE","registrationTime":"2023-02-08T10:43:53+0100","releaseTime":"2023-02-08T10:43:53+0100","local":false,"title":"Leiden - Alphen a/d Rijn; Alphen a/d Rijn - Gouda","titleSections":[[{"type":"STATION","value":"Leiden C."},{"type":"ICON","value":"MAINTENANCE"},{"type":"STATION","value":"Alphen a/d Rijn"}],[{"type":"STATION","value":"Alphen a/d Rijn"},{"type":"ICON","value":"MAINTENANCE"},{"type":"STATION","value":"Boskoop"},{"type":"STATION","value":"Gouda"}]],"isActive":false,"start":"2023-03-01T04:00:00+0100","end":"2023-03-02T02:00:00+0100","period":"Woensdag 01-03-2023 04:00 uur t/m donderdag 02-03-2023 02:00 uur.","impact":{"value":4},"summaryAdditionalTravelTime":{"label":"De extra reistijd kan oplopen tot 30 minuten.","shortLabel":"Extra reistijd tot 30 min.","maximumDurationInMinutes":30},"publicationSections":[{"section":{"stations":[{"uicCode":"8400390","stationCode":"LEDN","name":"Leiden Centraal","coordinate":{"lat":52.1661109924316,"lng":4.48166656494141},"countryCode":"NL"},{"uicCode":"8400384","stationCode":"LDL","name":"Leiden Lammenschans","coordinate":{"lat":52.1469459533691,"lng":4.49249982833862},"countryCode":"NL"},{"uicCode":"8400053","stationCode":"APN","name":"Alphen a/d Rijn","coordinate":{"lat":52.1244430541992,"lng":4.65777778625488},"countryCode":"NL"}],"direction":"BOTH"},"consequence":{"section":{"stations":[{"uicCode":"8400390","stationCode":"LEDN","name":"Leiden Centraal","coordinate":{"lat":52.1661109924316,"lng":4.48166656494141},"countryCode":"NL"},{"uicCode":"8400384","stationCode":"LDL","name":"Leiden Lammenschans","coordinate":{"lat":52.1469459533691,"lng":4.49249982833862},"countryCode":"NL"},{"uicCode":"8400053","stationCode":"APN","name":"Alphen a/d Rijn","coordinate":{"lat":52.1244430541992,"lng":4.65777778625488},"countryCode":"NL"}],"direction":"ONE_WAY"},"description":"rijden bussen","level":"NO_OR_MUCH_LESS_TRAINS"},"sectionType":"NL"},{"section":{"stations":[{"uicCode":"8400053","stationCode":"APN","name":"Alphen a/d Rijn","coordinate":{"lat":52.1244430541992,"lng":4.65777778625488},"countryCode":"NL"},{"uicCode":"8400125","stationCode":"BSK","name":"Boskoop","coordinate":{"lat":52.0777778625488,"lng":4.64694452285767},"countryCode":"NL"},{"uicCode":"8400126","stationCode":"BSKS","name":"Boskoop Snijdelwijk","coordinate":{"lat":52.067658,"lng":4.646186},"countryCode":"NL"},{"uicCode":"8400674","stationCode":"WADN","name":"Waddinxveen Noord","coordinate":{"lat":52.0550003051758,"lng":4.64833354949951},"countryCode":"NL"},{"uicCode":"8400675","stationCode":"WAD","name":"Waddinxveen","coordinate":{"lat":52.0441665649414,"lng":4.6497220993042},"countryCode":"NL"},{"uicCode":"8400677","stationCode":"WADT","name":"Waddinxveen Triangel","coordinate":{"lat":52.02725,"lng":4.6491},"countryCode":"NL"},{"uicCode":"8400258","stationCode":"GD","name":"Gouda","coordinate":{"lat":52.0175018310547,"lng":4.70444440841675},"countryCode":"NL"}],"direction":"BOTH"},"consequence":{"section":{"stations":[{"uicCode":"8400053","stationCode":"APN","name":"Alphen a/d Rijn","coordinate":{"lat":52.1244430541992,"lng":4.65777778625488},"countryCode":"NL"},{"uicCode":"8400125","stationCode":"BSK","name":"Boskoop","coordinate":{"lat":52.0777778625488,"lng":4.64694452285767},"countryCode":"NL"}],"direction":"ONE_WAY"},"description":"rijden bussen","level":"NO_OR_MUCH_LESS_TRAINS"},"sectionType":"NL"}],"timespans":[{"start":"2023-03-01T04:00:00+0100","end":"2023-03-02T02:00:00+0100","period":"Woensdag 01-03-2023 04:00 uur t/m donderdag 02-03-2023 02:00 uur.","situation":{"label":"Door werkzaamheden: tussen Leiden Centraal en Alphen a/d Rijn rijden er bussen en tussen Alphen a/d Rijn en Boskoop rijden er bussen."},"cause":{"label":"Werkzaamheden"},"additionalTravelTime":{"label":"De extra reistijd kan oplopen tot 30 minuten.","shortLabel":"Extra reistijd tot 30 min.","maximumDurationInMinutes":30},"alternativeTransport":{"label":"Er rijden bussen.","shortLabel":"er rijden bussen"},"advices":["Tussen Leiden C. en Utrecht C. reist u via Schiphol Airport","Tussen Leiden C. en Gouda/Woerden reist u via Den Haag C."]}],"alternativeTransportTimespans":[{"start":"2023-03-01T04:00:00+0100","end":"2023-03-02T02:00:00+0100","alternativeTransport":{"location":[{"station":{"uicCode":"8400390","stationCode":"LEDN","name":"Leiden Centraal","coordinate":{"lat":52.1661109924316,"lng":4.48166656494141},"countryCode":"NL"},"description":"vanaf het stadsbusstation"},{"station":{"uicCode":"8400384","stationCode":"LDL","name":"Leiden Lammenschans","coordinate":{"lat":52.1469459533691,"lng":4.49249982833862},"countryCode":"NL"},"description":"vanaf de Lammenschansweg"},{"station":{"uicCode":"8400053","stationCode":"APN","name":"Alphen a/d Rijn","coordinate":{"lat":52.1244430541992,"lng":4.65777778625488},"countryCode":"NL"},"description":"vanaf het busstation, centrumzijde"}],"label":"Er rijden bussen tussen Leiden Centraal, Leiden Lammenschans en Alphen a/d Rijn.","shortLabel":"Er rijden bussen Leiden C. - Lammenschans - Alphen a/d Rijn"}},{"start":"2023-03-01T04:00:00+0100","end":"2023-03-02T02:00:00+0100","alternativeTransport":{"location":[{"station":{"uicCode":"8400053","stationCode":"APN","name":"Alphen a/d Rijn","coordinate":{"lat":52.1244430541992,"lng":4.65777778625488},"countryCode":"NL"},"description":"vanaf het busstation, centrumzijde"},{"station":{"uicCode":"8400125","stationCode":"BSK","name":"Boskoop","coordinate":{"lat":52.0777778625488,"lng":4.64694452285767},"countryCode":"NL"},"description":"vanaf de NS Bushalte"}],"label":"Er rijden bussen tussen Alphen a/d Rijn en Boskoop.","shortLabel":"Er rijden bussen Alphen a/d Rijn - Boskoop"}}]},{"id":"7003233","type":"MAINTENANCE","registrationTime":"2023-02-06T12:13:24+0100","releaseTime":"2023-02-06T12:13:24+0100","local":false,"title":"Groningen - Leeuwarden","titleSections":[[{"type":"STATION","value":"Groningen"},{"type":"ICON","value":"MAINTENANCE"},{"type":"STATION","value":"Zuidhorn"},{"type":"ICON","value":"MAINTENANCE"},{"type":"STATION","value":"Buitenpost"},{"type":"STATION","value":"Leeuwarden"}]],"isActive":false,"start":"2023-03-02T01:40:00+0100","end":"2023-03-06T02:00:00+0100","period":"Donderdag 02-03-2023 01:40 uur t/m maandag 06-03-2023 02:00 uur.","impact":{"value":4},"summaryAdditionalTravelTime":{"label":"De extra reistijd kan oplopen tot 30 minuten.","shortLabel":"Extra reistijd tot 30 min.","maximumDurationInMinutes":30},"publicationSections":[{"section":{"stations":[{"uicCode":"8400263","stationCode":"GN","name":"Groningen","coordinate":{"lat":53.2105560302734,"lng":6.56472206115723},"countryCode":"NL"},{"uicCode":"8400743","stationCode":"ZH","name":"Zuidhorn","coordinate":{"lat":53.2486292,"lng":6.4062361},"countryCode":"NL"},{"uicCode":"8400267","stationCode":"GK","name":"Grijpskerk","coordinate":{"lat":53.2557403255735,"lng":6.30977869033813},"countryCode":"NL"},{"uicCode":"8400139","stationCode":"BP","name":"Buitenpost","coordinate":{"lat":53.2564547,"lng":6.1446496},"countryCode":"NL"},{"uicCode":"8400745","stationCode":"DWE","name":"De Westereen","coordinate":{"lat":53.24817,"lng":6.03463},"countryCode":"NL"},{"uicCode":"8400638","stationCode":"FWD","name":"Feanwâlden","coordinate":{"lat":53.2351834,"lng":5.9886615},"countryCode":"NL"},{"uicCode":"8400292","stationCode":"HDG","name":"Hurdegaryp","coordinate":{"lat":53.2187783,"lng":5.934543},"countryCode":"NL"},{"uicCode":"8400389","stationCode":"LWC","name":"Leeuwarden Camminghaburen","coordinate":{"lat":53.2021808,"lng":5.8422968},"countryCode":"NL"},{"uicCode":"8400387","stationCode":"LW","name":"Leeuwarden","coordinate":{"lat":53.1958351135254,"lng":5.79222202301025},"countryCode":"NL"}],"direction":"BOTH"},"consequence":{"section":{"stations":[{"uicCode":"8400263","stationCode":"GN","name":"Groningen","coordinate":{"lat":53.2105560302734,"lng":6.56472206115723},"countryCode":"NL"},{"uicCode":"8400743","stationCode":"ZH","name":"Zuidhorn","coordinate":{"lat":53.2486292,"lng":6.4062361},"countryCode":"NL"}],"direction":"ONE_WAY"},"description":"rijden bussen","level":"NO_OR_MUCH_LESS_TRAINS"},"sectionType":"NL"},{"section":{"stations":[{"uicCode":"8400263","stationCode":"GN","name":"Groningen","coordinate":{"lat":53.2105560302734,"lng":6.56472206115723},"countryCode":"NL"},{"uicCode":"8400743","stationCode":"ZH","name":"Zuidhorn","coordinate":{"lat":53.2486292,"lng":6.4062361},"countryCode":"NL"},{"uicCode":"8400267","stationCode":"GK","name":"Grijpskerk","coordinate":{"lat":53.2557403255735,"lng":6.30977869033813},"countryCode":"NL"},{"uicCode":"8400139","stationCode":"BP","name":"Buitenpost","coordinate":{"lat":53.2564547,"lng":6.1446496},"countryCode":"NL"},{"uicCode":"8400745","stationCode":"DWE","name":"De Westereen","coordinate":{"lat":53.24817,"lng":6.03463},"countryCode":"NL"},{"uicCode":"8400638","stationCode":"FWD","name":"Feanwâlden","coordinate":{"lat":53.2351834,"lng":5.9886615},"countryCode":"NL"},{"uicCode":"8400292","stationCode":"HDG","name":"Hurdegaryp","coordinate":{"lat":53.2187783,"lng":5.934543},"countryCode":"NL"},{"uicCode":"8400389","stationCode":"LWC","name":"Leeuwarden Camminghaburen","coordinate":{"lat":53.2021808,"lng":5.8422968},"countryCode":"NL"},{"uicCode":"8400387","stationCode":"LW","name":"Leeuwarden","coordinate":{"lat":53.1958351135254,"lng":5.79222202301025},"countryCode":"NL"}],"direction":"BOTH"},"consequence":{"section":{"stations":[{"uicCode":"8400263","stationCode":"GN","name":"Groningen","coordinate":{"lat":53.2105560302734,"lng":6.56472206115723},"countryCode":"NL"},{"uicCode":"8400743","stationCode":"ZH","name":"Zuidhorn","coordinate":{"lat":53.2486292,"lng":6.4062361},"countryCode":"NL"},{"uicCode":"8400267","stationCode":"GK","name":"Grijpskerk","coordinate":{"lat":53.2557403255735,"lng":6.30977869033813},"countryCode":"NL"},{"uicCode":"8400139","stationCode":"BP","name":"Buitenpost","coordinate":{"lat":53.2564547,"lng":6.1446496},"countryCode":"NL"}],"direction":"ONE_WAY"},"description":"rijden bussen","level":"NO_OR_MUCH_LESS_TRAINS"},"sectionType":"NL"}],"timespans":[{"start":"2023-03-02T01:40:00+0100","end":"2023-03-04T02:30:00+0100","period":"Donderdag 02-03-2023 01:40 uur t/m zaterdag 04-03-2023 02:30 uur.","situation":{"label":"Door werkzaamheden: tussen Groningen en Zuidhorn rijden er bussen."},"cause":{"label":"Werkzaamheden"},"additionalTravelTime":{"label":"De extra reistijd kan oplopen tot 30 minuten.","shortLabel":"Extra reistijd tot 30 min.","maximumDurationInMinutes":30},"alternativeTransport":{"label":"Er rijden bussen.","shortLabel":"er rijden bussen"},"advices":[]},{"start":"2023-03-04T02:30:00+0100","end":"2023-03-06T02:00:00+0100","period":"Zaterdag 04-03-2023 02:30 uur t/m maandag 06-03-2023 02:00 uur.","situation":{"label":"Door werkzaamheden: tussen Groningen en Buitenpost rijden er bussen."},"cause":{"label":"Werkzaamheden"},"additionalTravelTime":{"label":"De extra reistijd kan oplopen tot 30 minuten.","shortLabel":"Extra reistijd tot 30 min.","maximumDurationInMinutes":30},"alternativeTransport":{"label":"Er rijden bussen.","shortLabel":"er rijden bussen"},"advices":[]}],"alternativeTransportTimespans":[{"start":"2023-03-02T01:40:00+0100","end":"2023-03-04T02:30:00+0100","alternativeTransport":{"location":[{"station":{"uicCode":"8400263","stationCode":"GN","name":"Groningen","coordinate":{"lat":53.2105560302734,"lng":6.56472206115723},"countryCode":"NL"},"description":"vanaf het busstation"},{"station":{"uicCode":"8400743","stationCode":"ZH","name":"Zuidhorn","coordinate":{"lat":53.2486292,"lng":6.4062361},"countryCode":"NL"},"description":"vanaf het busstation"}],"label":"Er rijden bussen tussen Groningen en Zuidhorn.","shortLabel":"Er rijden bussen Groningen - Zuidhorn"}},{"start":"2023-03-04T02:30:00+0100","end":"2023-03-06T02:00:00+0100","alternativeTransport":{"location":[{"station":{"uicCode":"8400263","stationCode":"GN","name":"Groningen","coordinate":{"lat":53.2105560302734,"lng":6.56472206115723},"countryCode":"NL"},"description":"vanaf het busstation"},{"station":{"uicCode":"8400743","stationCode":"ZH","name":"Zuidhorn","coordinate":{"lat":53.2486292,"lng":6.4062361},"countryCode":"NL"},"description":"vanaf het busstation"},{"station":{"uicCode":"8400267","stationCode":"GK","name":"Grijpskerk","coordinate":{"lat":53.2557403255735,"lng":6.30977869033813},"countryCode":"NL"},"description":"vanaf de doorgaande weg"},{"station":{"uicCode":"8400139","stationCode":"BP","name":"Buitenpost","coordinate":{"lat":53.2564547,"lng":6.1446496},"countryCode":"NL"},"description":"vanaf de voorzijde van het station"}],"label":"Er rijden bussen tussen Groningen, Zuidhorn, Grijpskerk en Buitenpost.","shortLabel":"Er rijden bussen Groningen - Zuidhorn - Grijpskerk - Buitenpost"}}]},{"id":"7003212","type":"MAINTENANCE","registrationTime":"2023-01-30T10:09:13+0100","releaseTime":"2023-01-30T10:09:13+0100","local":false,"title":"Groningen - Delfzijl; Groningen - Eemshaven","titleSections":[[{"type":"STATION","value":"Groningen"},{"type":"ICON","value":"MAINTENANCE"},{"type":"STATION","value":"Roodeschool"},{"type":"STATION","value":"Eemshaven"}],[{"type":"STATION","value":"Groningen"},{"type":"ICON","value":"MAINTENANCE"},{"type":"STATION","value":"Delfzijl"}]],"isActive":false,"start":"2023-03-02T01:40:00+0100","end":"2023-03-06T02:00:00+0100","period":"Donderdag 02-03-2023 01:40 uur t/m maandag 06-03-2023 02:00 uur.","impact":{"value":2},"summaryAdditionalTravelTime":{"label":"De extra reistijd kan oplopen tot 30 minuten.","shortLabel":"Extra reistijd tot 30 min.","maximumDurationInMinutes":30},"publicationSections":[{"section":{"stations":[{"uicCode":"8400263","stationCode":"GN","name":"Groningen","coordinate":{"lat":53.2105560302734,"lng":6.56472206115723},"countryCode":"NL"},{"uicCode":"8400264","stationCode":"GNN","name":"Groningen Noord","coordinate":{"lat":53.2301469,"lng":6.5563172},"countryCode":"NL"},{"uicCode":"8400547","stationCode":"SWD","name":"Sauwerd","coordinate":{"lat":53.29113,"lng":6.5404},"countryCode":"NL"},{"uicCode":"8400697","stationCode":"WSM","name":"Winsum","coordinate":{"lat":53.3300994,"lng":6.5202905},"countryCode":"NL"},{"uicCode":"8400089","stationCode":"BF","name":"Baflo","coordinate":{"lat":53.3608969,"lng":6.5185581},"countryCode":"NL"},{"uicCode":"8400679","stationCode":"WFM","name":"Warffum","coordinate":{"lat":53.3908431,"lng":6.5671364},"countryCode":"NL"},{"uicCode":"8400619","stationCode":"UST","name":"Usquert","coordinate":{"lat":53.4014742,"lng":6.6093776},"countryCode":"NL"},{"uicCode":"8400617","stationCode":"UHZ","name":"Uithuizen","coordinate":{"lat":53.4099568,"lng":6.6748869},"countryCode":"NL"},{"uicCode":"8400618","stationCode":"UHM","name":"Uithuizermeeden","coordinate":{"lat":53.4145845,"lng":6.7202975},"countryCode":"NL"},{"uicCode":"8400525","stationCode":"RD","name":"Roodeschool","coordinate":{"lat":53.421262,"lng":6.7587},"countryCode":"NL"},{"uicCode":"8400202","stationCode":"EEM","name":"Eemshaven","coordinate":{"lat":53.458419,"lng":6.832},"countryCode":"NL"}],"direction":"BOTH"},"consequence":{"section":{"stations":[{"uicCode":"8400263","stationCode":"GN","name":"Groningen","coordinate":{"lat":53.2105560302734,"lng":6.56472206115723},"countryCode":"NL"},{"uicCode":"8400264","stationCode":"GNN","name":"Groningen Noord","coordinate":{"lat":53.2301469,"lng":6.5563172},"countryCode":"NL"},{"uicCode":"8400547","stationCode":"SWD","name":"Sauwerd","coordinate":{"lat":53.29113,"lng":6.5404},"countryCode":"NL"},{"uicCode":"8400697","stationCode":"WSM","name":"Winsum","coordinate":{"lat":53.3300994,"lng":6.5202905},"countryCode":"NL"},{"uicCode":"8400089","stationCode":"BF","name":"Baflo","coordinate":{"lat":53.3608969,"lng":6.5185581},"countryCode":"NL"},{"uicCode":"8400679","stationCode":"WFM","name":"Warffum","coordinate":{"lat":53.3908431,"lng":6.5671364},"countryCode":"NL"},{"uicCode":"8400619","stationCode":"UST","name":"Usquert","coordinate":{"lat":53.4014742,"lng":6.6093776},"countryCode":"NL"},{"uicCode":"8400617","stationCode":"UHZ","name":"Uithuizen","coordinate":{"lat":53.4099568,"lng":6.6748869},"countryCode":"NL"},{"uicCode":"8400618","stationCode":"UHM","name":"Uithuizermeeden","coordinate":{"lat":53.4145845,"lng":6.7202975},"countryCode":"NL"},{"uicCode":"8400525","stationCode":"RD","name":"Roodeschool","coordinate":{"lat":53.421262,"lng":6.7587},"countryCode":"NL"}],"direction":"ONE_WAY"},"description":"rijden bussen","level":"NO_OR_MUCH_LESS_TRAINS"},"sectionType":"NL"},{"section":{"stations":[{"uicCode":"8400263","stationCode":"GN","name":"Groningen","coordinate":{"lat":53.2105560302734,"lng":6.56472206115723},"countryCode":"NL"},{"uicCode":"8400264","stationCode":"GNN","name":"Groningen Noord","coordinate":{"lat":53.2301469,"lng":6.5563172},