[{"type":"CALAMITY","id":"abd74668-c603-480b-baab-851d4c641387","title":"No trains between Driebergen-Zeist - Ede-Wageningen/Rhenen.","isActive":true,"topic":"disruption_abd74668-c603-480b-baab-851d4c641387_nl","description":"Due to engineering works no trains will run between Driebergen-Zeist - Ede-Wageningen/Rhenen from Friday 1 November until Sunday 3 November.","url":"https://www.ns.nl/404.html","priority":"PRIO_3","lastUpdated":"2024-10-01T00:00:00+0200","bodyItems":[{"type":"TEXT","content":{"text":"<p>Replacement buses will run between Driebergen-Zeist - Ede-Wageningen/Rhenen. Please, plan your trip before departure.</p>"}}],"buttons":{"position":["BOTTOM"],"items":[{"label":"Plan your journey","accessibilityLabel":"Plan your journey","url":"https://www.ns.nl/en/travel-information","type":"EXTERNAL"}]}},{"type":"MAINTENANCE","id":"7004492","title":"Groningen - Leer.","isActive":true,"local":false,"titleSections":[[{"type":"STATION","value":"Groningen"},{"type":"STATION","value":"Bad Nieuweschans"},{"type":"ICON","value":"MAINTENANCE"},{"type":"STATION","value":"Weener"},{"type":"STATION","value":"Leer (Ostfr.)"}]],"registrationTime":"2024-10-15T09:08:18+0200","start":"2024-02-01T04:00:00+0100","releaseTime":"2024-10-15T09:08:18+0200","end":"2025-08-24T23:59:00+0200","period":"Donderdag 1 februari 4:00 uur t/m zondag 24 augustus 23:59 uur.","impact":{"value":3},"publicationSections":[{"section":{"stations":[{"coordinate":{"lat":53.2105560302734,"lng":6.56472206115723},"countryCode":"NL","name":"Groningen","stationCode":"GN","uicCode":"8400263"},{"coordinate":{"lat":53.20480027,"lng":6.5854178},"countryCode":"NL","name":"Groningen Europapark","stationCode":"GERP","uicCode":"8400238"},{"coordinate":{"lat":53.1617362,"lng":6.7220882},"countryCode":"NL","name":"Kropswolde","stationCode":"KW","uicCode":"8400369"},{"coordinate":{"lat":53.1607232,"lng":6.7402989},"countryCode":"NL","name":"Martenshoek","stationCode":"MTH","uicCode":"8400430"},{"coordinate":{"lat":53.1598181316756,"lng":6.77075386047363},"countryCode":"NL","name":"Hoogezand-Sappemeer","stationCode":"HGZ","uicCode":"8400331"},{"coordinate":{"lat":53.1596122800056,"lng":6.8679141998291},"countryCode":"NL","name":"Zuidbroek","stationCode":"ZB","uicCode":"8400742"},{"coordinate":{"lat":53.1655362,"lng":6.9777775},"countryCode":"NL","name":"Scheemda","stationCode":"SDA","uicCode":"8400551"},{"coordinate":{"lat":53.1392377,"lng":7.035101},"countryCode":"NL","name":"Winschoten","stationCode":"WS","uicCode":"8400696"},{"coordinate":{"lat":53.1844,"lng":7.19937},"countryCode":"NL","name":"Bad Nieuweschans","stationCode":"NSCH","uicCode":"8400457"},{"coordinate":{"lat":53.16311,"lng":7.3442},"countryCode":"D","name":"Weener","stationCode":"WR","uicCode":"8021239"},{"coordinate":{"lat":53.23165,"lng":7.465283},"countryCode":"D","name":"Leer (Ostfriesl)","stationCode":"LEER","uicCode":"8021091"}],"direction":"BOTH"},"consequence":{"section":{"stations":[{"coordinate":{"lat":53.1844,"lng":7.19937},"countryCode":"NL","name":"Bad Nieuweschans","stationCode":"NSCH","uicCode":"8400457"},{"coordinate":{"lat":53.16311,"lng":7.3442},"countryCode":"D","name":"Weener","stationCode":"WR","uicCode":"8021239"}],"direction":"ONE_WAY"},"description":"rijden bussen","level":"LESS_TRAINS"},"sectionType":"NEIGHBORING_COUNTRY"}],"summaryAdditionalTravelTime":{"label":"De extra reistijd kan oplopen tot 30 minuten.","shortLabel":"Extra reistijd tot 30 min.","maximumDurationInMinutes":30},"timespans":[{"start":"2024-02-01T04:00:00+0100","end":"2025-08-24T23:59:00+0200","period":"Donderdag 1 februari 4:00 uur t/m zondag 24 augustus 23:59 uur.","situation":{"label":"Door een aangepaste dienstregeling: tussen Bad Nieuweschans en Weener rijden er bussen."},"cause":{"label":"aangepaste dienstregeling"},"additionalTravelTime":{"label":"De extra reistijd kan oplopen tot 30 minuten.","shortLabel":"Extra reistijd tot 30 min.","maximumDurationInMinutes":30},"alternativeTransport":{"label":"er rijden stopbussen","shortLabel":"er rijden stopbussen"},"advices":["Op dit moment is er nog geen exacte einddatum bekend."]}],"alternativeTransportTimespans":[{"start":"2024-02-01T04:00:00+0100","end":"2025-08-24T23:59:00+0200","alternativeTransport":{"location":[{"station":{"coordinate":{"lat":53.1844,"lng":7.19937},"countryCode":"NL","name":"Bad Nieuweschans","stationCode":"NSCH","uicCode":"8400457"},"description":"vanaf de voorzijde van het station"},{"station":{"coordinate":{"lat":53.16311,"lng":7.3442},"countryCode":"D","name":"Weener","stationCode":"WR","uicCode":"8021239"},"description":"vanaf de voorzijde van het station"},{"station":{"coordinate":{"lat":53.23165,"lng":7.465283},"countryCode":"D","name":"Leer (Ostfriesl)","stationCode":"LEER","uicCode":"8021091"},"description":"vanaf het busstation"}],"label":"Er rijden stopbussen tussen Bad Nieuweschans, Weener en Leer (Ostfriesl).","shortLabel":"Er rijden stopbussen Bad Nieuweschans - Weener - Leer (Ostfr.)."}}]},{"type":"MAINTENANCE","id":"7005390","title":"Heerlen - Maastricht.","isActive":true,"local":false,"titleSections":[[{"type":"STATION","value":"Heerlen"},{"type":"ICON","value":"MAINTENANCE"},{"type":"STATION","value":"Maastricht"}]],"registrationTime":"2024-09-23T15:37:46+0200","start":"2024-09-16T07:00:00+0200","releaseTime":"2024-09-23T15:37:46+0200","end":"2024-11-03T19:30:00+0100","period":"Maandag 16 september 7:00 uur t/m zondag 3 november 19:30 uur.","impact":{"value":2},"publicationSections":[{"section":{"stations":[{"coordinate":{"lat":50.8908348083496,"lng":5.97499990463257},"countryCode":"NL","name":"Heerlen","stationCode":"HRL","uicCode":"8400307"},{"coordinate":{"lat":50.896667,"lng":5.952222},"countryCode":"NL","name":"Heerlen Woonboulevard","stationCode":"HRLW","uicCode":"8400404"},{"coordinate":{"lat":50.8872222900391,"lng":5.93027782440186},"countryCode":"NL","name":"Voerendaal","stationCode":"VDL","uicCode":"8400656"},{"coordinate":{"lat":50.8663902282715,"lng":5.8905553817749},"countryCode":"NL","name":"Klimmen-Ransdaal","stationCode":"KMR","uicCode":"8400362"},{"coordinate":{"lat":50.856388092041,"lng":5.87222242355347},"countryCode":"NL","name":"Schin op Geul","stationCode":"SOG","uicCode":"8400555"},{"coordinate":{"lat":50.8697204589844,"lng":5.83222198486328},"countryCode":"NL","name":"Valkenburg","stationCode":"VK","uicCode":"8400632"},{"coordinate":{"lat":50.8733329772949,"lng":5.79722213745117},"countryCode":"NL","name":"Houthem-St. Gerlach","stationCode":"SGL","uicCode":"8400341"},{"coordinate":{"lat":50.882879392551,"lng":5.75099945068359},"countryCode":"NL","name":"Meerssen","stationCode":"MES","uicCode":"8400434"},{"coordinate":{"lat":50.87087,"lng":5.71774},"countryCode":"NL","name":"Maastricht Noord","stationCode":"MTN","uicCode":"8400449"},{"coordinate":{"lat":50.8502769470215,"lng":5.70555543899536},"countryCode":"NL","name":"Maastricht","stationCode":"MT","uicCode":"8400424"}],"direction":"BOTH"},"consequence":{"section":{"stations":[{"coordinate":{"lat":50.8908348083496,"lng":5.97499990463257},"countryCode":"NL","name":"Heerlen","stationCode":"HRL","uicCode":"8400307"},{"coordinate":{"lat":50.896667,"lng":5.952222},"countryCode":"NL","name":"Heerlen Woonboulevard","stationCode":"HRLW","uicCode":"8400404"},{"coordinate":{"lat":50.8872222900391,"lng":5.93027782440186},"countryCode":"NL","name":"Voerendaal","stationCode":"VDL","uicCode":"8400656"},{"coordinate":{"lat":50.8663902282715,"lng":5.8905553817749},"countryCode":"NL","name":"Klimmen-Ransdaal","stationCode":"KMR","uicCode":"8400362"},{"coordinate":{"lat":50.856388092041,"lng":5.87222242355347},"countryCode":"NL","name":"Schin op Geul","stationCode":"SOG","uicCode":"8400555"},{"coordinate":{"lat":50.8697204589844,"lng":5.83222198486328},"countryCode":"NL","name":"Valkenburg","stationCode":"VK","uicCode":"8400632"},{"coordinate":{"lat":50.8733329772949,"lng":5.79722213745117},"countryCode":"NL","name":"Houthem-St. Gerlach","stationCode":"SGL","uicCode":"8400341"},{"coordinate":{"lat":50.882879392551,"lng":5.75099945068359},"countryCode":"NL","name":"Meerssen","stationCode":"MES","uicCode":"8400434"},{"coordinate":{"lat":50.87087,"lng":5.71774},"countryCode":"NL","name":"Maastricht Noord","stationCode":"MTN","uicCode":"8400449"},{"coordinate":{"lat":50.8502769470215,"lng":5.70555543899536},"countryCode":"NL","name":"Maastricht","stationCode":"MT","uicCode":"8400424"}],"direction":"ONE_WAY"},"description":"minder treinen","level":"LESS_TRAINS"},"sectionType":"NL"}],"summaryAdditionalTravelTime":{"label":"De extra reistijd is ongeveer 15 minuten.","shortLabel":"Extra reistijd 15 min.","minimumDurationInMinutes":15,"maximumDurationInMinutes":15},"timespans":[{"start":"2024-09-16T07:00:00+0200","end":"2024-11-03T19:30:00+0100","period":"Maandag 16 september 7:00 uur t/m zondag 3 november 19:30 uur.","situation":{"label":"Door een tekort aan personeel: tussen Heerlen en Maastricht rijden er minder treinen."},"cause":{"label":"tekort personeel"},"additionalTravelTime":{"label":"De extra reistijd is ongeveer 15 minuten.","shortLabel":"Extra reistijd 15 min.","minimumDurationInMinutes":15,"maximumDurationInMinutes":15},"alternativeTransport":{"label":"er rijden snelbussen","shortLabel":"er rijden snelbussen"},"advices":["Sneltreinen zijn (ma t/m za: 07.00-19.30u) en (zo: 13.00-19.30u) vervangen door Snelbussen. U kunt ook met een stoptrein eerder of later reizen."]}],"alternativeTransportTimespans":[{"start":"2024-09-16T07:00:00+0200","end":"2024-11-03T19:30:00+0100","alternativeTransport":{"location":[{"station":{"coordinate":{"lat":50.8908348083496,"lng":5.97499990463257},"countryCode":"NL","name":"Heerlen","stationCode":"HRL","uicCode":"8400307"},"description":"vanaf het busstation Perron A"},{"station":{"coordinate":{"lat":50.8502769470215,"lng":5.70555543899536},"countryCode":"NL","name":"Maastricht","stationCode":"MT","uicCode":"8400424"},"description":"vanaf de taxi-standplaats, centrumzijde"}],"label":"Er rijden snelbussen tussen Heerlen en Maastricht.","shortLabel":"Er rijden snelbussen Heerlen - Maastricht."}}]},{"type":"MAINTENANCE","id":"7005485","title":"Sittard - Heerlen; Sittard - Heerlen - Kerkrade.","isActive":true,"local":false,"titleSections":[[{"type":"STATION","value":"Sittard"},{"type":"ICON","value":"MAINTENANCE"},{"type":"STATION","value":"Heerlen"}],[{"type":"STATION","value":"Sittard"},{"type":"ICON","value":"MAINTENANCE"},{"type":"STATION","value":"Heerlen"},{"type":"STATION","value":"Kerkrade C."}]],"registrationTime":"2024-10-25T19:41:58+0200","start":"2024-09-24T10:00:00+0200","releaseTime":"2024-10-25T19:41:58+0200","end":"2024-11-04T01:00:00+0100","period":"Dinsdag 24 september 10:00 uur t/m maandag 4 november 1:00 uur.","impact":{"value":2},"publicationSections":[{"section":{"stations":[{"coordinate":{"lat":51.0016670227051,"lng":5.85861110687256},"countryCode":"NL","name":"Sittard","stationCode":"STD","uicCode":"8400564"},{"coordinate":{"lat":50.9669456481934,"lng":5.84305572509766},"countryCode":"NL","name":"Geleen Oost","stationCode":"GLN","uicCode":"8400246"},{"coordinate":{"lat":50.94327,"lng":5.850529},"countryCode":"NL","name":"Spaubeek","stationCode":"SBK","uicCode":"8400572"},{"coordinate":{"lat":50.9391670227051,"lng":5.87444448471069},"countryCode":"NL","name":"Schinnen","stationCode":"SN","uicCode":"8400554"},{"coordinate":{"lat":50.9194450378418,"lng":5.89277791976929},"countryCode":"NL","name":"Nuth","stationCode":"NH","uicCode":"8400467"},{"coordinate":{"lat":50.9055557250977,"lng":5.93055534362793},"countryCode":"NL","name":"Hoensbroek","stationCode":"HB","uicCode":"8400326"},{"coordinate":{"lat":50.8908348083496,"lng":5.97499990463257},"countryCode":"NL","name":"Heerlen","stationCode":"HRL","uicCode":"8400307"}],"direction":"BOTH"},"consequence":{"section":{"stations":[{"coordinate":{"lat":51.0016670227051,"lng":5.85861110687256},"countryCode":"NL","name":"Sittard","stationCode":"STD","uicCode":"8400564"},{"coordinate":{"lat":50.9669456481934,"lng":5.84305572509766},"countryCode":"NL","name":"Geleen Oost","stationCode":"GLN","uicCode":"8400246"},{"coordinate":{"lat":50.94327,"lng":5.850529},"countryCode":"NL","name":"Spaubeek","stationCode":"SBK","uicCode":"8400572"},{"coordinate":{"lat":50.9391670227051,"lng":5.87444448471069},"countryCode":"NL","name":"Schinnen","stationCode":"SN","uicCode":"8400554"},{"coordinate":{"lat":50.9194450378418,"lng":5.89277791976929},"countryCode":"NL","name":"Nuth","stationCode":"NH","uicCode":"8400467"},{"coordinate":{"lat":50.9055557250977,"lng":5.93055534362793},"countryCode":"NL","name":"Hoensbroek","stationCode":"HB","uicCode":"8400326"},{"coordinate":{"lat":50.8908348083496,"lng":5.97499990463257},"countryCode":"NL","name":"Heerlen","stationCode":"HRL","uicCode":"8400307"}],"direction":"ONE_WAY"},"description":"minder stoptreinen","level":"LESS_TRAINS"},"sectionType":"NL"},{"section":{"stations":[{"coordinate":{"lat":51.0016670227051,"lng":5.85861110687256},"countryCode":"NL","name":"Sittard","stationCode":"STD","uicCode":"8400564"},{"coordinate":{"lat":50.9669456481934,"lng":5.84305572509766},"countryCode":"NL","name":"Geleen Oost","stationCode":"GLN","uicCode":"8400246"},{"coordinate":{"lat":50.94327,"lng":5.850529},"countryCode":"NL","name":"Spaubeek","stationCode":"SBK","uicCode":"8400572"},{"coordinate":{"lat":50.9391670227051,"lng":5.87444448471069},"countryCode":"NL","name":"Schinnen","stationCode":"SN","uicCode":"8400554"},{"coordinate":{"lat":50.9194450378418,"lng":5.89277791976929},"countryCode":"NL","name":"Nuth","stationCode":"NH","uicCode":"8400467"},{"coordinate":{"lat":50.9055557250977,"lng":5.93055534362793},"countryCode":"NL","name":"Hoensbroek","stationCode":"HB","uicCode":"8400326"},{"coordinate":{"lat":50.8908348083496,"lng":5.97499990463257},"countryCode":"NL","name":"Heerlen","stationCode":"HRL","uicCode":"8400307"},{"coordinate":{"lat":50.8963890075684,"lng":6.01916646957398},"countryCode":"NL","name":"Landgraaf","stationCode":"LG","uicCode":"8400548"},{"coordinate":{"lat":50.8905563354492,"lng":6.04500007629395},"countryCode":"NL","name":"Eygelshoven","stationCode":"EGH","uicCode":"8400338"},{"coordinate":{"lat":50.8761100769043,"lng":6.05972242355347},"countryCode":"NL","name":"Chevremont","stationCode":"CVM","uicCode":"8400152"},{"coordinate":{"lat":50.8616676330566,"lng":6.05749988555908},"countryCode":"NL","name":"Kerkrade Centrum","stationCode":"KRD","uicCode":"8400355"}],"direction":"BOTH"},"consequence":{"section":{"stations":[{"coordinate":{"lat":51.0016670227051,"lng":5.85861110687256},"countryCode":"NL","name":"Sittard","stationCode":"STD","uicCode":"8400564"},{"coordinate":{"lat":50.9669456481934,"lng":5.84305572509766},"countryCode":"NL","name":"Geleen Oost","stationCode":"GLN","uicCode":"8400246"},{"coordinate":{"lat":50.94327,"lng":5.850529},"countryCode":"NL","name":"Spaubeek","stationCode":"SBK","uicCode":"8400572"},{"coordinate":{"lat":50.9391670227051,"lng":5.87444448471069},"countryCode":"NL","name":"Schinnen","stationCode":"SN","uicCode":"8400554"},{"coordinate":{"lat":50.9194450378418,"lng":5.89277791976929},"countryCode":"NL","name":"Nuth","stationCode":"NH","uicCode":"8400467"},{"coordinate":{"lat":50.9055557250977,"lng":5.93055534362793},"countryCode":"NL","name":"Hoensbroek","stationCode":"HB","uicCode":"8400326"},{"coordinate":{"lat":50.8908348083496,"lng":5.97499990463257},"countryCode":"NL","name":"Heerlen","stationCode":"HRL","uicCode":"8400307"}],"direction":"ONE_WAY"},"description":"minder stoptreinen","level":"LESS_TRAINS"},"sectionType":"NL"}],"summaryAdditionalTravelTime":{"label":"U heeft geen langere reistijd.","shortLabel":"Geen extra reistijd."},"timespans":[{"start":"2024-09-24T10:00:00+0200","end":"2024-11-04T01:00:00+0100","period":"Dinsdag 24 september 10:00 uur t/m maandag 4 november 1:00 uur.","situation":{"label":"Door een tekort aan personeel: tussen Sittard en Heerlen rijden er minder stoptreinen."},"cause":{"label":"tekort personeel"},"additionalTravelTime":{"label":"U heeft geen langere reistijd.","shortLabel":"Geen extra reistijd."},"advices":[]}],"alternativeTransportTimespans":[]},{"type":"MAINTENANCE","id":"7005482","title":"Den Haag - Rotterdam.","isActive":true,"local":false,"titleSections":[[{"type":"STATION","value":"Den Haag HS"},{"type":"STATION","value":"Delft Campus"},{"type":"ICON","value":"MAINTENANCE"},{"type":"STATION","value":"Rotterdam C."}],[{"type":"STATION","value":"Den Haag HS"},{"type":"ICON","value":"MAINTENANCE"},{"type":"STATION","value":"Rotterdam C."}]],"registrationTime":"2024-10-27T11:37:33+0100","start":"2024-10-22T01:00:00+0200","releaseTime":"2024-10-27T11:37:33+0100","end":"2024-11-04T05:00:00+0100","period":"Dinsdag 22 oktober 1:00 uur t/m maandag 4 november 5:00 uur.","impact":{"value":5},"publicationSections":[{"section":{"stations":[{"coordinate":{"lat":52.0697212219238,"lng":4.32250022888184},"countryCode":"NL","name":"Den Haag HS","stationCode":"GV","uicCode":"8400280"},{"coordinate":{"lat":52.0538902282715,"lng":4.3086109161377},"countryCode":"NL","name":"Den Haag Moerwijk","stationCode":"GVMW","uicCode":"8400279"},{"coordinate":{"lat":52.039722442627,"lng":4.31916666030884},"countryCode":"NL","name":"Rijswijk","stationCode":"RSW","uicCode":"8400505"},{"coordinate":{"lat":52.0066680908203,"lng":4.35638904571533},"countryCode":"NL","name":"Delft","stationCode":"DT","uicCode":"8400170"},{"coordinate":{"lat":51.9908332824707,"lng":4.36472225189209},"countryCode":"NL","name":"Delft Campus","stationCode":"DTCP","uicCode":"8400166"},{"coordinate":{"lat":51.9212438128032,"lng":4.4089937210083},"countryCode":"NL","name":"Schiedam Centrum","stationCode":"SDM","uicCode":"8400553"},{"coordinate":{"lat":51.9249992370605,"lng":4.46888875961304},"countryCode":"NL","name":"Rotterdam Centraal","stationCode":"RTD","uicCode":"8400530"}],"direction":"BOTH"},"consequence":{"section":{"stations":[{"coordinate":{"lat":51.9908332824707,"lng":4.36472225189209},"countryCode":"NL","name":"Delft Campus","stationCode":"DTCP","uicCode":"8400166"},{"coordinate":{"lat":51.9212438128032,"lng":4.4089937210083},"countryCode":"NL","name":"Schiedam Centrum","stationCode":"SDM","uicCode":"8400553"},{"coordinate":{"lat":51.9249992370605,"lng":4.46888875961304},"countryCode":"NL","name":"Rotterdam Centraal","stationCode":"RTD","uicCode":"8400530"}],"direction":"ONE_WAY"},"description":"vervangend vervoer","level":"LESS_TRAINS"},"sectionType":"NL"},{"section":{"stations":[{"coordinate":{"lat":52.0697212219238,"lng":4.32250022888184},"countryCode":"NL","name":"Den Haag HS","stationCode":"GV","uicCode":"8400280"},{"coordinate":{"lat":52.0538902282715,"lng":4.3086109161377},"countryCode":"NL","name":"Den Haag Moerwijk","stationCode":"GVMW","uicCode":"8400279"},{"coordinate":{"lat":52.039722442627,"lng":4.31916666030884},"countryCode":"NL","name":"Rijswijk","stationCode":"RSW","uicCode":"8400505"},{"coordinate":{"lat":52.0066680908203,"lng":4.35638904571533},"countryCode":"NL","name":"Delft","stationCode":"DT","uicCode":"8400170"},{"coordinate":{"lat":51.9908332824707,"lng":4.36472225189209},"countryCode":"NL","name":"Delft Campus","stationCode":"DTCP","uicCode":"8400166"},{"coordinate":{"lat":51.9212438128032,"lng":4.4089937210083},"countryCode":"NL","name":"Schiedam Centrum","stationCode":"SDM","uicCode":"8400553"},{"coordinate":{"lat":51.9249992370605,"lng":4.46888875961304},"countryCode":"NL","name":"Rotterdam Centraal","stationCode":"RTD","uicCode":"8400530"}],"direction":"BOTH"},"consequence":{"section":{"stations":[{"coordinate":{"lat":52.0697212219238,"lng":4.32250022888184},"countryCode":"NL","name":"Den Haag HS","stationCode":"GV","uicCode":"8400280"},{"coordinate":{"lat":52.0538902282715,"lng":4.3086109161377},"countryCode":"NL","name":"Den Haag Moerwijk","stationCode":"GVMW","uicCode":"8400279"},{"coordinate":{"lat":52.039722442627,"lng":4.31916666030884},"countryCode":"NL","name":"Rijswijk","stationCode":"RSW","uicCode":"8400505"},{"coordinate":{"lat":52.0066680908203,"lng":4.35638904571533},"countryCode":"NL","name":"Delft","stationCode":"DT","uicCode":"8400170"},{"coordinate":{"lat":51.9908332824707,"lng":4.36472225189209},"countryCode":"NL","name":"Delft Campus","stationCode":"DTCP","uicCode":"8400166"},{"coordinate":{"lat":51.9212438128032,"lng":4.4089937210083},"countryCode":"NL","name":"Schiedam Centrum","stationCode":"SDM","uicCode":"8400553"},{"coordinate":{"lat":51.9249992370605,"lng":4.46888875961304},"countryCode":"NL","name":"Rotterdam Centraal","stationCode":"RTD","uicCode":"8400530"}],"direction":"ONE_WAY"},"description":"vervangend vervoer","level":"LESS_TRAINS"},"sectionType":"NL"}],"summaryAdditionalTravelTime":{"label":"De extra reistijd kan oplopen tot 45 minuten.","shortLabel":"Extra reistijd tot 45 min.","minimumDurationInMinutes":45,"maximumDurationInMinutes":45},"timespans":[{"start":"2024-10-22T01:00:00+0200","end":"2024-11-02T01:00:00+0100","period":"Dinsdag 22 oktober 1:00 uur t/m zaterdag 2 november 1:00 uur.","situation":{"label":"Door werkzaamheden: tussen Delft Campus en Rotterdam Centraal rijdt er vervangend vervoer."},"cause":{"label":"werkzaamheden"},"additionalTravelTime":{"label":"De extra reistijd is ongeveer 30 minuten.","shortLabel":"Extra reistijd 30 min.","minimumDurationInMinutes":30,"maximumDurationInMinutes":30},"alternativeTransport":{"label":"maak gebruik van het vervangende vervoer","shortLabel":"gebruik het vervangende vervoer"},"advices":["Reis tussen Rotterdam C en Delft Campus via Rotterdam Blaak en met metro tussen Blaak en Schiedam C. Uw NS-vervoerbewijs is geldig op deze metrolijn.","Tussen Rotterdam C. en Delft reis via Blaak en Schiedam C.","Tussen Den Haag C. en Rotterdam C. reis via Gouda."]},{"start":"2024-11-02T01:00:00+0100","end":"2024-11-04T05:00:00+0100","period":"Zaterdag 2 november 1:00 uur t/m maandag 4 november 5:00 uur.","situation":{"label":"Door werkzaamheden: tussen Den Haag HS en Rotterdam Centraal rijdt er vervangend vervoer."},"cause":{"label":"werkzaamheden"},"additionalTravelTime":{"label":"De extra reistijd is ongeveer 45 minuten.","shortLabel":"Extra reistijd 45 min.","minimumDurationInMinutes":45,"maximumDurationInMinutes":45},"alternativeTransport":{"label":"maak gebruik van het vervangende vervoer","shortLabel":"gebruik het vervangende vervoer"},"advices":["Reis tussen Rotterdam C en Delft Campus via Rotterdam Blaak en met metro tussen Blaak en Schiedam C. Uw NS-vervoerbewijs is geldig op deze metrolijn.","Tussen Den Haag C. en Rotterdam C. reis via Gouda.","Tussen Rotterdam C. en Delft reis via Blaak en Schiedam C."]}],"alternativeTransportTimespans":[{"start":"2024-10-22T01:00:00+0200","end":"2024-10-22T05:00:00+0200","alternativeTransport":{"location":[{"station":{"coordinate":{"lat":52.0697212219238,"lng":4.32250022888184},"countryCode":"NL","name":"Den Haag HS","stationCode":"GV","uicCode":"8400280"},"description":"vanaf de achterzijde van het station"},{"station":{"coordinate":{"lat":52.0066680908203,"lng":4.35638904571533},"countryCode":"NL","name":"Delft","stationCode":"DT","uicCode":"8400170"},"description":"vanaf de voorzijde van het station, aan de Coenderstraat"}],"label":"Er rijden snelbussen tussen Den Haag HS en Delft.","shortLabel":"Er rijden snelbussen Den Haag HS - Delft."}},{"start":"2024-10-22T01:00:00+0200","end":"2024-10-22T05:00:00+0200","alternativeTransport":{"location":[{"station":{"coordinate":{"lat":51.9249992370605,"lng":4.46888875961304},"countryCode":"NL","name":"Rotterdam Centraal","stationCode":"RTD","uicCode":"8400530"},"description":"vanaf de Conradstraat aan de centrumzijde"},{"station":{"coordinate":{"lat":52.0066680908203,"lng":4.35638904571533},"countryCode":"NL","name":"Delft","stationCode":"DT","uicCode":"8400170"},"description":"vanaf de voorzijde van het station, aan de Coenderstraat"}],"label":"Er rijden snelbussen tussen Rotterdam Centraal en Delft.","shortLabel":"Er rijden snelbussen Rotterdam C. - Delft."}},{"start":"2024-10-22T05:00:00+0200","end":"2024-10-23T01:00:00+0200","alternativeTransport":{"location":[{"station":{"coordinate":{"lat":51.9908332824707,"lng":4.36472225189209},"countryCode":"NL","name":"Delft Campus","stationCode":"DTCP","uicCode":"8400166"},"description":"vanaf het Stationsplein"},{"station":{"coordinate":{"lat":51.9212438128032,"lng":4.4089937210083},"countryCode":"NL","name":"Schiedam Centrum","stationCode":"SDM","uicCode":"8400553"},"description":"vanaf de Horvathweg"}],"label":"Er rijden stopbussen tussen Delft Campus en Schiedam Centrum.","shortLabel":"Er rijden stopbussen Delft Campus - Schiedam C."}},{"start":"2024-10-22T05:00:00+0200","end":"2024-10-23T01:00:00+0200","alternativeTransport":{"location":[{"station":{"coordinate":{"lat":51.9212438128032,"lng":4.4089937210083},"countryCode":"NL","name":"Schiedam Centrum","stationCode":"SDM","uicCode":"8400553"},"description":"volg de aanwijzingen op het station"},{"station":{"coordinate":{"lat":51.9202766418457,"lng":4.48888874053955},"countryCode":"NL","name":"Rotterdam Blaak","stationCode":"RTB","uicCode":"8400529"},"description":"volg de aanwijzingen op het station"}],"label":"Maak gebruik van de Rotterdamse metro tussen Schiedam Centrum en Rotterdam Blaak.","shortLabel":"Gebruik de Rotterdamse metro Schiedam C. - Blaak."}},{"start":"2024-10-23T01:00:00+0200","end":"2024-10-23T05:00:00+0200","alternativeTransport":{"location":[{"station":{"coordinate":{"lat":52.0697212219238,"lng":4.32250022888184},"countryCode":"NL","name":"Den Haag HS","stationCode":"GV","uicCode":"8400280"},"description":"vanaf de achterzijde van het station"},{"station":{"coordinate":{"lat":52.0066680908203,"lng":4.35638904571533},"countryCode":"NL","name":"Delft","stationCode":"DT","uicCode":"8400170"},"description":"vanaf de voorzijde van het station, aan de Coenderstraat"}],"label":"Er rijden snelbussen tussen Den Haag HS en Delft.","shortLabel":"Er rijden snelbussen Den Haag HS - Delft."}},{"start":"2024-10-23T01:00:00+0200","end":"2024-10-23T05:00:00+0200","alternativeTransport":{"location":[{"station":{"coordinate":{"lat":51.9249992370605,"lng":4.46888875961304},"countryCode":"NL","name":"Rotterdam Centraal","stationCode":"RTD","uicCode":"8400530"},"description":"vanaf de Conradstraat aan de centrumzijde"},{"station":{"coordinate":{"lat":52.0066680908203,"lng":4.35638904571533},"countryCode":"NL","name":"Delft","stationCode":"DT","uicCode":"8400170"},"description":"vanaf de voorzijde van het station, aan de Coenderstraat"}],"label":"Er rijden snelbussen tussen Rotterdam Centraal en Delft.","shortLabel":"Er rijden snelbussen Rotterdam C. - Delft."}},{"start":"2024-10-23T05:00:00+0200","end":"2024-10-24T01:00:00+0200","alternativeTransport":{"location":[{"station":{"coordinate":{"lat":51.9908332824707,"lng":4.36472225189209},"countryCode":"NL","name":"Delft Campus","stationCode":"DTCP","uicCode":"8400166"},"description":"vanaf het Stationsplein"},{"station":{"coordinate":{"lat":51.9212438128032,"lng":4.4089937210083},"countryCode":"NL","name":"Schiedam Centrum","stationCode":"SDM","uicCode":"8400553"},"description":"vanaf de Horvathweg"}],"label":"Er rijden stopbussen tussen Delft Campus en Schiedam Centrum.","shortLabel":"Er rijden stopbussen Delft Campus - Schiedam C."}},{"start":"2024-10-23T05:00:00+0200","end":"2024-10-24T01:00:00+0200","alternativeTransport":{"location":[{"station":{"coordinate":{"lat":51.9212438128032,"lng":4.4089937210083},"countryCode":"NL","name":"Schiedam Centrum","stationCode":"SDM","uicCode":"8400553"},"description":"volg de aanwijzingen op het station"},{"station":{"coordinate":{"lat":51.9202766418457,"lng":4.48888874053955},"countryCode":"NL","name":"Rotterdam Blaak","stationCode":"RTB","uicCode":"8400529"},"description":"volg de aanwijzingen op het station"}],"label":"Maak gebruik van de Rotterdamse metro tussen Schiedam Centrum en Rotterdam Blaak.","shortLabel":"Gebruik de Rotterdamse metro Schiedam C. - Blaak."}},{"start":"2024-10-24T01:00:00+0200","end":"2024-10-24T05:00:00+0200","alternativeTransport":{"location":[{"station":{"coordinate":{"lat":52.0697212219238,"lng":4.32250022888184},"countryCode":"NL","name":"Den Haag HS","stationCode":"GV","uicCode":"8400280"},"description":"vanaf de achterzijde van het station"},{"station":{"coordinate":{"lat":52.0066680908203,"lng":4.35638904571533},"countryCode":"NL","name":"Delft","stationCode":"DT","uicCode":"8400170"},"description":"vanaf de voorzijde van het station, aan de Coenderstraat"}],"label":"Er rijden snelbussen tussen Den Haag HS en Delft.","shortLabel":"Er rijden snelbussen Den Haag HS - Delft."}},{"start":"2024-10-24T01:00:00+0200","end":"2024-10-24T05:00:00+0200","alternativeTransport":{"location":[{"station":{"coordinate":{"lat":51.9249992370605,"lng":4.46888875961304},"countryCode":"NL","name":"Rotterdam Centraal","stationCode":"RTD","uicCode":"8400530"},"description":"vanaf de Conradstraat aan de centrumzijde"},{"station":{"coordinate":{"lat":52.0066680908203,"lng":4.35638904571533},"countryCode":"NL","name":"Delft","stationCode":"DT","uicCode":"8400170"},"description":"vanaf de voorzijde van het station, aan de Coenderstraat"}],"label":"Er rijden snelbussen tussen Rotterdam Centraal en Delft.","shortLabel":"Er rijden snelbussen Rotterdam C. - Delft."}},{"start":"2024-10-24T05:00:00+0200","end":"2024-10-25T01:00:00+0200","alternativeTransport":{"location":[{"station":{"coordinate":{"lat":51.9908332824707,"lng":4.36472225189209},"countryCode":"NL","name":"Delft Campus","stationCode":"DTCP","uicCode":"8400166"},"description":"vanaf het Stationsplein"},{"station":{"coordinate":{"lat":51.9212438128032,"lng":4.4089937210083},"countryCode":"NL","name":"Schiedam Centrum","stationCode":"SDM","uicCode":"8400553"},"description":"vanaf de Horvathweg"}],"label":"Er rijden stopbussen tussen Delft Campus en Schiedam Centrum.","shortLabel":"Er rijden stopbussen Delft Campus - Schiedam C."}},{"start":"2024-10-24T05:00:00+0200","end":"2024-10-25T01:00:00+0200","alternativeTransport":{"location":[{"station":{"coordinate":{"lat":51.9212438128032,"lng":4.4089937210083},"countryCode":"NL","name":"Schiedam Centrum","stationCode":"SDM","uicCode":"8400553"},"description":"volg de aanwijzingen op het station"},{"station":{"coordinate":{"lat":51.9202766418457,"lng":4.48888874053955},"countryCode":"NL","name":"Rotterdam Blaak","stationCode":"RTB","uicCode":"8400529"},"description":"volg de aanwijzingen op het station"}],"label":"Maak gebruik van de Rotterdamse metro tussen Schiedam Centrum en Rotterdam Blaak.","shortLabel":"Gebruik de Rotterdamse metro Schiedam C. - Blaak."}},{"start":"2024-10-25T01:00:00+0200","end":"2024-10-25T05:00:00+0200","alternativeTransport":{"location":[{"station":{"coordinate":{"lat":52.0697212219238,"lng":4.32250022888184},"countryCode":"NL","name":"Den Haag HS","stationCode":"GV","uicCode":"8400280"},"description":"vanaf de achterzijde van het station"},{"station":{"coordinate":{"lat":52.0066680908203,"lng":4.35638904571533},"countryCode":"NL","name":"Delft","stationCode":"DT","uicCode":"8400170"},"description":"vanaf de voorzijde van het station, aan de Coenderstraat"}],"label":"Er rijden snelbussen tussen Den Haag HS en Delft.","shortLabel":"Er rijden snelbussen Den Haag HS - Delft."}},{"start":"2024-10-25T01:00:00+0200","end":"2024-10-25T05:00:00+0200","alternativeTransport":{"location":[{"station":{"coordinate":{"lat":51.9249992370605,"lng":4.46888875961304},"countryCode":"NL","name":"Rotterdam Centraal","stationCode":"RTD","uicCode":"8400530"},"description":"vanaf de Conradstraat aan de centrumzijde"},{"station":{"coordinate":{"lat":52.0066680908203,"lng":4.35638904571533},"countryCode":"NL","name":"Delft","stationCode":"DT","uicCode":"8400170"},"description":"vanaf de voorzijde van het station, aan de Coenderstraat"}],"label":"Er rijden snelbussen tussen Rotterdam Centraal en Delft.","shortLabel":"Er rijden snelbussen Rotterdam C. - Delft."}},{"start":"2024-10-25T05:00:00+0200","end":"2024-10-26T01:00:00+0200","alternativeTransport":{"location":[{"station":{"coordinate":{"lat":51.9908332824707,"lng":4.36472225189209},"countryCode":"NL","name":"Delft Campus","stationCode":"DTCP","uicCode":"8400166"},"description":"vanaf het Stationsplein"},{"station":{"coordinate":{"lat":51.9212438128032,"lng":4.4089937210083},"countryCode":"NL","name":"Schiedam Centrum","stationCode":"SDM","uicCode":"8400553"},"description":"vanaf de Horvathweg"}],"label":"Er rijden stopbussen tussen Delft Campus en Schiedam Centrum.","shortLabel":"Er rijden stopbussen Delft Campus - Schiedam C."}},{"start":"2024-10-25T05:00:00+0200","end":"2024-10-26T01:00:00+0200","alternativeTransport":{"location":[{"station":{"coordinate":{"lat":51.9212438128032,"lng":4.4089937210083},"countryCode":"NL","name":"Schiedam Centrum","stationCode":"SDM","uicCode":"8400553"},"description":"volg de aanwijzingen op het station"},{"station":{"coordinate":{"lat":51.9202766418457,"lng":4.48888874053955},"countryCode":"NL","name":"Rotterdam Blaak","stationCode":"RTB","uicCode":"8400529"},"description":"volg de aanwijzingen op het station"}],"label":"Maak gebruik van de Rotterdamse metro tussen Schiedam Centrum en Rotterdam Blaak.","shortLabel":"Gebruik de Rotterdamse metro Schiedam C. - Blaak."}},{"start":"2024-10-26T01:00:00+0200","end":"2024-10-26T06:00:00+0200","alternativeTransport":{"location":[{"station":{"coordinate":{"lat":51.9249992370605,"lng":4.46888875961304},"countryCode":"NL","name":"Rotterdam Centraal","stationCode":"RTD","uicCode":"8400530"},"description":"vanaf de Conradstraat aan de centrumzijde"},{"station":{"coordinate":{"lat":52.0066680908203,"lng":4.35638904571533},"countryCode":"NL","name":"Delft","stationCode":"DT","uicCode":"8400170"},"description":"vanaf de voorzijde van het station, aan de Coenderstraat"}],"label":"Er rijden snelbussen tussen Rotterdam Centraal en Delft.","shortLabel":"Er rijden snelbussen Rotterdam C. - Delft."}},{"start":"2024-10-26T06:00:00+0200","end":"2024-10-27T01:00:00+0200","alternativeTransport":{"location":[{"station":{"coordinate":{"lat":51.9908332824707,"lng":4.36472225189209},"countryCode":"NL","name":"Delft Campus","stationCode":"DTCP","uicCode":"8400166"},"description":"vanaf het Stationsplein"},{"station":{"coordinate":{"lat":51.9212438128032,"lng":4.4089937210083},"countryCode":"NL","name":"Schiedam Centrum","stationCode":"SDM","uicCode":"8400553"},"description":"vanaf de Horvathweg"}],"label":"Er rijden stopbussen tussen Delft Campus en Schiedam Centrum.","shortLabel":"Er rijden stopbussen Delft Campus - Schiedam C."}},{"start":"2024-10-26T06:00:00+0200","end":"2024-10-27T01:00:00+0200","alternativeTransport":{"location":[{"station":{"coordinate":{"lat":51.9212438128032,"lng":4.4089937210083},"countryCode":"NL","name":"Schiedam Centrum","stationCode":"SDM","uicCode":"8400553"},"description":"volg de aanwijzingen op het station"},{"station":{"coordinate":{"lat":51.9202766418457,"lng":4.48888874053955},"countryCode":"NL","name":"Rotterdam Blaak","stationCode":"RTB","uicCode":"8400529"},"description":"volg de aanwijzingen op het station"}],"label":"Maak gebruik van de Rotterdamse metro tussen Schiedam Centrum en Rotterdam Blaak.","shortLabel":"Gebruik de Rotterdamse metro Schiedam C. - Blaak."}},{"start":"2024-10-27T01:00:00+0200","end":"2024-10-27T06:00:00+0100","alternativeTransport":{"location":[{"station":{"coordinate":{"lat":51.9249992370605,"lng":4.46888875961304},"countryCode":"NL","name":"Rotterdam Centraal","stationCode":"RTD","uicCode":"8400530"},"description":"vanaf de Conradstraat aan de centrumzijde"},{"station":{"coordinate":{"lat":52.0066680908203,"lng":4.35638904571533},"countryCode":"NL","name":"Delft","stationCode":"DT","uicCode":"8400170"},"description":"vanaf de voorzijde van het station, aan de Coenderstraat"}],"label":"Er rijden snelbussen tussen Rotterdam Centraal en Delft.","shortLabel":"Er rijden snelbussen Rotterdam C. - Delft."}},{"start":"2024-10-27T06:00:00+0100","end":"2024-10-28T01:00:00+0100","alternativeTransport":{"location":[{"station":{"coordinate":{"lat":51.9908332824707,"lng":4.36472225189209},"countryCode":"NL","name":"Delft Campus","stationCode":"DTCP","uicCode":"8400166"},"description":"vanaf het Stationsplein"},{"station":{"coordinate":{"lat":51.9212438128032,"lng":4.4089937210083},"countryCode":"NL","name":"Schiedam Centrum","stationCode":"SDM","uicCode":"8400553"},"description":"vanaf de Horvathweg"}],"label":"Er rijden stopbussen tussen Delft Campus en Schiedam Centrum.","shortLabel":"Er rijden stopbussen Delft Campus - Schiedam C."}},{"start":"2024-10-27T06:00:00+0100","end":"2024-10-28T01:00:00+0100","alternativeTransport":{"location":[{"station":{"coordinate":{"lat":51.9212438128032,"lng":4.4089937210083},"countryCode":"NL","name":"Schiedam Centrum","stationCode":"SDM","uicCode":"8400553"},"description":"volg de aanwijzingen op het station"},{"station":{"coordinate":{"lat":51.9202766418457,"lng":4.48888874053955},"countryCode":"NL","name":"Rotterdam Blaak","stationCode":"RTB","uicCode":"8400529"},"description":"volg de aanwijzingen op het station"}],"label":"Maak gebruik van de Rotterdamse metro tussen Schiedam Centrum en Rotterdam Blaak.","shortLabel":"Gebruik de Rotterdamse metro Schiedam C. - Blaak."}},{"start":"2024-10-28T01:00:00+0100","end":"2024-10-28T05:00:00+0100","alternativeTransport":{"location":[{"station":{"coordinate":{"lat":51.9249992370605,"lng":4.46888875961304},"countryCode":"NL","name":"Rotterdam Centraal","stationCode":"RTD","uicCode":"8400530"},"description":"vanaf de Conradstraat aan de centrumzijde"},{"station":{"coordinate":{"lat":52.0066680908203,"lng":4.35638904571533},"countryCode":"NL","name":"Delft","stationCode":"DT","uicCode":"8400170"},"description":"vanaf de voorzijde van het station, aan de Coenderstraat"}],"label":"Er rijden snelbussen tussen Rotterdam Centraal en Delft.","shortLabel":"Er rijden snelbussen Rotterdam C. - Delft."}},{"start":"2024-10-28T05:00:00+0100","end":"2024-10-29T01:00:00+0100","alternativeTransport":{"location":[{"station":{"coordinate":{"lat":51.9908332824707,"lng":4.36472225189209},"countryCode":"NL","name":"Delft Campus","stationCode":"DTCP","uicCode":"8400166"},"description":"vanaf het Stationsplein"},{"station":{"coordinate":{"lat":51.9212438128032,"lng":4.4089937210083},"countryCode":"NL","name":"Schiedam Centrum","stationCode":"SDM","uicCode":"8400553"},"description":"vanaf de Horvathweg"}],"label":"Er rijden stopbussen tussen Delft Campus en Schiedam Centrum.","shortLabel":"Er rijden stopbussen Delft Campus - Schiedam C."}},{"start":"2024-10-28T05:00:00+0100","end":"2024-10-29T01:00:00+0100","alternativeTransport":{"location":[{"station":{"coordinate":{"lat":51.9212438128032,"lng":4.4089937210083},"countryCode":"NL","name":"Schiedam Centrum","stationCode":"SDM","uicCode":"8400553"},"description":"volg de aanwijzingen op het station"},{"station":{"coordinate":{"lat":51.9202766418457,"lng":4.48888874053955},"countryCode":"NL","name":"Rotterdam Blaak","stationCode":"RTB","uicCode":"8400529"},"description":"volg de aanwijzingen op het station"}],"label":"Maak gebruik van de Rotterdamse metro tussen Schiedam Centrum en Rotterdam Blaak.","shortLabel":"Gebruik de Rotterdamse metro Schiedam C. - Blaak."}},{"start":"2024-10-29T01:00:00+0100","end":"2024-10-29T05:00:00+0100","alternativeTransport":{"location":[{"station":{"coordinate":{"lat":52.0697212219238,"lng":4.32250022888184},"countryCode":"NL","name":"Den Haag HS","stationCode":"GV","uicCode":"8400280"},"description":"vanaf de achterzijde van het station"},{"station":{"coordinate":{"lat":52.0066680908203,"lng":4.35638904571533},"countryCode":"NL","name":"Delft","stationCode":"DT","uicCode":"8400170"},"description":"vanaf de voorzijde van het station, aan de Coenderstraat"}],"label":"Er rijden snelbussen tussen Den Haag HS en Delft.","shortLabel":"Er rijden snelbussen Den Haag HS - Delft."}},{"start":"2024-10-29T01:00:00+0100","end":"2024-10-29T05:00:00+0100","alternativeTransport":{"location":[{"station":{"coordinate":{"lat":51.9249992370605,"lng":4.46888875961304},"countryCode":"NL","name":"Rotterdam Centraal","stationCode":"RTD","uicCode":"8400530"},"description":"vanaf de Conradstraat aan de centrumzijde"},{"station":{"coordinate":{"lat":52.0066680908203,"lng":4.35638904571533},"countryCode":"NL","name":"Delft","stationCode":"DT","uicCode":"8400170"},"description":"vanaf de voorzijde van het station, aan de Coenderstraat"}],"label":"Er rijden snelbussen tussen Rotterdam Centraal en Delft.","shortLabel":"Er rijden snelbussen Rotterdam C. - Delft."}},{"start":"2024-10-29T05:00:00+0100","end":"2024-10-30T01:00:00+0100","alternativeTransport":{"location":[{"station":{"coordinate":{"lat":51.9908332824707,"lng":4.36472225189209},"countryCode":"NL","name":"Delft Campus","stationCode":"DTCP","uicCode":"8400166"},"description":"vanaf het Stationsplein"},{"station":{"coordinate":{"lat":51.9212438128032,"lng":4.4089937210083},"countryCode":"NL","name":"Schiedam Centrum","stationCode":"SDM","uicCode":"8400553"},"description":"vanaf de Horvathweg"}],"label":"Er rijden stopbussen tussen Delft Campus en Schiedam Centrum.","shortLabel":"Er rijden stopbussen Delft Campus - Schiedam C."}},{"start":"2024-10-29T05:00:00+0100","end":"2024-10-30T01:00:00+0100","alternativeTransport":{"location":[{"station":{"coordinate":{"lat":51.9212438128032,"lng":4.4089937210083},"countryCode":"NL","name":"Schiedam Centrum","stationCode":"SDM","uicCode":"8400553"},"description":"volg de aanwijzingen op het station"},{"station":{"coordinate":{"lat":51.9202766418457,"lng":4.48888874053955},"countryCode":"NL","name":"Rotterdam Blaak","stationCode":"RTB","uicCode":"8400529"},"description":"volg de aanwijzingen op het station"}],"label":"Maak gebruik van de Rotterdamse metro tussen Schiedam Centrum en Rotterdam Blaak.","shortLabel":"Gebruik de Rotterdamse metro Schiedam C. - Blaak."}},{"start":"2024-10-30T01:00:00+0100","end":"2024-10-30T05:00:00+0100","alternativeTransport":{"location":[{"station":{"coordinate":{"lat":52.0697212219238,"lng":4.32250022888184},"countryCode":"NL","name":"Den Haag HS","stationCode":"GV","uicCode":"8400280"},"description":"vanaf de achterzijde van het station"},{"station":{"coordinate":{"lat":52.0066680908203,"lng":4.35638904571533},"countryCode":"NL","name":"Delft","stationCode":"DT","uicCode":"8400170"},"description":"vanaf de voorzijde van het station, aan de Coenderstraat"}],"label":"Er rijden snelbussen tussen Den Haag HS en Delft.","shortLabel":"Er rijden snelbussen Den Haag HS - Delft."}},{"start":"2024-10-30T01:00:00+0100","end":"2024-10-30T05:00:00+0100","alternativeTransport":{"location":[{"station":{"coordinate":{"lat":51.9249992370605,"lng":4.46888875961304},"countryCode":"NL","name":"Rotterdam Centraal","stationCode":"RTD","uicCode":"8400530"},"description":"vanaf de Conradstraat aan de centrumzijde"},{"station":{"coordinate":{"lat":52.0066680908203,"lng":4.35638904571533},"countryCode":"NL","name":"Delft","stationCode":"DT","uicCode":"8400170"},"description":"vanaf de voorzijde van het station, aan de Coenderstraat"}],"label":"Er rijden snelbussen tussen Rotterdam Centraal en Delft.","shortLabel":"Er rijden snelbussen Rotterdam C. - Delft."}},{"start":"2024-10-30T05:00:00+0100","end":"2024-10-31T01:00:00+0100","alternativeTransport":{"location":[{"station":{"coordinate":{"lat":51.9908332824707,"lng":4.36472225189209},"countryCode":"NL","name":"Delft Campus","stationCode":"DTCP","uicCode":"8400166"},"description":"vanaf het Stationsplein"},{"station":{"coordinate":{"lat":51.9212438128032,"lng":4.4089937210083},"countryCode":"NL","name":"Schiedam Centrum","stationCode":"SDM","uicCode":"8400553"},"description":"vanaf de Horvathweg"}],"label":"Er rijden stopbussen tussen Delft Campus en Schiedam Centrum.","shortLabel":"Er rijden stopbussen Delft Campus - Schiedam C."}},{"start":"2024-10-30T05:00:00+0100","end":"2024-10-31T01:00:00+0100","alternativeTransport":{"location":[{"station":{"coordinate":{"lat":51.9212438128032,"lng":4.4089937210083},"countryCode":"NL","name":"Schiedam Centrum","stationCode":"SDM","uicCode":"8400553"},"description":"volg de aanwijzingen op het station"},{"station":{"coordinate":{"lat":51.9202766418457,"lng":4.48888874053955},"countryCode":"NL","name":"Rotterdam Blaak","stationCode":"RTB","uicCode":"8400529"},"description":"volg de aanwijzingen op het station"}],"label":"Maak gebruik van de Rotterdamse metro tussen Schiedam Centrum en Rotterdam Blaak.","shortLabel":"Gebruik de Rotterdamse metro Schiedam C. - Blaak."}},{"start":"2024-10-31T01:00:00+0100","end":"2024-10-31T05:00:00+0100","alternativeTransport":{"location":[{"station":{"coordinate":{"lat":52.0697212219238,"lng":4.32250022888184},"countryCode":"NL","name":"Den Haag HS","stationCode":"GV","uicCode":"8400280"},"description":"vanaf de achterzijde van het station"},{"station":{"coordinate":{"lat":52.0066680908203,"lng":4.35638904571533},"countryCode":"NL","name":"Delft","stationCode":"DT","uicCode":"8400170"},"description":"vanaf de voorzijde van het station, aan de Coenderstraat"}],"label":"Er rijden snelbussen tussen Den Haag HS en Delft.","shortLabel":"Er rijden snelbussen Den Haag HS - Delft."}},{"start":"2024-10-31T01:00:00+0100","end":"2024-10-31T05:00:00+0100","alternativeTransport":{"location":[{"station":{"coordinate":{"lat":51.9249992370605,"lng":4.46888875961304},"countryCode":"NL","name":"Rotterdam Centraal","stationCode":"RTD","uicCode":"8400530"},"description":"vanaf de Conradstraat aan de centrumzijde"},{"station":{"coordinate":{"lat":52.0066680908203,"lng":4.35638904571533},"countryCode":"NL","name":"Delft","stationCode":"DT","uicCode":"8400170"},"description":"vanaf de voorzijde van het station, aan de Coenderstraat"}],"label":"Er rijden snelbussen tussen Rotterdam Centraal en Delft.","shortLabel":"Er rijden snelbussen Rotterdam C. - Delft."}},{"start":"2024-10-31T05:00:00+0100","end":"2024-11-01T01:00:00+0100","alternativeTransport":{"location":[{"station":{"coordinate":{"lat":51.9908332824707,"lng":4.36472225189209},"countryCode":"NL","name":"Delft Campus","stationCode":"DTCP","uicCode":"8400166"},"description":"vanaf het Stationsplein"},{"station":{"coordinate":{"lat":51.9212438128032,"lng":4.4089937210083},"countryCode":"NL","name":"Schiedam Centrum","stationCode":"SDM","uicCode":"8400553"},"description":"vanaf de Horvathweg"}],"label":"Er rijden stopbussen tussen Delft Campus en Schiedam Centrum.","shortLabel":"Er rijden stopbussen Delft Campus - Schiedam C."}},{"start":"2024-10-31T05:00:00+0100","end":"2024-11-01T01:00:00+0100","alternativeTransport":{"location":[{"station":{"coordinate":{"lat":51.9212438128032,"lng":4.4089937210083},"countryCode":"NL","name":"Schiedam Centrum","stationCode":"SDM","uicCode":"8400553"},"description":"volg de aanwijzingen op het station"},{"station":{"coordinate":{"lat":51.9202766418457,"lng":4.48888874053955},"countryCode":"NL","name":"Rotterdam Blaak","stationCode":"RTB","uicCode":"8400529"},"description":"volg de aanwijzingen op het station"}],"label":"Maak gebruik van de Rotterdamse metro tussen Schiedam Centrum en Rotterdam Blaak.","shortLabel":"Gebruik de Rotterdamse metro Schiedam C. - Blaak."}},{"start":"2024-11-01T01:00:00+0100","end":"2024-11-01T05:00:00+0100","alternativeTransport":{"location":[{"station":{"coordinate":{"lat":52.0697212219238,"lng":4.32250022888184},"countryCode":"NL","name":"Den Haag HS","stationCode":"GV","uicCode":"8400280"},"description":"vanaf de achterzijde van het station"},{"station":{"coordinate":{"lat":52.0066680908203,"lng":4.35638904571533},"countryCode":"NL","name":"Delft","stationCode":"DT","uicCode":"8400170"},"description":"vanaf de voorzijde van het station, aan de Coenderstraat"}],"label":"Er rijden snelbussen tussen Den Haag HS en Delft.","shortLabel":"Er rijden snelbussen Den Haag HS - Delft."}},{"start":"2024-11-01T01:00:00+0100","end":"2024-11-01T05:00:00+0100","alternativeTransport":{"location":[{"station":{"coordinate":{"lat":51.9249992370605,"lng":4.46888875961304},"countryCode":"NL","name":"Rotterdam Centraal","stationCode":"RTD","uicCode":"8400530"},"description":"vanaf de Conradstraat aan de centrumzijde"},{"station":{"coordinate":{"lat":52.0066680908203,"lng":4.35638904571533},"countryCode":"NL","name":"Delft","stationCode":"DT","uicCode":"8400170"},"description":"vanaf de voorzijde van het station, aan de Coenderstraat"}],"label":"Er rijden snelbussen tussen Rotterdam Centraal en Delft.","shortLabel":"Er rijden snelbussen Rotterdam C. - Delft."}},{"start":"2024-11-01T05:00:00+0100","end":"2024-11-02T01:00:00+0100","alternativeTransport":{"location":[{"station":{"coordinate":{"lat":51.9908332824707,"lng":4.36472225189209},"countryCode":"NL","name":"Delft Campus","stationCode":"DTCP","uicCode":"8400166"},"description":"vanaf het Stationsplein"},{"station":{"coordinate":{"lat":51.9212438128032,"lng":4.4089937210083},"countryCode":"NL","name":"Schiedam Centrum","stationCode":"SDM","uicCode":"8400553"},"description":"vanaf de Horvathweg"}],"label":"Er rijden stopbussen tussen Delft Campus en Schiedam Centrum.","shortLabel":"Er rijden stopbussen Delft Campus - Schiedam C."}},{"start":"2024-11-01T05:00:00+0100","end":"2024-11-02T01:00:00+0100","alternativeTransport":{"location":[{"station":{"coordinate":{"lat":51.9212438128032,"lng":4.4089937210083},"countryCode":"NL","name":"Schiedam Centrum","stationCode":"SDM","uicCode":"8400553"},"description":"volg de aanwijzingen op het station"},{"station":{"coordinate":{"lat":51.9202766418457,"lng":4.48888874053955},"countryCode":"NL","name":"Rotterdam Blaak","stationCode":"RTB","uicCode":"8400529"},"description":"volg de aanwijzingen op het station"}],"label":"Maak gebruik van de Rotterdamse metro tussen Schiedam Centrum en Rotterdam Blaak.","shortLabel":"Gebruik de Rotterdamse metro Schiedam C. - Blaak."}},{"start":"2024-11-02T01:00:00+0100","end":"2024-11-02T06:00:00+0100","alternativeTransport":{"location":[{"station":{"coordinate":{"lat":52.0697212219238,"lng":4.32250022888184},"countryCode":"NL","name":"Den Haag HS","stationCode":"GV","uicCode":"8400280"},"description":"vanaf de achterzijde van het station"},{"station":{"coordinate":{"lat":52.0066680908203,"lng":4.35638904571533},"countryCode":"NL","name":"Delft","stationCode":"DT","uicCode":"8400170"},"description":"vanaf de voorzijde van het station, aan de Coenderstraat"}],"label":"Er rijden snelbussen tussen Den Haag HS en Delft.","shortLabel":"Er rijden snelbussen Den Haag HS - Delft."}},{"start":"2024-11-02T01:00:00+0100","end":"2024-11-02T06:00:00+0100","alternativeTransport":{"location":[{"station":{"coordinate":{"lat":51.9249992370605,"lng":4.46888875961304},"countryCode":"NL","name":"Rotterdam Centraal","stationCode":"RTD","uicCode":"8400530"},"description":"vanaf de Conradstraat aan de centrumzijde"},{"station":{"coordinate":{"lat":52.0066680908203,"lng":4.35638904571533},"countryCode":"NL","name":"Delft","stationCode":"DT","uicCode":"8400170"},"description":"vanaf de voorzijde van het station, aan de Coenderstraat"}],"label":"Er rijden snelbussen tussen Rotterdam Centraal en Delft.","shortLabel":"Er rijden snelbussen Rotterdam C. - Delft."}},{"start":"2024-11-02T06:00:00+0100","end":"2024-11-03T01:00:00+0100","alternativeTransport":{"location":[{"station":{"coordinate":{"lat":51.9212438128032,"lng":4.4089937210083},"countryCode":"NL","name":"Schiedam Centrum","stationCode":"SDM","uicCode":"8400553"},"description":"volg de aanwijzingen op het station"},{"station":{"coordinate":{"lat":51.9202766418457,"lng":4.48888874053955},"countryCode":"NL","name":"Rotterdam Blaak","stationCode":"RTB","uicCode":"8400529"},"description":"volg de aanwijzingen op het station"}],"label":"Maak gebruik van de Rotterdamse metro tussen Schiedam Centrum en Rotterdam Blaak.","shortLabel":"Gebruik de Rotterdamse metro Schiedam C. - Blaak."}},{"start":"2024-11-03T01:00:00+0100","end":"2024-11-03T06:00:00+0100","alternativeTransport":{"location":[{"station":{"coordinate":{"lat":52.0697212219238,"lng":4.32250022888184},"countryCode":"NL","name":"Den Haag HS","stationCode":"GV","uicCode":"8400280"},"description":"vanaf de achterzijde van het station"},{"station":{"coordinate":{"lat":52.0066680908203,"lng":4.35638904571533},"countryCode":"NL","name":"Delft","stationCode":"DT","uicCode":"8400170"},"description":"vanaf de voorzijde van het station, aan de Coenderstraat"}],"label":"Er rijden snelbussen tussen Den Haag HS en Delft.","shortLabel":"Er rijden snelbussen Den Haag HS - Delft."}},{"start":"2024-11-03T01:00:00+0100","end":"2024-11-03T06:00:00+0100","alternativeTransport":{"location":[{"station":{"coordinate":{"lat":51.9249992370605,"lng":4.46888875961304},"countryCode":"NL","name":"Rotterdam Centraal","stationCode":"RTD","uicCode":"8400530"},"description":"vanaf de Conradstraat aan de centrumzijde"},{"station":{"coordinate":{"lat":52.0066680908203,"lng":4.35638904571533},"countryCode":"NL","name":"Delft","stationCode":"DT","uicCode":"8400170"},"description":"vanaf de voorzijde van het station, aan de Coenderstraat"}],"label":"Er rijden snelbussen tussen Rotterdam Centraal en Delft.","shortLabel":"Er rijden snelbussen Rotterdam C. - Delft."}},{"start":"2024-11-03T06:00:00+0100","end":"2024-11-04T01:00:00+0100","alternativeTransport":{"location":[{"station":{"coordinate":{"lat":51.9212438128032,"lng":4.4089937210083},"countryCode":"NL","name":"Schiedam Centrum","stationCode":"SDM","uicCode":"8400553"},"description":"volg de aanwijzingen op het station"},{"station":{"coordinate":{"lat":51.9202766418457,"lng":4.48888874053955},"countryCode":"NL","name":"Rotterdam Blaak","stationCode":"RTB","uicCode":"8400529"},"description":"volg de aanwijzingen op het station"}],"label":"Maak gebruik van de Rotterdamse metro tussen Schiedam Centrum en Rotterdam Blaak.","shortLabel":"Gebruik de Rotterdamse metro Schiedam C. - Blaak."}},{"start":"2024-11-04T01:00:00+0100","end":"2024-11-04T05:00:00+0100","alternativeTransport":{"location":[{"station":{"coordinate":{"lat":52.0697212219238,"lng":4.32250022888184},"countryCode":"NL","name":"Den Haag HS","stationCode":"GV","uicCode":"8400280"},"description":"vanaf de achterzijde van het station"},{"station":{"coordinate":{"lat":52.0066680908203,"lng":4.35638904571533},"countryCode":"NL","name":"Delft","stationCode":"DT","uicCode":"8400170"},"description":"vanaf de voorzijde van het station, aan de Coenderstraat"}],"label":"Er rijden snelbussen tussen Den Haag HS en Delft.","shortLabel":"Er rijden snelbussen Den Haag HS - Delft."}},{"start":"2024-11-04T01:00:00+0100","end":"2024-11-04T05:00:00+0100","alternativeTransport":{"location":[{"station":{"coordinate":{"lat":51.9249992370605,"lng":4.46888875961304},"countryCode":"NL","name":"Rotterdam Centraal","stationCode":"RTD","uicCode":"8400530"},"description":"vanaf de Conradstraat aan de centrumzijde"},{"station":{"coordinate":{"lat":52.0066680908203,"lng":4.35638904571533},"countryCode":"NL","name":"Delft","stationCode":"DT","uicCode":"8400170"},"description":"vanaf de voorzijde van het station, aan de Coenderstraat"}],"label":"Er rijden snelbussen tussen Rotterdam Centraal en Delft.","shortLabel":"Er rijden snelbussen Rotterdam C. - Delft."}}]},{"type":"MAINTENANCE","id":"7005416","title":"Amsterdam - Enkhuizen.","isActive":true,"local":false,"titleSections":[[{"type":"STATION","value":"Amsterdam C."},{"type":"STATION","value":"Hoorn"},{"type":"ICON","value":"MAINTENANCE"},{"type":"STATION","value":"Enkhuizen"}]],"registrationTime":"2024-10-25T20:05:13+0200","start":"2024-10-22T04:00:00+0200","releaseTime":"2024-10-25T20:05:13+0200","end":"2024-11-03T02:00:00+0100","period":"Dinsdag 22 oktober 4:00 uur t/m zondag 3 november 2:00 uur.","impact":{"value":5},"publicationSections":[{"section":{"stations":[{"coordinate":{"lat":52.3788871765137,"lng":4.90027761459351},"countryCode":"NL","name":"Amsterdam Centraal","stationCode":"ASD","uicCode":"8400058"},{"coordinate":{"lat":52.3888893127441,"lng":4.83777761459351},"countryCode":"NL","name":"Amsterdam Sloterdijk","stationCode":"ASS","uicCode":"8400059"},{"coordinate":{"lat":52.4388885498047,"lng":4.81361103057861},"countryCode":"NL","name":"Zaandam","stationCode":"ZD","uicCode":"8400731"},{"coordinate":{"lat":52.4566650390625,"lng":4.82027769088745},"countryCode":"NL","name":"Zaandam Kogerveld","stationCode":"ZDK","uicCode":"8400728"},{"coordinate":{"lat":52.4965906325416,"lng":4.93562936782836},"countryCode":"NL","name":"Purmerend Weidevenne","stationCode":"PMW","uicCode":"8400499"},{"coordinate":{"lat":52.5030555725098,"lng":4.95361089706421},"countryCode":"NL","name":"Purmerend","stationCode":"PMR","uicCode":"8400508"},{"coordinate":{"lat":52.5113906860352,"lng":4.96833324432373},"countryCode":"NL","name":"Purmerend Overwhere","stationCode":"PMO","uicCode":"8400506"},{"coordinate":{"lat":52.6447219848633,"lng":5.05555534362793},"countryCode":"NL","name":"Hoorn","stationCode":"HN","uicCode":"8400337"},{"coordinate":{"lat":52.6536102294922,"lng":5.08555555343628},"countryCode":"NL","name":"Hoorn Kersenboogerd","stationCode":"HNK","uicCode":"8400336"},{"coordinate":{"lat":52.6905555725098,"lng":5.18388891220093},"countryCode":"NL","name":"Hoogkarspel","stationCode":"HKS","uicCode":"8400334"},{"coordinate":{"lat":52.6949996948242,"lng":5.23777770996094},"countryCode":"NL","name":"Bovenkarspel-Grootebroek","stationCode":"BKG","uicCode":"8400127"},{"coordinate":{"lat":52.6961097717285,"lng":5.25277757644653},"countryCode":"NL","name":"Bovenkarspel Flora","stationCode":"BKF","uicCode":"8400230"},{"coordinate":{"lat":52.6991653442383,"lng":5.28638887405396},"countryCode":"NL","name":"Enkhuizen","stationCode":"EKZ","uicCode":"8400210"}],"direction":"BOTH"},"consequence":{"section":{"stations":[{"coordinate":{"lat":52.6447219848633,"lng":5.05555534362793},"countryCode":"NL","name":"Hoorn","stationCode":"HN","uicCode":"8400337"},{"coordinate":{"lat":52.6536102294922,"lng":5.08555555343628},"countryCode":"NL","name":"Hoorn Kersenboogerd","stationCode":"HNK","uicCode":"8400336"},{"coordinate":{"lat":52.6905555725098,"lng":5.18388891220093},"countryCode":"NL","name":"Hoogkarspel","stationCode":"HKS","uicCode":"8400334"},{"coordinate":{"lat":52.6949996948242,"lng":5.23777770996094},"countryCode":"NL","name":"Bovenkarspel-Grootebroek","stationCode":"BKG","uicCode":"8400127"},{"coordinate":{"lat":52.6961097717285,"lng":5.25277757644653},"countryCode":"NL","name":"Bovenkarspel Flora","stationCode":"BKF","uicCode":"8400230"},{"coordinate":{"lat":52.6991653442383,"lng":5.28638887405396},"countryCode":"NL","name":"Enkhuizen","stationCode":"EKZ","uicCode":"8400210"}],"direction":"ONE_WAY"},"description":"rijden bussen","level":"LESS_TRAINS"},"sectionType":"NL"}],"summaryAdditionalTravelTime":{"label":"De extra reistijd is ongeveer 30 minuten.","shortLabel":"Extra reistijd 30 min.","minimumDurationInMinutes":30,"maximumDurationInMinutes":30},"timespans":[{"start":"2024-10-22T04:00:00+0200","end":"2024-11-03T02:00:00+0100","period":"Dinsdag 22 oktober 4:00 uur t/m zondag 3 november 2:00 uur.","situation":{"label":"Door werkzaamheden: tussen Hoorn en Enkhuizen rijden er bussen."},"cause":{"label":"werkzaamheden"},"additionalTravelTime":{"label":"De extra reistijd is ongeveer 30 minuten.","shortLabel":"Extra reistijd 30 min.","minimumDurationInMinutes":30,"maximumDurationInMinutes":30},"alternativeTransport":{"label":"maak gebruik van het vervangende vervoer","shortLabel":"gebruik het vervangende vervoer"},"advices":["Tussen Kersenboogerd en Hoogkarspel/Enkhuizen reis via Hoorn."]}],"alternativeTransportTimespans":[{"start":"2024-10-22T04:00:00+0200","end":"2024-11-03T02:00:00+0100","alternativeTransport":{"location":[{"station":{"coordinate":{"lat":52.6447219848633,"lng":5.05555534362793},"countryCode":"NL","name":"Hoorn","stationCode":"HN","uicCode":"8400337"},"description":"vanaf de voorzijde van het station"},{"station":{"coordinate":{"lat":52.6905555725098,"lng":5.18388891220093},"countryCode":"NL","name":"Hoogkarspel","stationCode":"HKS","uicCode":"8400334"},"description":"vanaf het Stationsplein"},{"station":{"coordinate":{"lat":52.6949996948242,"lng":5.23777770996094},"countryCode":"NL","name":"Bovenkarspel-Grootebroek","stationCode":"BKG","uicCode":"8400127"},"description":"vanaf de Burgemeester J.N. Stuifbergenlaan"},{"station":{"coordinate":{"lat":52.6991653442383,"lng":5.28638887405396},"countryCode":"NL","name":"Enkhuizen","stationCode":"EKZ","uicCode":"8400210"},"description":"vanaf de voorzijde van het station"}],"label":"Er rijden snelbussen tussen Hoorn, Hoogkarspel, Bovenkarspel-Grootebroek en Enkhuizen.","shortLabel":"Er rijden snelbussen Hoorn - Hoogkarspel - Bovenkarspel-Gr. - Enkhuizen."}},{"start":"2024-10-22T04:00:00+0200","end":"2024-11-03T02:00:00+0100","alternativeTransport":{"location":[{"station":{"coordinate":{"lat":52.6447219848633,"lng":5.05555534362793},"countryCode":"NL","name":"Hoorn","stationCode":"HN","uicCode":"8400337"},"description":"vanaf de voorzijde van het station"},{"station":{"coordinate":{"lat":52.6536102294922,"lng":5.08555555343628},"countryCode":"NL","name":"Hoorn Kersenboogerd","stationCode":"HNK","uicCode":"8400336"},"description":"vanaf de bushalte aan de Rijnweg"}],"label":"Er rijden stopbussen tussen Hoorn en Hoorn Kersenboogerd.","shortLabel":"Er rijden stopbussen Hoorn - Kersenboogerd."}},{"start":"2024-10-22T04:00:00+0200","end":"2024-11-03T02:00:00+0100","alternativeTransport":{"location":[{"station":{"coordinate":{"lat":52.6961097717285,"lng":5.25277757644653},"countryCode":"NL","name":"Bovenkarspel Flora","stationCode":"BKF","uicCode":"8400230"},"description":"vanaf de doorgaande weg"},{"station":{"coordinate":{"lat":52.6949996948242,"lng":5.23777770996094},"countryCode":"NL","name":"Bovenkarspel-Grootebroek","stationCode":"BKG","uicCode":"8400127"},"description":"vanaf de Burgemeester J.N. Stuifbergenlaan"}],"label":"Er rijden taxibusjes tussen Bovenkarspel Flora en Bovenkarspel-Grootebroek.","shortLabel":"Er rijden taxibusjes Bovenkarspel Fl. - Bovenkarspel-Gr."}}]},{"type":"MAINTENANCE","id":"7005494","title":"Amsterdam - Haarlem.","isActive":true,"local":false,"titleSections":[[{"type":"STATION","value":"Amsterdam C."},{"type":"STATION","value":"Sloterdijk"},{"type":"ICON","value":"MAINTENANCE"},{"type":"STATION","value":"Haarlem"}]],"registrationTime":"2024-10-25T20:03:51+0200","start":"2024-10-26T01:00:00+0200","releaseTime":"2024-10-25T20:03:51+0200","end":"2024-11-04T02:00:00+0100","period":"Zaterdag 26 oktober 1:00 uur t/m maandag 4 november 2:00 uur.","impact":{"value":5},"publicationSections":[{"section":{"stations":[{"coordinate":{"lat":52.3788871765137,"lng":4.90027761459351},"countryCode":"NL","name":"Amsterdam Centraal","stationCode":"ASD","uicCode":"8400058"},{"coordinate":{"lat":52.3888893127441,"lng":4.83777761459351},"countryCode":"NL","name":"Amsterdam Sloterdijk","stationCode":"ASS","uicCode":"8400059"},{"coordinate":{"lat":52.385935,"lng":4.747165},"countryCode":"NL","name":"Halfweg-Zwanenburg","stationCode":"HWZB","uicCode":"8400400"},{"coordinate":{"lat":52.3827781677246,"lng":4.67305564880371},"countryCode":"NL","name":"Haarlem Spaarnwoude","stationCode":"HLMS","uicCode":"8400270"},{"coordinate":{"lat":52.3877792358398,"lng":4.63833332061768},"countryCode":"NL","name":"Haarlem","stationCode":"HLM","uicCode":"8400285"}],"direction":"BOTH"},"consequence":{"section":{"stations":[{"coordinate":{"lat":52.3888893127441,"lng":4.83777761459351},"countryCode":"NL","name":"Amsterdam Sloterdijk","stationCode":"ASS","uicCode":"8400059"},{"coordinate":{"lat":52.385935,"lng":4.747165},"countryCode":"NL","name":"Halfweg-Zwanenburg","stationCode":"HWZB","uicCode":"8400400"},{"coordinate":{"lat":52.3827781677246,"lng":4.67305564880371},"countryCode":"NL","name":"Haarlem Spaarnwoude","stationCode":"HLMS","uicCode":"8400270"},{"coordinate":{"lat":52.3877792358398,"lng":4.63833332061768},"countryCode":"NL","name":"Haarlem","stationCode":"HLM","uicCode":"8400285"}],"direction":"ONE_WAY"},"description":"rijden bussen","level":"LESS_TRAINS"},"sectionType":"NL"}],"summaryAdditionalTravelTime":{"label":"De extra reistijd is ongeveer 30 minuten.","shortLabel":"Extra reistijd 30 min.","minimumDurationInMinutes":30,"maximumDurationInMinutes":30},"timespans":[{"start":"2024-10-26T01:00:00+0200","end":"2024-11-04T02:00:00+0100","period":"Zaterdag 26 oktober 1:00 uur t/m maandag 4 november 2:00 uur.","situation":{"label":"Door werkzaamheden: tussen Amsterdam Sloterdijk en Haarlem rijden er bussen."},"cause":{"label":"werkzaamheden"},"additionalTravelTime":{"label":"De extra reistijd is ongeveer 30 minuten.","shortLabel":"Extra reistijd 30 min.","minimumDurationInMinutes":30,"maximumDurationInMinutes":30},"alternativeTransport":{"label":"er rijden stop- en snelbussen","shortLabel":"er rijden stop- en snelbussen"},"advices":["NS verwacht extra drukte in de bussen. Houd rekening met langere wachttijden bij de bussen en reis buiten de spitsuren.","Tussen Sloterdijk en Leiden C. reis via Schiphol Airport."]}],"alternativeTransportTimespans":[{"start":"2024-10-26T01:00:00+0200","end":"2024-11-04T02:00:00+0100","alternativeTransport":{"location":[{"station":{"coordinate":{"lat":52.3888893127441,"lng":4.83777761459351},"countryCode":"NL","name":"Amsterdam Sloterdijk","stationCode":"ASS","uicCode":"8400059"},"description":"vanaf de voorzijde van het station"},{"station":{"coordinate":{"lat":52.385935,"lng":4.747165},"countryCode":"NL","name":"Halfweg-Zwanenburg","stationCode":"HWZB","uicCode":"8400400"},"description":"vanaf de bushalte"},{"station":{"coordinate":{"lat":52.3827781677246,"lng":4.67305564880371},"countryCode":"NL","name":"Haarlem Spaarnwoude","stationCode":"HLMS","uicCode":"8400270"},"description":"vanaf de bushalte"},{"station":{"coordinate":{"lat":52.3877792358398,"lng":4.63833332061768},"countryCode":"NL","name":"Haarlem","stationCode":"HLM","uicCode":"8400285"},"description":"vanaf de Jansweg"}],"label":"Er rijden stopbussen tussen Amsterdam Sloterdijk, Halfweg-Zwanenburg, Haarlem Spaarnwoude en Haarlem.","shortLabel":"Er rijden stopbussen Sloterdijk - Halfweg-Zw. - Spaarnwoude - Haarlem."}},{"start":"2024-10-26T01:00:00+0200","end":"2024-10-26T04:30:00+0200","alternativeTransport":{"location":[{"station":{"coordinate":{"lat":52.3788871765137,"lng":4.90027761459351},"countryCode":"NL","name":"Amsterdam Centraal","stationCode":"ASD","uicCode":"8400058"},"description":"vanaf het busstation"},{"station":{"coordinate":{"lat":52.3877792358398,"lng":4.63833332061768},"countryCode":"NL","name":"Haarlem","stationCode":"HLM","uicCode":"8400285"},"description":"vanaf de Jansweg"}],"label":"Er rijden bussen tussen Amsterdam Centraal en Haarlem.","shortLabel":"Er rijden bussen Amsterdam C. - Haarlem."}},{"start":"2024-10-27T01:00:00+0200","end":"2024-10-27T04:30:00+0100","alternativeTransport":{"location":[{"station":{"coordinate":{"lat":52.3788871765137,"lng":4.90027761459351},"countryCode":"NL","name":"Amsterdam Centraal","stationCode":"ASD","uicCode":"8400058"},"description":"vanaf het busstation"},{"station":{"coordinate":{"lat":52.3877792358398,"lng":4.63833332061768},"countryCode":"NL","name":"Haarlem","stationCode":"HLM","uicCode":"8400285"},"description":"vanaf de Jansweg"}],"label":"Er rijden bussen tussen Amsterdam Centraal en Haarlem.","shortLabel":"Er rijden bussen Amsterdam C. - Haarlem."}},{"start":"2024-10-28T00:50:00+0100","end":"2024-10-28T01:40:00+0100","alternativeTransport":{"location":[{"station":{"coordinate":{"lat":52.3788871765137,"lng":4.90027761459351},"countryCode":"NL","name":"Amsterdam Centraal","stationCode":"ASD","uicCode":"8400058"},"description":"vanaf het busstation"},{"station":{"coordinate":{"lat":52.3888893127441,"lng":4.83777761459351},"countryCode":"NL","name":"Amsterdam Sloterdijk","stationCode":"ASS","uicCode":"8400059"},"description":"vanaf de voorzijde van het station"},{"station":{"coordinate":{"lat":52.385935,"lng":4.747165},"countryCode":"NL","name":"Halfweg-Zwanenburg","stationCode":"HWZB","uicCode":"8400400"},"description":"vanaf de bushalte"},{"station":{"coordinate":{"lat":52.3827781677246,"lng":4.67305564880371},"countryCode":"NL","name":"Haarlem Spaarnwoude","stationCode":"HLMS","uicCode":"8400270"},"description":"vanaf de bushalte"},{"station":{"coordinate":{"lat":52.3877792358398,"lng":4.63833332061768},"countryCode":"NL","name":"Haarlem","stationCode":"HLM","uicCode":"8400285"},"description":"volg de aanwijzingen op het station"}],"label":"Er rijden stopbussen van Amsterdam Centraal, Amsterdam Sloterdijk, Halfweg-Zwanenburg, Haarlem Spaarnwoude naar Haarlem.","shortLabel":"Er rijden stopbussen Amsterdam C. -> Sloterdijk -> Halfweg-Zw. -> Spaarnwoude -> Haarlem."}},{"start":"2024-10-28T00:50:00+0100","end":"2024-10-28T01:40:00+0100","alternativeTransport":{"location":[{"station":{"coordinate":{"lat":52.3877792358398,"lng":4.63833332061768},"countryCode":"NL","name":"Haarlem","stationCode":"HLM","uicCode":"8400285"},"description":"vanaf de Jansweg"},{"station":{"coordinate":{"lat":52.3888893127441,"lng":4.83777761459351},"countryCode":"NL","name":"Amsterdam Sloterdijk","stationCode":"ASS","uicCode":"8400059"},"description":"vanaf de voorzijde van het station"},{"station":{"coordinate":{"lat":52.3788871765137,"lng":4.90027761459351},"countryCode":"NL","name":"Amsterdam Centraal","stationCode":"ASD","uicCode":"8400058"},"description":"volg de aanwijzingen op het station"}],"label":"Er rijden bussen van Haarlem, Amsterdam Sloterdijk naar Amsterdam Centraal.","shortLabel":"Er rijden bussen Haarlem -> Sloterdijk -> Amsterdam C."}},{"start":"2024-10-29T00:50:00+0100","end":"2024-10-29T01:40:00+0100","alternativeTransport":{"location":[{"station":{"coordinate":{"lat":52.3788871765137,"lng":4.90027761459351},"countryCode":"NL","name":"Amsterdam Centraal","stationCode":"ASD","uicCode":"8400058"},"description":"vanaf het busstation"},{"station":{"coordinate":{"lat":52.3888893127441,"lng":4.83777761459351},"countryCode":"NL","name":"Amsterdam Sloterdijk","stationCode":"ASS","uicCode":"8400059"},"description":"vanaf de voorzijde van het station"},{"station":{"coordinate":{"lat":52.385935,"lng":4.747165},"countryCode":"NL","name":"Halfweg-Zwanenburg","stationCode":"HWZB","uicCode":"8400400"},"description":"vanaf de bushalte"},{"station":{"coordinate":{"lat":52.3827781677246,"lng":4.67305564880371},"countryCode":"NL","name":"Haarlem Spaarnwoude","stationCode":"HLMS","uicCode":"8400270"},"description":"vanaf de bushalte"},{"station":{"coordinate":{"lat":52.3877792358398,"lng":4.63833332061768},"countryCode":"NL","name":"Haarlem","stationCode":"HLM","uicCode":"8400285"},"description":"volg de aanwijzingen op het station"}],"label":"Er rijden stopbussen van Amsterdam Centraal, Amsterdam Sloterdijk, Halfweg-Zwanenburg, Haarlem Spaarnwoude naar Haarlem.","shortLabel":"Er rijden stopbussen Amsterdam C. -> Sloterdijk -> Halfweg-Zw. -> Spaarnwoude -> Haarlem."}},{"start":"2024-10-29T00:50:00+0100","end":"2024-10-29T01:40:00+0100","alternativeTransport":{"location":[{"station":{"coordinate":{"lat":52.3877792358398,"lng":4.63833332061768},"countryCode":"NL","name":"Haarlem","stationCode":"HLM","uicCode":"8400285"},"description":"vanaf de Jansweg"},{"station":{"coordinate":{"lat":52.3888893127441,"lng":4.83777761459351},"countryCode":"NL","name":"Amsterdam Sloterdijk","stationCode":"ASS","uicCode":"8400059"},"description":"vanaf de voorzijde van het station"},{"station":{"coordinate":{"lat":52.3788871765137,"lng":4.90027761459351},"countryCode":"NL","name":"Amsterdam Centraal","stationCode":"ASD","uicCode":"8400058"},"description":"volg de aanwijzingen op het station"}],"label":"Er rijden bussen van Haarlem, Amsterdam Sloterdijk naar Amsterdam Centraal.","shortLabel":"Er rijden bussen Haarlem -> Sloterdijk -> Amsterdam C."}},{"start":"2024-10-30T00:50:00+0100","end":"2024-10-30T01:40:00+0100","alternativeTransport":{"location":[{"station":{"coordinate":{"lat":52.3788871765137,"lng":4.90027761459351},"countryCode":"NL","name":"Amsterdam Centraal","stationCode":"ASD","uicCode":"8400058"},"description":"vanaf het busstation"},{"station":{"coordinate":{"lat":52.3888893127441,"lng":4.83777761459351},"countryCode":"NL","name":"Amsterdam Sloterdijk","stationCode":"ASS","uicCode":"8400059"},"description":"vanaf de voorzijde van het station"},{"station":{"coordinate":{"lat":52.385935,"lng":4.747165},"countryCode":"NL","name":"Halfweg-Zwanenburg","stationCode":"HWZB","uicCode":"8400400"},"description":"vanaf de bushalte"},{"station":{"coordinate":{"lat":52.3827781677246,"lng":4.67305564880371},"countryCode":"NL","name":"Haarlem Spaarnwoude","stationCode":"HLMS","uicCode":"8400270"},"description":"vanaf de bushalte"},{"station":{"coordinate":{"lat":52.3877792358398,"lng":4.63833332061768},"countryCode":"NL","name":"Haarlem","stationCode":"HLM","uicCode":"8400285"},"description":"volg de aanwijzingen op het station"}],"label":"Er rijden stopbussen van Amsterdam Centraal, Amsterdam Sloterdijk, Halfweg-Zwanenburg, Haarlem Spaarnwoude naar Haarlem.","shortLabel":"Er rijden stopbussen Amsterdam C. -> Sloterdijk -> Halfweg-Zw. -> Spaarnwoude -> Haarlem."}},{"start":"2024-10-30T00:50:00+0100","end":"2024-10-30T01:40:00+0100","alternativeTransport":{"location":[{"station":{"coordinate":{"lat":52.3877792358398,"lng":4.63833332061768},"countryCode":"NL","name":"Haarlem","stationCode":"HLM","uicCode":"8400285"},"description":"vanaf de Jansweg"},{"station":{"coordinate":{"lat":52.3888893127441,"lng":4.83777761459351},"countryCode":"NL","name":"Amsterdam Sloterdijk","stationCode":"ASS","uicCode":"8400059"},"description":"vanaf de voorzijde van het station"},{"station":{"coordinate":{"lat":52.3788871765137,"lng":4.90027761459351},"countryCode":"NL","name":"Amsterdam Centraal","stationCode":"ASD","uicCode":"8400058"},"description":"volg de aanwijzingen op het station"}],"label":"Er rijden bussen van Haarlem, Amsterdam Sloterdijk naar Amsterdam Centraal.","shortLabel":"Er rijden bussen Haarlem -> Sloterdijk -> Amsterdam C."}},{"start":"2024-10-31T00:50:00+0100","end":"2024-10-31T01:40:00+0100","alternativeTransport":{"location":[{"station":{"coordinate":{"lat":52.3788871765137,"lng":4.90027761459351},"countryCode":"NL","name":"Amsterdam Centraal","stationCode":"ASD","uicCode":"8400058"},"description":"vanaf het busstation"},{"station":{"coordinate":{"lat":52.3888893127441,"lng":4.83777761459351},"countryCode":"NL","name":"Amsterdam Sloterdijk","stationCode":"ASS","uicCode":"8400059"},"description":"vanaf de voorzijde van het station"},{"station":{"coordinate":{"lat":52.385935,"lng":4.747165},"countryCode":"NL","name":"Halfweg-Zwanenburg","stationCode":"HWZB","uicCode":"8400400"},"description":"vanaf de bushalte"},{"station":{"coordinate":{"lat":52.3827781677246,"lng":4.67305564880371},"countryCode":"NL","name":"Haarlem Spaarnwoude","stationCode":"HLMS","uicCode":"8400270"},"description":"vanaf de bushalte"},{"station":{"coordinate":{"lat":52.3877792358398,"lng":4.63833332061768},"countryCode":"NL","name":"Haarlem","stationCode":"HLM","uicCode":"8400285"},"description":"volg de aanwijzingen op het station"}],"label":"Er rijden stopbussen van Amsterdam Centraal, Amsterdam Sloterdijk, Halfweg-Zwanenburg, Haarlem Spaarnwoude naar Haarlem.","shortLabel":"Er rijden stopbussen Amsterdam C. -> Sloterdijk -> Halfweg-Zw. -> Spaarnwoude -> Haarlem."}},{"start":"2024-10-31T00:50:00+0100","end":"2024-10-31T01:40:00+0100","alternativeTransport":{"location":[{"station":{"coordinate":{"lat":52.3877792358398,"lng":4.63833332061768},"countryCode":"NL","name":"Haarlem","stationCode":"HLM","uicCode":"8400285"},"description":"vanaf de Jansweg"},{"station":{"coordinate":{"lat":52.3888893127441,"lng":4.83777761459351},"countryCode":"NL","name":"Amsterdam Sloterdijk","stationCode":"ASS","uicCode":"8400059"},"description":"vanaf de voorzijde van het station"},{"station":{"coordinate":{"lat":52.3788871765137,"lng":4.90027761459351},"countryCode":"NL","name":"Amsterdam Centraal","stationCode":"ASD","uicCode":"8400058"},"description":"volg de aanwijzingen op het station"}],"label":"Er rijden bussen van Haarlem, Amsterdam Sloterdijk naar Amsterdam Centraal.","shortLabel":"Er rijden bussen Haarlem -> Sloterdijk -> Amsterdam C."}},{"start":"2024-11-01T00:50:00+0100","end":"2024-11-01T01:40:00+0100","alternativeTransport":{"location":[{"station":{"coordinate":{"lat":52.3788871765137,"lng":4.90027761459351},"countryCode":"NL","name":"Amsterdam Centraal","stationCode":"ASD","uicCode":"8400058"},"description":"vanaf het busstation"},{"station":{"coordinate":{"lat":52.3888893127441,"lng":4.83777761459351},"countryCode":"NL","name":"Amsterdam Sloterdijk","stationCode":"ASS","uicCode":"8400059"},"description":"vanaf de voorzijde van het station"},{"station":{"coordinate":{"lat":52.385935,"lng":4.747165},"countryCode":"NL","name":"Halfweg-Zwanenburg","stationCode":"HWZB","uicCode":"8400400"},"description":"vanaf de bushalte"},{"station":{"coordinate":{"lat":52.3827781677246,"lng":4.67305564880371},"countryCode":"NL","name":"Haarlem Spaarnwoude","stationCode":"HLMS","uicCode":"8400270"},"description":"vanaf de bushalte"},{"station":{"coordinate":{"lat":52.3877792358398,"lng":4.63833332061768},"countryCode":"NL","name":"Haarlem","stationCode":"HLM","uicCode":"8400285"},"description":"volg de aanwijzingen op het station"}],"label":"Er rijden stopbussen van Amsterdam Centraal, Amsterdam Sloterdijk, Halfweg-Zwanenburg, Haarlem Spaarnwoude naar Haarlem.","shortLabel":"Er rijden stopbussen Amsterdam C. -> Sloterdijk -> Halfweg-Zw. -> Spaarnwoude -> Haarlem."}},{"start":"2024-11-01T00:50:00+0100","end":"2024-11-01T01:40:00+0100","alternativeTransport":{"location":[{"station":{"coordinate":{"lat":52.3877792358398,"lng":4.63833332061768},"countryCode":"NL","name":"Haarlem","stationCode":"HLM","uicCode":"8400285"},"description":"vanaf de Jansweg"},{"station":{"coordinate":{"lat":52.3888893127441,"lng":4.83777761459351},"countryCode":"NL","name":"Amsterdam Sloterdijk","stationCode":"ASS","uicCode":"8400059"},"description":"vanaf de voorzijde van het station"},{"station":{"coordinate":{"lat":52.3788871765137,"lng":4.90027761459351},"countryCode":"NL","name":"Amsterdam Centraal","stationCode":"ASD","uicCode":"8400058"},"description":"volg de aanwijzingen op het station"}],"label":"Er rijden bussen van Haarlem, Amsterdam Sloterdijk naar Amsterdam Centraal.","shortLabel":"Er rijden bussen Haarlem -> Sloterdijk -> Amsterdam C."}},{"start":"2024-11-02T01:00:00+0100","end":"2024-11-02T04:20:00+0100","alternativeTransport":{"location":[{"station":{"coordinate":{"lat":52.3788871765137,"lng":4.90027761459351},"countryCode":"NL","name":"Amsterdam Centraal","stationCode":"ASD","uicCode":"8400058"},"description":"vanaf het busstation"},{"station":{"coordinate":{"lat":52.3877792358398,"lng":4.63833332061768},"countryCode":"NL","name":"Haarlem","stationCode":"HLM","uicCode":"8400285"},"description":"vanaf de Jansweg"}],"label":"Er rijden bussen tussen Amsterdam Centraal en Haarlem.","shortLabel":"Er rijden bussen Amsterdam C. - Haarlem."}},{"start":"2024-11-03T01:00:00+0100","end":"2024-11-03T04:20:00+0100","alternativeTransport":{"location":[{"station":{"coordinate":{"lat":52.3788871765137,"lng":4.90027761459351},"countryCode":"NL","name":"Amsterdam Centraal","stationCode":"ASD","uicCode":"8400058"},"description":"vanaf het busstation"},{"station":{"coordinate":{"lat":52.3877792358398,"lng":4.63833332061768},"countryCode":"NL","name":"Haarlem","stationCode":"HLM","uicCode":"8400285"},"description":"vanaf de Jansweg"}],"label":"Er rijden bussen tussen Amsterdam Centraal en Haarlem.","shortLabel":"Er rijden bussen Amsterdam C. - Haarlem."}},{"start":"2024-11-04T00:50:00+0100","end":"2024-11-04T01:40:00+0100","alternativeTransport":{"location":[{"station":{"coordinate":{"lat":52.3788871765137,"lng":4.90027761459351},"countryCode":"NL","name":"Amsterdam Centraal","stationCode":"ASD","uicCode":"8400058"},"description":"vanaf het busstation"},{"station":{"coordinate":{"lat":52.3888893127441,"lng":4.83777761459351},"countryCode":"NL","name":"Amsterdam Sloterdijk","stationCode":"ASS","uicCode":"8400059"},"description":"vanaf de voorzijde van het station"},{"station":{"coordinate":{"lat":52.385935,"lng":4.747165},"countryCode":"NL","name":"Halfweg-Zwanenburg","stationCode":"HWZB","uicCode":"8400400"},"description":"vanaf de bushalte"},{"station":{"coordinate":{"lat":52.3827781677246,"lng":4.67305564880371},"countryCode":"NL","name":"Haarlem Spaarnwoude","stationCode":"HLMS","uicCode":"8400270"},"description":"vanaf de bushalte"},{"station":{"coordinate":{"lat":52.3877792358398,"lng":4.63833332061768},"countryCode":"NL","name":"Haarlem","stationCode":"HLM","uicCode":"8400285"},"description":"volg de aanwijzingen op het station"}],"label":"Er rijden stopbussen van Amsterdam Centraal, Amsterdam Sloterdijk, Halfweg-Zwanenburg, Haarlem Spaarnwoude naar Haarlem.","shortLabel":"Er rijden stopbussen Amsterdam C. -> Sloterdijk -> Halfweg-Zw. -> Spaarnwoude -> Haarlem."}},{"start":"2024-11-04T00:50:00+0100","end":"2024-11-04T01:40:00+0100","alternativeTransport":{"location":[{"station":{"coordinate":{"lat":52.3877792358398,"lng":4.63833332061768},"countryCode":"NL","name":"Haarlem","stationCode":"HLM","uicCode":"8400285"},"description":"vanaf de Jansweg"},{"station":{"coordinate":{"lat":52.3888893127441,"lng":4.83777761459351},"countryCode":"NL","name":"Amsterdam Sloterdijk","stationCode":"ASS","uicCode":"8400059"},"description":"vanaf de voorzijde van het station"},{"station":{"coordinate":{"lat":52.3788871765137,"lng":4.90027761459351},"countryCode":"NL","name":"Amsterdam Centraal","stationCode":"ASD","uicCode":"8400058"},"description":"volg de aanwijzingen op het station"}],"label":"Er rijden bussen van Haarlem, Amsterdam Sloterdijk naar Amsterdam Centraal.","shortLabel":"Er rijden bussen Haarlem -> Sloterdijk -> Amsterdam C."}}]},{"type":"MAINTENANCE","id":"7005484","title":"Groningen - Bad Nieuweschans; Groningen - Veendam.","isActive":true,"local":false,"titleSections":[[{"type":"STATION","value":"Groningen"},{"type":"ICON","value":"MAINTENANCE"},{"type":"STATION","value":"Bad Nieuweschans"}],[{"type":"STATION","value":"Groningen"},{"type":"ICON","value":"MAINTENANCE"},{"type":"STATION","value":"Veendam"}]],"registrationTime":"2024-09-23T15:06:55+0200","start":"2024-10-26T04:00:00+0200","releaseTime":"2024-09-23T15:06:55+0200","end":"2024-11-04T02:00:00+0100","period":"Zaterdag 26 oktober 4:00 uur t/m maandag 4 november 2:00 uur.","impact":{"value":3},"publicationSections":[{"section":{"stations":[{"coordinate":{"lat":53.2105560302734,"lng":6.56472206115723},"countryCode":"NL","name":"Groningen","stationCode":"GN","uicCode":"8400263"},{"coordinate":{"lat":53.20480027,"lng":6.5854178},"countryCode":"NL","name":"Groningen Europapark","stationCode":"GERP","uicCode":"8400238"},{"coordinate":{"lat":53.1617362,"lng":6.7220882},"countryCode":"NL","name":"Kropswolde","stationCode":"KW","uicCode":"8400369"},{"coordinate":{"lat":53.1607232,"lng":6.7402989},"countryCode":"NL","name":"Martenshoek","stationCode":"MTH","uicCode":"8400430"},{"coordinate":{"lat":53.1598181316756,"lng":6.77075386047363},"countryCode":"NL","name":"Hoogezand-Sappemeer","stationCode":"HGZ","uicCode":"8400331"},{"coordinate":{"lat":53.1596122800056,"lng":6.8679141998291},"countryCode":"NL","name":"Zuidbroek","stationCode":"ZB","uicCode":"8400742"},{"coordinate":{"lat":53.1655362,"lng":6.9777775},"countryCode":"NL","name":"Scheemda","stationCode":"SDA","uicCode":"8400551"},{"coordinate":{"lat":53.1392377,"lng":7.035101},"countryCode":"NL","name":"Winschoten","stationCode":"WS","uicCode":"8400696"},{"coordinate":{"lat":53.1844,"lng":7.19937},"countryCode":"NL","name":"Bad Nieuweschans","stationCode":"NSCH","uicCode":"8400457"}],"direction":"BOTH"},"consequence":{"section":{"stations":[{"coordinate":{"lat":53.2105560302734,"lng":6.56472206115723},"countryCode":"NL","name":"Groningen","stationCode":"GN","uicCode":"8400263"},{"coordinate":{"lat":53.20480027,"lng":6.5854178},"countryCode":"NL","name":"Groningen Europapark","stationCode":"GERP","uicCode":"8400238"},{"coordinate":{"lat":53.1617362,"lng":6.7220882},"countryCode":"NL","name":"Kropswolde","stationCode":"KW","uicCode":"8400369"},{"coordinate":{"lat":53.1607232,"lng":6.7402989},"countryCode":"NL","name":"Martenshoek","stationCode":"MTH","uicCode":"8400430"},{"coordinate":{"lat":53.1598181316756,"lng":6.77075386047363},"countryCode":"NL","name":"Hoogezand-Sappemeer","stationCode":"HGZ","uicCode":"8400331"},{"coordinate":{"lat":53.1596122800056,"lng":6.8679141998291},"countryCode":"NL","name":"Zuidbroek","stationCode":"ZB","uicCode":"8400742"},{"coordinate":{"lat":53.1655362,"lng":6.9777775},"countryCode":"NL","name":"Scheemda","stationCode":"SDA","uicCode":"8400551"},{"coordinate":{"lat":53.1392377,"lng":7.035101},"countryCode":"NL","name":"Winschoten","stationCode":"WS","uicCode":"8400696"},{"coordinate":{"lat":53.1844,"lng":7.19937},"countryCode":"NL","name":"Bad Nieuweschans","stationCode":"NSCH","uicCode":"8400457"}],"direction":"ONE_WAY"},"description":"rijden bussen","level":"LESS_TRAINS"},"sectionType":"NL"},{"section":{"stations":[{"coordinate":{"lat":53.2105560302734,"lng":6.56472206115723},"countryCode":"NL","name":"Groningen","stationCode":"GN","uicCode":"8400263"},{"coordinate":{"lat":53.20480027,"lng":6.5854178},"countryCode":"NL","name":"Groningen Europapark","stationCode":"GERP","uicCode":"8400238"},{"coordinate":{"lat":53.1617362,"lng":6.7220882},"countryCode":"NL","name":"Kropswolde","stationCode":"KW","uicCode":"8400369"},{"coordinate":{"lat":53.1607232,"lng":6.7402989},"countryCode":"NL","name":"Martenshoek","stationCode":"MTH","uicCode":"8400430"},{"coordinate":{"lat":53.1598181316756,"lng":6.77075386047363},"countryCode":"NL","name":"Hoogezand-Sappemeer","stationCode":"HGZ","uicCode":"8400331"},{"coordinate":{"lat":53.1596122800056,"lng":6.8679141998291},"countryCode":"NL","name":"Zuidbroek","stationCode":"ZB","uicCode":"8400742"},{"coordinate":{"lat":53.10324,"lng":6.88475},"countryCode":"NL","name":"Veendam","stationCode":"VDM","uicCode":"8400636"}],"direction":"BOTH"},"consequence":{"section":{"stations":[{"coordinate":{"lat":53.2105560302734,"lng":6.56472206115723},"countryCode":"NL","name":"Groningen","stationCode":"GN","uicCode":"8400263"},{"coordinate":{"lat":53.20480027,"lng":6.5854178},"countryCode":"NL","name":"Groningen Europapark","stationCode":"GERP","uicCode":"8400238"},{"coordinate":{"lat":53.1617362,"lng":6.7220882},"countryCode":"NL","name":"Kropswolde","stationCode":"KW","uicCode":"8400369"},{"coordinate":{"lat":53.1607232,"lng":6.7402989},"countryCode":"NL","name":"Martenshoek","stationCode":"MTH","uicCode":"8400430"},{"coordinate":{"lat":53.1598181316756,"lng":6.77075386047363},"countryCode":"NL","name":"Hoogezand-Sappemeer","stationCode":"HGZ","uicCode":"8400331"},{"coordinate":{"lat":53.1596122800056,"lng":6.8679141998291},"countryCode":"NL","name":"Zuidbroek","stationCode":"ZB","uicCode":"8400742"},{"coordinate":{"lat":53.10324,"lng":6.88475},"countryCode":"NL","name":"Veendam","stationCode":"VDM","uicCode":"8400636"}],"direction":"ONE_WAY"},"description":"rijden bussen","level":"LESS_TRAINS"},"sectionType":"NL"}],"summaryAdditionalTravelTime":{"label":"De extra reistijd kan oplopen tot 45 minuten.","shortLabel":"Extra reistijd tot 45 min.","maximumDurationInMinutes":45},"timespans":[{"start":"2024-10-26T04:00:00+0200","end":"2024-11-04T02:00:00+0100","period":"Zaterdag 26 oktober 4:00 uur t/m maandag 4 november 2:00 uur.","situation":{"label":"Door werkzaamheden: tussen Groningen en Bad Nieuweschans rijden er bussen en tussen Groningen en Veendam rijden er bussen."},"cause":{"label":"werkzaamheden"},"additionalTravelTime":{"label":"De extra reistijd kan oplopen tot 45 minuten.","shortLabel":"Extra reistijd tot 45 min.","maximumDurationInMinutes":45},"alternativeTransport":{"label":"er rijden stopbussen","shortLabel":"er rijden stopbussen"},"advices":[]}],"alternativeTransportTimespans":[{"start":"2024-10-26T04:00:00+0200","end":"2024-11-04T02:00:00+0100","alternativeTransport":{"location":[{"station":{"coordinate":{"lat":53.2105560302734,"lng":6.56472206115723},"countryCode":"NL","name":"Groningen","stationCode":"GN","uicCode":"8400263"},"description":"vanaf het busstation halte AB"},{"station":{"coordinate":{"lat":53.20480027,"lng":6.5854178},"countryCode":"NL","name":"Groningen Europapark","stationCode":"GERP","uicCode":"8400238"},"description":"vanaf de bushalte"},{"station":{"coordinate":{"lat":53.1617362,"lng":6.7220882},"countryCode":"NL","name":"Kropswolde","stationCode":"KW","uicCode":"8400369"},"description":"vanaf de provinciale weg"},{"station":{"coordinate":{"lat":53.1607232,"lng":6.7402989},"countryCode":"NL","name":"Martenshoek","stationCode":"MTH","uicCode":"8400430"},"description":"vanaf de bushalte"},{"station":{"coordinate":{"lat":53.1598181316756,"lng":6.77075386047363},"countryCode":"NL","name":"Hoogezand-Sappemeer","stationCode":"HGZ","uicCode":"8400331"},"description":"vanaf de voorzijde van het station"},{"station":{"coordinate":{"lat":53.1596122800056,"lng":6.8679141998291},"countryCode":"NL","name":"Zuidbroek","stationCode":"ZB","uicCode":"8400742"},"description":"vanaf de bushalte"},{"station":{"coordinate":{"lat":53.1655362,"lng":6.9777775},"countryCode":"NL","name":"Scheemda","stationCode":"SDA","uicCode":"8400551"},"description":"vanaf de bushalte"},{"station":{"coordinate":{"lat":53.1392377,"lng":7.035101},"countryCode":"NL","name":"Winschoten","stationCode":"WS","uicCode":"8400696"},"description":"vanaf het busstation"},{"station":{"coordinate":{"lat":53.1844,"lng":7.19937},"countryCode":"NL","name":"Bad Nieuweschans","stationCode":"NSCH","uicCode":"8400457"},"description":"vanaf de voorzijde van het station"}],"label":"Er rijden stopbussen tussen Groningen, Groningen Europapark, Kropswolde, Martenshoek, Hoogezand-Sappemeer, Zuidbroek, Scheemda, Winschoten en Bad Nieuweschans.","shortLabel":"Er rijden stopbussen Groningen - Europapark - Kropswolde - Martenshoek - Hoogezand-Sap. - Zuidbroek - Scheemda - Winschoten - Bad Nieuweschans."}},{"start":"2024-10-26T04:00:00+0200","end":"2024-11-04T02:00:00+0100","alternativeTransport":{"location":[{"station":{"coordinate":{"lat":53.2105560302734,"lng":6.56472206115723},"countryCode":"NL","name":"Groningen","stationCode":"GN","uicCode":"8400263"},"description":"vanaf het busstation halte AB"},{"station":{"coordinate":{"lat":53.20480027,"lng":6.5854178},"countryCode":"NL","name":"Groningen Europapark","stationCode":"GERP","uicCode":"8400238"},"description":"vanaf de bushalte"},{"station":{"coordinate":{"lat":53.1617362,"lng":6.7220882},"countryCode":"NL","name":"Kropswolde","stationCode":"KW","uicCode":"8400369"},"description":"vanaf de provinciale weg"},{"station":{"coordinate":{"lat":53.1607232,"lng":6.7402989},"countryCode":"NL","name":"Martenshoek","stationCode":"MTH","uicCode":"8400430"},"description":"vanaf de bushalte"},{"station":{"coordinate":{"lat":53.1598181316756,"lng":6.77075386047363},"countryCode":"NL","name":"Hoogezand-Sappemeer","stationCode":"HGZ","uicCode":"8400331"},"description":"vanaf de voorzijde van het station"},{"station":{"coordinate":{"lat":53.1596122800056,"lng":6.8679141998291},"countryCode":"NL","name":"Zuidbroek","stationCode":"ZB","uicCode":"8400742"},"description":"vanaf de bushalte"},{"station":{"coordinate":{"lat":53.10324,"lng":6.88475},"countryCode":"NL","name":"Veendam","stationCode":"VDM","uicCode":"8400636"},"description":"vanaf de voorzijde van het station"}],"label":"Er rijden stopbussen tussen Groningen, Groningen Europapark, Kropswolde, Martenshoek, Hoogezand-Sappemeer, Zuidbroek en Veendam.","shortLabel":"Er rijden stopbussen Groningen - Europapark - Kropswolde - Martenshoek - Hoogezand-Sap. - Zuidbroek - Veendam."}}]},{"type":"MAINTENANCE","id":"7005266","title":"Heerlen - Aachen Hbf.","isActive":true,"local":false,"titleSections":[[{"type":"STATION","value":"Heerlen"},{"type":"ICON","value":"MAINTENANCE"},{"type":"STATION","value":"Aachen Hbf"}]],"registrationTime":"2024-10-17T10:20:44+0200","start":"2024-10-28T21:00:00+0100","releaseTime":"2024-10-17T10:20:44+0200","end":"2024-10-29T01:30:00+0100","period":"Maandag 28 oktober 21:00 uur t/m dinsdag 29 oktober 1:30 uur.","impact":{"value":2},"publicationSections":[{"section":{"stations":[{"coordinate":{"lat":50.8908348083496,"lng":5.97499990463257},"countryCode":"NL","name":"Heerlen","stationCode":"HRL","uicCode":"8400307"},{"coordinate":{"lat":50.8963890075684,"lng":6.01916646957398},"countryCode":"NL","name":"Landgraaf","stationCode":"LG","uicCode":"8400548"},{"coordinate":{"lat":50.8960498196442,"lng":6.0602474212646396},"countryCode":"NL","name":"Eygelshoven Markt","stationCode":"EGHM","uicCode":"8400234"},{"coordinate":{"lat":50.870916,"lng":6.094486},"countryCode":"D","name":"Herzogenrath","stationCode":"HZ","uicCode":"8015190"},{"coordinate":{"lat":50.7678,"lng":6.091499},"countryCode":"D","name":"Aachen Hbf","stationCode":"AHBF","uicCode":"8015345"}],"direction":"BOTH"},"consequence":{"section":{"stations":[{"coordinate":{"lat":50.8908348083496,"lng":5.97499990463257},"countryCode":"NL","name":"Heerlen","stationCode":"HRL","uicCode":"8400307"},{"coordinate":{"lat":50.8963890075684,"lng":6.01916646957398},"countryCode":"NL","name":"Landgraaf","stationCode":"LG","uicCode":"8400548"},{"coordinate":{"lat":50.8960498196442,"lng":6.0602474212646396},"countryCode":"NL","name":"Eygelshoven Markt","stationCode":"EGHM","uicCode":"8400234"},{"coordinate":{"lat":50.870916,"lng":6.094486},"countryCode":"D","name":"Herzogenrath","stationCode":"HZ","uicCode":"8015190"},{"coordinate":{"lat":50.7678,"lng":6.091499},"countryCode":"D","name":"Aachen Hbf","stationCode":"AHBF","uicCode":"8015345"}],"direction":"ONE_WAY"},"description":"rijden bussen","level":"LESS_TRAINS"},"sectionType":"NEIGHBORING_COUNTRY"}],"summaryAdditionalTravelTime":{"label":"De extra reistijd is ongeveer 30 minuten.","shortLabel":"Extra reistijd 30 min.","minimumDurationInMinutes":30,"maximumDurationInMinutes":30},"timespans":[{"start":"2024-10-28T21:00:00+0100","end":"2024-10-29T01:30:00+0100","period":"Maandag 28 oktober 21:00 uur t/m dinsdag 29 oktober 1:30 uur.","situation":{"label":"Door werkzaamheden: tussen Heerlen en Aachen Hbf rijden er bussen."},"cause":{"label":"werkzaamheden"},"additionalTravelTime":{"label":"De extra reistijd is ongeveer 30 minuten.","shortLabel":"Extra reistijd 30 min.","minimumDurationInMinutes":30,"maximumDurationInMinutes":30},"alternativeTransport":{"label":"er rijden stopbussen","shortLabel":"er rijden stopbussen"},"advices":[]}],"alternativeTransportTimespans":[{"start":"2024-10-28T21:00:00+0100","end":"2024-10-29T01:30:00+0100","alternativeTransport":{"location":[{"station":{"coordinate":{"lat":50.8908348083496,"lng":5.97499990463257},"countryCode":"NL","name":"Heerlen","stationCode":"HRL","uicCode":"8400307"},"description":"vanaf het busstation Perron A"},{"station":{"coordinate":{"lat":50.8963890075684,"lng":6.01916646957398},"countryCode":"NL","name":"Landgraaf","stationCode":"LG","uicCode":"8400548"},"description":"vanaf de doorgaande weg, voorzijde station"},{"station":{"coordinate":{"lat":50.8960498196442,"lng":6.0602474212646396},"countryCode":"NL","name":"Eygelshoven Markt","stationCode":"EGHM","uicCode":"8400234"},"description":"vanaf de bushalte Centrum"},{"station":{"coordinate":{"lat":50.870916,"lng":6.094486},"countryCode":"D","name":"Herzogenrath","stationCode":"HZ","uicCode":"8015190"},"description":"volg de aanwijzingen op het station"},{"station":{"coordinate":{"lat":50.78036,"lng":6.070715},"countryCode":"D","name":"Aachen West","stationCode":"AW","uicCode":"8015199"},"description":"volg de aanwijzingen op het station"},{"station":{"coordinate":{"lat":50.7678,"lng":6.091499},"countryCode":"D","name":"Aachen Hbf","stationCode":"AHBF","uicCode":"8015345"},"description":"volg de aanwijzingen op het station"}],"label":"Er rijden stopbussen tussen Heerlen, Landgraaf, Eygelshoven Markt, Herzogenrath, Aachen West en Aachen Hbf.","shortLabel":"Er rijden stopbussen Heerlen - Landgraaf - Eygelshoven Mrkt - Herzogenrath - Aachen West - Aachen Hbf."}}]},{"type":"MAINTENANCE","id":"7005419","title":"Roosendaal - Vlissingen.","isActive":false,"local":false,"titleSections":[[{"type":"STATION","value":"Roosendaal"},{"type":"ICON","value":"MAINTENANCE"},{"type":"STATION","value":"Bergen op Zoom"},{"type":"STATION","value":"Vlissingen"}]],"registrationTime":"2024-10-17T10:09:14+0200","start":"2024-10-29T05:00:00+0100","releaseTime":"2024-10-17T10:09:14+0200","end":"2024-10-31T05:55:00+0100","period":"Dinsdag 29 oktober 5:00 uur t/m donderdag 31 oktober 5:55 uur.","impact":{"value":2},"publicationSections":[{"section":{"stations":[{"coordinate":{"lat":51.5402793884277,"lng":4.45833349227905},"countryCode":"NL","name":"Roosendaal","stationCode":"RSD","uicCode":"8400526"},{"coordinate":{"lat":51.4938888549805,"lng":4.29611110687256},"countryCode":"NL","name":"Bergen op Zoom","stationCode":"BGN","uicCode":"8400108"},{"coordinate":{"lat":51.422779083252,"lng":4.16111087799072},"countryCode":"NL","name":"Rilland-Bath","stationCode":"RB","uicCode":"8400521"},{"coordinate":{"lat":51.4333343505859,"lng":4.11694431304932},"countryCode":"NL","name":"Krabbendijke","stationCode":"KBD","uicCode":"8400367"},{"coordinate":{"lat":51.4650001525879,"lng":4.03722238540649},"countryCode":"NL","name":"Kruiningen-Yerseke","stationCode":"KRG","uicCode":"8400370"},{"coordinate":{"lat":51.4808349609375,"lng":3.95611119270325},"countryCode":"NL","name":"Kapelle-Biezelinge","stationCode":"BZL","uicCode":"8400354"},{"coordinate":{"lat":51.4980545043945,"lng":3.89055562019348},"countryCode":"NL","name":"Goes","stationCode":"GS","uicCode":"8400253"},{"coordinate":{"lat":51.5016670227051,"lng":3.66916656494141},"countryCode":"NL","name":"Arnemuiden","stationCode":"ARN","uicCode":"8400069"},{"coordinate":{"lat":51.4947204589844,"lng":3.61722230911255},"countryCode":"NL","name":"Middelburg","stationCode":"MDB","uicCode":"8400436"},{"coordinate":{"lat":51.4647216796875,"lng":3.59527778625488},"countryCode":"NL","name":"Vlissingen Souburg","stationCode":"VSS","uicCode":"8400653"},{"coordinate":{"lat":51.4458351135254,"lng":3.59527778625488},"countryCode":"NL","name":"Vlissingen","stationCode":"VS","uicCode":"8400652"}],"direction":"BOTH"},"consequence":{"section":{"stations":[{"coordinate":{"lat":51.5402793884277,"lng":4.45833349227905},"countryCode":"NL","name":"Roosendaal","stationCode":"RSD","uicCode":"8400526"},{"coordinate":{"lat":51.4938888549805,"lng":4.29611110687256},"countryCode":"NL","name":"Bergen op Zoom","stationCode":"BGN","uicCode":"8400108"}],"direction":"ONE_WAY"},"description":"geen treinen","level":"LESS_TRAINS"},"sectionType":"NL"}],"summaryAdditionalTravelTime":{"label":"De extra reistijd kan oplopen tot 30 minuten.","shortLabel":"Extra reistijd tot 30 min.","minimumDurationInMinutes":30,"maximumDurationInMinutes":30},"timespans":[{"start":"2024-10-29T05:00:00+0100","end":"2024-10-29T05:55:00+0100","period":"Dinsdag 29 oktober 5:00 uur t/m dinsdag 29 oktober 5:55 uur.","situation":{"label":"Door werkzaamheden: tussen Roosendaal en Bergen op Zoom rijden er geen treinen."},"cause":{"label":"werkzaamheden"},"additionalTravelTime":{"label":"De extra reistijd is ongeveer 30 minuten.","shortLabel":"Extra reistijd 30 min.","minimumDurationInMinutes":30,"maximumDurationInMinutes":30},"advices":["Eerste trein Roosendaal-Bergen op Zoom en eerste trein Bergen op Zoom-Roosendaal rijden niet. Maak gebruik van de eerstvolgende trein."]},{"start":"2024-10-30T05:00:00+0100","end":"2024-10-30T05:55:00+0100","period":"Woensdag 30 oktober 5:00 uur t/m woensdag 30 oktober 5:55 uur.","situation":{"label":"Door werkzaamheden: tussen Roosendaal en Bergen op Zoom rijden er geen treinen."},"cause":{"label":"werkzaamheden"},