[{"id":"6019296","type":"DISRUPTION","registrationTime":"2022-10-17T14:59:31+0200","releaseTime":"2022-10-17T14:59:31+0200","local":false,"title":"Roosendaal-Vlissingen","titleSections":[[{"type":"STATION","value":"Roosendaal"},{"type":"ICON","value":"DISRUPTION"},{"type":"STATION","value":"Kruiningen-Y."},{"type":"STATION","value":"Vlissingen"}]],"topic":"disruption_6019296_nl","isActive":true,"start":"2022-10-17T09:53:56+0200","end":"2022-10-20T15:00:00+0200","phase":{"id":"3","label":"Vervangend vervoer"},"impact":{"value":3},"expectedDuration":{"description":"Dit duurt ten minste tot donderdag 20 oktober 15:00 uur.","endTime":"2022-10-20T15:00:00+0200"},"summaryAdditionalTravelTime":{"label":"De extra reistijd is meer dan 60 minuten.","shortLabel":"Extra reistijd meer dan 60 min.","minimumDurationInMinutes":60},"publicationSections":[{"section":{"stations":[{"uicCode":"8400526","stationCode":"RSD","name":"Roosendaal","coordinate":{"lat":51.5402793884277,"lng":4.45833349227905},"countryCode":"NL"},{"uicCode":"8400108","stationCode":"BGN","name":"Bergen op Zoom","coordinate":{"lat":51.4938888549805,"lng":4.29611110687256},"countryCode":"NL"},{"uicCode":"8400521","stationCode":"RB","name":"Rilland-Bath","coordinate":{"lat":51.422779083252,"lng":4.16111087799072},"countryCode":"NL"},{"uicCode":"8400367","stationCode":"KBD","name":"Krabbendijke","coordinate":{"lat":51.4333343505859,"lng":4.11694431304932},"countryCode":"NL"},{"uicCode":"8400370","stationCode":"KRG","name":"Kruiningen-Yerseke","coordinate":{"lat":51.4650001525879,"lng":4.03722238540649},"countryCode":"NL"},{"uicCode":"8400354","stationCode":"BZL","name":"Kapelle-Biezelinge","coordinate":{"lat":51.4808349609375,"lng":3.95611119270325},"countryCode":"NL"},{"uicCode":"8400253","stationCode":"GS","name":"Goes","coordinate":{"lat":51.4980545043945,"lng":3.89055562019348},"countryCode":"NL"},{"uicCode":"8400069","stationCode":"ARN","name":"Arnemuiden","coordinate":{"lat":51.5016670227051,"lng":3.66916656494141},"countryCode":"NL"},{"uicCode":"8400436","stationCode":"MDB","name":"Middelburg","coordinate":{"lat":51.4947204589844,"lng":3.61722230911255},"countryCode":"NL"},{"uicCode":"8400653","stationCode":"VSS","name":"Vlissingen Souburg","coordinate":{"lat":51.4647216796875,"lng":3.59527778625488},"countryCode":"NL"},{"uicCode":"8400652","stationCode":"VS","name":"Vlissingen","coordinate":{"lat":51.4458351135254,"lng":3.59527778625488},"countryCode":"NL"}],"direction":"BOTH"},"consequence":{"section":{"stations":[{"uicCode":"8400526","stationCode":"RSD","name":"Roosendaal","coordinate":{"lat":51.5402793884277,"lng":4.45833349227905},"countryCode":"NL"},{"uicCode":"8400108","stationCode":"BGN","name":"Bergen op Zoom","coordinate":{"lat":51.4938888549805,"lng":4.29611110687256},"countryCode":"NL"},{"uicCode":"8400521","stationCode":"RB","name":"Rilland-Bath","coordinate":{"lat":51.422779083252,"lng":4.16111087799072},"countryCode":"NL"},{"uicCode":"8400367","stationCode":"KBD","name":"Krabbendijke","coordinate":{"lat":51.4333343505859,"lng":4.11694431304932},"countryCode":"NL"},{"uicCode":"8400370","stationCode":"KRG","name":"Kruiningen-Yerseke","coordinate":{"lat":51.4650001525879,"lng":4.03722238540649},"countryCode":"NL"}],"direction":"ONE_WAY"},"description":"geen treinen","level":"NO_OR_MUCH_LESS_TRAINS"},"sectionType":"NL"}],"timespans":[{"start":"2022-10-17T09:53:56+0200","end":"2022-10-20T15:00:00+0200","situation":{"label":"Tussen Roosendaal en Kruiningen-Yerseke rijden er geen treinen door herstelwerkzaamheden."},"cause":{"label":"Herstelwerkzaamheden"},"additionalTravelTime":{"label":"De extra reistijd is meer dan 60 minuten.","shortLabel":"Extra reistijd meer dan 60 min.","minimumDurationInMinutes":60},"alternativeTransport":{"label":"Er rijden stop- en snelbussen.","shortLabel":"Er rijden stop- en snelbussen"},"advices":[]}],"alternativeTransportTimespans":[{"start":"2022-10-17T09:53:56+0200","end":"2022-10-20T15:00:00+0200","alternativeTransport":{"location":[{"station":{"uicCode":"8400526","stationCode":"RSD","name":"Roosendaal","coordinate":{"lat":51.5402793884277,"lng":4.45833349227905},"countryCode":"NL"},"description":"vanaf de voorzijde van het station"},{"station":{"uicCode":"8400108","stationCode":"BGN","name":"Bergen op Zoom","coordinate":{"lat":51.4938888549805,"lng":4.29611110687256},"countryCode":"NL"},"description":"vanaf het Stationsplein"},{"station":{"uicCode":"8400370","stationCode":"KRG","name":"Kruiningen-Yerseke","coordinate":{"lat":51.4650001525879,"lng":4.03722238540649},"countryCode":"NL"},"description":"vanaf de voorzijde van het station"}],"label":"Er rijden snelbussen tussen Roosendaal, Bergen op Zoom en Kruiningen-Yerseke.","shortLabel":"Er rijden snelbussen: Roosendaal, Bergen op Zoom, Kruiningen-Y."}},{"start":"2022-10-17T09:53:56+0200","end":"2022-10-20T15:00:00+0200","alternativeTransport":{"location":[{"station":{"uicCode":"8400526","stationCode":"RSD","name":"Roosendaal","coordinate":{"lat":51.5402793884277,"lng":4.45833349227905},"countryCode":"NL"},"description":"vanaf de voorzijde van het station"},{"station":{"uicCode":"8400108","stationCode":"BGN","name":"Bergen op Zoom","coordinate":{"lat":51.4938888549805,"lng":4.29611110687256},"countryCode":"NL"},"description":"vanaf het Stationsplein"},{"station":{"uicCode":"8400521","stationCode":"RB","name":"Rilland-Bath","coordinate":{"lat":51.422779083252,"lng":4.16111087799072},"countryCode":"NL"},"description":"vanaf de Provinciale weg"},{"station":{"uicCode":"8400367","stationCode":"KBD","name":"Krabbendijke","coordinate":{"lat":51.4333343505859,"lng":4.11694431304932},"countryCode":"NL"},"description":"vanaf de voorzijde van het station"},{"station":{"uicCode":"8400370","stationCode":"KRG","name":"Kruiningen-Yerseke","coordinate":{"lat":51.4650001525879,"lng":4.03722238540649},"countryCode":"NL"},"description":"vanaf de voorzijde van het station"}],"label":"Er rijden stopbussen tussen Roosendaal, Bergen op Zoom, Rilland-Bath, Krabbendijke en Kruiningen-Yerseke.","shortLabel":"Er rijden stopbussen: Roosendaal, Bergen op Zoom, Rilland-Bath, Krabbendijke, Kruiningen-Y."}}]},{"id":"6019304","type":"DISRUPTION","registrationTime":"2022-10-17T14:50:54+0200","releaseTime":"2022-10-17T14:50:54+0200","local":false,"title":"Arnhem-Nijmegen","titleSections":[[{"type":"STATION","value":"Arnhem C."},{"type":"ICON","value":"DISRUPTION"},{"type":"STATION","value":"Nijmegen"}]],"topic":"disruption_6019304_nl","isActive":true,"start":"2022-10-17T14:30:25+0200","end":"2022-10-17T15:15:00+0200","phase":{"id":"4","label":"Storing voorbij"},"impact":{"value":2},"expectedDuration":{"description":"De treinen rijden weer normaal rond 15:15 uur.","endTime":"2022-10-17T15:15:00+0200"},"summaryAdditionalTravelTime":{"label":"De vertraging neemt af.","shortLabel":"Vertraging neemt af"},"publicationSections":[{"section":{"stations":[{"uicCode":"8400071","stationCode":"AH","name":"Arnhem Centraal","coordinate":{"lat":51.9850006103516,"lng":5.89916658401489},"countryCode":"NL"},{"uicCode":"8400227","stationCode":"AHZ","name":"Arnhem Zuid","coordinate":{"lat":51.9550018310547,"lng":5.85194444656372},"countryCode":"NL"},{"uicCode":"8400207","stationCode":"EST","name":"Elst","coordinate":{"lat":51.9169425964355,"lng":5.85500001907349},"countryCode":"NL"},{"uicCode":"8400451","stationCode":"NML","name":"Nijmegen Lent","coordinate":{"lat":51.863154,"lng":5.859625},"countryCode":"NL"},{"uicCode":"8400470","stationCode":"NM","name":"Nijmegen","coordinate":{"lat":51.8436126708984,"lng":5.85222244262695},"countryCode":"NL"}],"direction":"BOTH"},"consequence":{"section":{"stations":[{"uicCode":"8400071","stationCode":"AH","name":"Arnhem Centraal","coordinate":{"lat":51.9850006103516,"lng":5.89916658401489},"countryCode":"NL"},{"uicCode":"8400227","stationCode":"AHZ","name":"Arnhem Zuid","coordinate":{"lat":51.9550018310547,"lng":5.85194444656372},"countryCode":"NL"},{"uicCode":"8400207","stationCode":"EST","name":"Elst","coordinate":{"lat":51.9169425964355,"lng":5.85500001907349},"countryCode":"NL"},{"uicCode":"8400451","stationCode":"NML","name":"Nijmegen Lent","coordinate":{"lat":51.863154,"lng":5.859625},"countryCode":"NL"},{"uicCode":"8400470","stationCode":"NM","name":"Nijmegen","coordinate":{"lat":51.8436126708984,"lng":5.85222244262695},"countryCode":"NL"}],"direction":"ONE_WAY"},"description":"beperkingen voorbij","level":"LESS_TRAINS"},"sectionType":"NL"}],"timespans":[{"start":"2022-10-17T14:30:25+0200","end":"2022-10-17T15:15:00+0200","situation":{"label":"Tussen Arnhem Centraal en Nijmegen zijn de beperkingen voorbij."},"cause":{"label":"Defecte trein"},"additionalTravelTime":{"label":"De vertraging neemt af.","shortLabel":"Vertraging neemt af"},"advices":[]}],"alternativeTransportTimespans":[]},{"id":"6019305","type":"DISRUPTION","registrationTime":"2022-10-17T15:03:13+0200","releaseTime":"2022-10-17T15:03:13+0200","local":false,"title":"Breda-Roosendaal","titleSections":[[{"type":"STATION","value":"Breda"},{"type":"ICON","value":"DISRUPTION"},{"type":"STATION","value":"Roosendaal"}]],"topic":"disruption_6019305_nl","isActive":true,"start":"2022-10-17T14:40:18+0200","end":"2022-10-17T18:15:00+0200","phase":{"id":"2","label":"Impact bekend"},"impact":{"value":3},"expectedDuration":{"description":"Dit duurt tot ongeveer 18:15 uur.","endTime":"2022-10-17T18:15:00+0200"},"publicationSections":[{"section":{"stations":[{"uicCode":"8400131","stationCode":"BD","name":"Breda","coordinate":{"lat":51.5955543518066,"lng":4.78000020980835},"countryCode":"NL"},{"uicCode":"8400218","stationCode":"ETN","name":"Etten-Leur","coordinate":{"lat":51.5750007629395,"lng":4.63583326339722},"countryCode":"NL"},{"uicCode":"8400526","stationCode":"RSD","name":"Roosendaal","coordinate":{"lat":51.5402793884277,"lng":4.45833349227905},"countryCode":"NL"}],"direction":"BOTH"},"consequence":{"section":{"stations":[{"uicCode":"8400131","stationCode":"BD","name":"Breda","coordinate":{"lat":51.5955543518066,"lng":4.78000020980835},"countryCode":"NL"},{"uicCode":"8400218","stationCode":"ETN","name":"Etten-Leur","coordinate":{"lat":51.5750007629395,"lng":4.63583326339722},"countryCode":"NL"},{"uicCode":"8400526","stationCode":"RSD","name":"Roosendaal","coordinate":{"lat":51.5402793884277,"lng":4.45833349227905},"countryCode":"NL"}],"direction":"ONE_WAY"},"description":"geen treinen","level":"NO_OR_MUCH_LESS_TRAINS"},"sectionType":"NL"}],"timespans":[{"start":"2022-10-17T14:40:18+0200","end":"2022-10-17T18:15:00+0200","situation":{"label":"Tussen Breda en Roosendaal rijden er geen treinen door een aanrijding."},"cause":{"label":"Aanrijding"},"advices":[]}],"alternativeTransportTimespans":[]},{"id":"18289af2-6f28-4395-96b5-c5b2b166ca96","title":"Van/naar/via Amsterdam Sloterdijk, dinsdag 18 oktober 21:00 uur t/m zondag 23 oktober","topic":"disruption_18289af2-6f28-4395-96b5-c5b2b166ca96_nl","description":"Door werkzaamheden is van dinsdag 18 oktober 21:00 uur t/m zondag 23 oktober de dienstregeling aangepast van, naar en via Amsterdam Sloterdijk. Plan je reis vooraf met de reisplanner.","priority":"PRIO_3","lastUpdated":"2022-10-15T04:00:00+0200","bodyItems":[],"buttons":{"position":["BOTTOM"],"items":[{"label":"Plan je reis","type":"PLANNER","accessibilityLabel":"Plan je reis","url":"https://www.ns.nl/reisplanner/"},{"label":"Werk aan het spoor","type":"MAINTENANCE","accessibilityLabel":"Werk aan het spoor","url":"https://www.ns.nl/reisinformatie/werk-aan-het-spoor/"}]},"url":"https://www.ns.nl/reisinformatie/calamiteiten/werkzaamheden-van-naar-via-sloterdijk.html","type":"CALAMITY","isActive":true},{"id":"02a4b338-0b19-4e38-a8da-3d31be1f9565","title":"Dordrecht-Lage Zwaluwe, donderdag 20 okt t/m zondag 6 nov.","topic":"disruption_02a4b338-0b19-4e38-a8da-3d31be1f9565_nl","description":"Door werkzaamheden van donderdag 20 oktober t/m zondag 6 november, rijden er geen treinen maar bussen tussen Dordrecht en Lage Zwaluwe. Plan je reis vooraf met de reisplanner.","priority":"PRIO_3","lastUpdated":"2022-07-06T11:52:00+0200","bodyItems":[],"buttons":{"position":["BOTTOM"],"items":[{"label":"Plan je reis","type":"PLANNER","accessibilityLabel":"Plan je reis","url":"https://www.ns.nl/reisplanner"},{"label":"Werk aan het spoor","type":"MAINTENANCE","accessibilityLabel":"werk aan het spoor","url":"https://www.ns.nl/reisinformatie/werk-aan-het-spoor"}]},"url":"https://www.ns.nl/reisinformatie/calamiteiten/werkzaamheden-dordrecht-lage-zwaluwe.html","type":"CALAMITY","isActive":true},{"id":"7002857","type":"MAINTENANCE","registrationTime":"2022-10-01T17:32:07+0200","releaseTime":"2022-10-01T17:32:07+0200","local":false,"title":"Lelystad - Zwolle","titleSections":[[{"type":"STATION","value":"Lelystad C."},{"type":"ICON","value":"MAINTENANCE"},{"type":"STATION","value":"Dronten"},{"type":"STATION","value":"Zwolle"}]],"isActive":true,"start":"2022-10-03T04:00:00+0200","end":"2022-12-15T02:00:00+0100","period":"Maandag 03-10-2022 04:00 uur t/m donderdag 15-12-2022 02:00 uur.","impact":{"value":4},"publicationSections":[{"section":{"stations":[{"uicCode":"8400394","stationCode":"LLS","name":"Lelystad Centrum","coordinate":{"lat":52.5077781677246,"lng":5.47277784347534},"countryCode":"NL"},{"uicCode":"8400198","stationCode":"DRON","name":"Dronten","coordinate":{"lat":52.5344,"lng":5.72089},"countryCode":"NL"},{"uicCode":"8400360","stationCode":"KPNZ","name":"Kampen Zuid","coordinate":{"lat":52.5331,"lng":5.91309},"countryCode":"NL"},{"uicCode":"8400747","stationCode":"ZL","name":"Zwolle","coordinate":{"lat":52.5047225952148,"lng":6.09194421768188},"countryCode":"NL"}],"direction":"BOTH"},"consequence":{"section":{"stations":[{"uicCode":"8400394","stationCode":"LLS","name":"Lelystad Centrum","coordinate":{"lat":52.5077781677246,"lng":5.47277784347534},"countryCode":"NL"},{"uicCode":"8400198","stationCode":"DRON","name":"Dronten","coordinate":{"lat":52.5344,"lng":5.72089},"countryCode":"NL"}],"direction":"ONE_WAY"},"description":"rijden bussen","level":"NO_OR_MUCH_LESS_TRAINS"},"sectionType":"NL"}],"timespans":[{"start":"2022-10-03T04:00:00+0200","end":"2022-12-15T02:00:00+0100","period":"Maandag 03-10-2022 04:00 uur t/m donderdag 15-12-2022 02:00 uur.","situation":{"label":"Door herstelwerkzaamheden: tussen Lelystad Centrum en Dronten rijden er bussen."},"cause":{"label":"Herstelwerkzaamheden"},"alternativeTransport":{"label":"Er rijden bussen.","shortLabel":"er rijden bussen"},"advices":["Tussen Schiphol Airport en Zwolle reist u via Amersfoort C.","Tussen Amsterdam C. en Zwolle reist u via Amersfoort C."]}],"alternativeTransportTimespans":[{"start":"2022-10-03T04:00:00+0200","end":"2022-12-15T02:00:00+0100","alternativeTransport":{"location":[{"station":{"uicCode":"8400394","stationCode":"LLS","name":"Lelystad Centrum","coordinate":{"lat":52.5077781677246,"lng":5.47277784347534},"countryCode":"NL"},"description":"vanaf de achterzijde van het station"},{"station":{"uicCode":"8400198","stationCode":"DRON","name":"Dronten","coordinate":{"lat":52.5344,"lng":5.72089},"countryCode":"NL"},"description":"vanaf de voorzijde van het station"}],"label":"Er rijden bussen tussen Lelystad Centrum en Dronten.","shortLabel":"Er rijden bussen Lelystad C. - Dronten"}}]},{"id":"7002902","type":"MAINTENANCE","registrationTime":"2022-10-12T11:33:43+0200","releaseTime":"2022-10-12T11:33:43+0200","local":false,"title":"Enschede - Gronau - Münster","titleSections":[[{"type":"STATION","value":"Enschede"},{"type":"ICON","value":"MAINTENANCE"},{"type":"STATION","value":"Münster (Westf)"}]],"isActive":true,"start":"2022-10-14T22:00:00+0200","end":"2022-10-24T02:10:00+0200","period":"Vrijdag 14-10-2022 22:00 uur t/m maandag 24-10-2022 02:10 uur.","impact":{"value":3},"publicationSections":[{"section":{"stations":[{"uicCode":"8400212","stationCode":"ES","name":"Enschede","coordinate":{"lat":52.2224998474121,"lng":6.8899998664856},"countryCode":"NL"},{"uicCode":"8400217","stationCode":"ESE","name":"Enschede De Eschmarke","coordinate":{"lat":52.2213897705078,"lng":6.95111131668091},"countryCode":"NL"},{"uicCode":"8400262","stationCode":"GBR","name":"Glanerbrug","coordinate":{"lat":52.2186126708984,"lng":6.97444438934326},"countryCode":"NL"},{"uicCode":"8021128","stationCode":"G","name":"Gronau (Westf.)","coordinate":{"lat":52.21521,"lng":7.022109},"countryCode":"D"},{"uicCode":"8021152","stationCode":"EOP","name":"Ochtrup","coordinate":{"lat":52.201703,"lng":7.182643},"countryCode":"D"},{"uicCode":"8021151","stationCode":"EMTE","name":"Metelen Land","coordinate":{"lat":52.162444,"lng":7.254423},"countryCode":"D"},{"uicCode":"8021143","stationCode":"EBFT","name":"Steinfurt-Burgsteinfurt","coordinate":{"lat":52.147384,"lng":7.32934},"countryCode":"D"},{"uicCode":"8071069","stationCode":"EGRK","name":"Steinfurt-Grottenkamp","coordinate":{"lat":52.123439,"lng":7.376031},"countryCode":"D"},{"uicCode":"8021150","stationCode":"EBGO","name":"Steinfurt-Borghorst","coordinate":{"lat":52.118791,"lng":7.397581},"countryCode":"D"},{"uicCode":"8021149","stationCode":"ENOW","name":"Nordwalde","coordinate":{"lat":52.077618,"lng":7.461706},"countryCode":"D"},{"uicCode":"8021148","stationCode":"EABG","name":"Altenberge","coordinate":{"lat":52.05223,"lng":7.481202},"countryCode":"D"},{"uicCode":"8021147","stationCode":"ENBE","name":"Münster-Häger","coordinate":{"lat":52.022327,"lng":7.562668},"countryCode":"D"},{"uicCode":"8023783","stationCode":"ENHF","name":"Münster (W) Zentrum Nord","coordinate":{"lat":51.984987,"lng":7.63861},"countryCode":"D"},{"uicCode":"8021011","stationCode":"MUNST","name":"Münster (Westf) Hbf","coordinate":{"lat":51.956892,"lng":7.635895},"countryCode":"D"}],"direction":"BOTH"},"consequence":{"section":{"stations":[{"uicCode":"8400212","stationCode":"ES","name":"Enschede","coordinate":{"lat":52.2224998474121,"lng":6.8899998664856},"countryCode":"NL"},{"uicCode":"8400217","stationCode":"ESE","name":"Enschede De Eschmarke","coordinate":{"lat":52.2213897705078,"lng":6.95111131668091},"countryCode":"NL"},{"uicCode":"8400262","stationCode":"GBR","name":"Glanerbrug","coordinate":{"lat":52.2186126708984,"lng":6.97444438934326},"countryCode":"NL"},{"uicCode":"8021128","stationCode":"G","name":"Gronau (Westf.)","coordinate":{"lat":52.21521,"lng":7.022109},"countryCode":"D"},{"uicCode":"8021152","stationCode":"EOP","name":"Ochtrup","coordinate":{"lat":52.201703,"lng":7.182643},"countryCode":"D"},{"uicCode":"8021151","stationCode":"EMTE","name":"Metelen Land","coordinate":{"lat":52.162444,"lng":7.254423},"countryCode":"D"},{"uicCode":"8021143","stationCode":"EBFT","name":"Steinfurt-Burgsteinfurt","coordinate":{"lat":52.147384,"lng":7.32934},"countryCode":"D"},{"uicCode":"8071069","stationCode":"EGRK","name":"Steinfurt-Grottenkamp","coordinate":{"lat":52.123439,"lng":7.376031},"countryCode":"D"},{"uicCode":"8021150","stationCode":"EBGO","name":"Steinfurt-Borghorst","coordinate":{"lat":52.118791,"lng":7.397581},"countryCode":"D"},{"uicCode":"8021149","stationCode":"ENOW","name":"Nordwalde","coordinate":{"lat":52.077618,"lng":7.461706},"countryCode":"D"},{"uicCode":"8021148","stationCode":"EABG","name":"Altenberge","coordinate":{"lat":52.05223,"lng":7.481202},"countryCode":"D"},{"uicCode":"8021147","stationCode":"ENBE","name":"Münster-Häger","coordinate":{"lat":52.022327,"lng":7.562668},"countryCode":"D"},{"uicCode":"8023783","stationCode":"ENHF","name":"Münster (W) Zentrum Nord","coordinate":{"lat":51.984987,"lng":7.63861},"countryCode":"D"},{"uicCode":"8021011","stationCode":"MUNST","name":"Münster (Westf) Hbf","coordinate":{"lat":51.956892,"lng":7.635895},"countryCode":"D"}],"direction":"ONE_WAY"},"description":"aangepaste internationale dienstregeling","level":"LESS_TRAINS"},"sectionType":"NEIGHBORING_COUNTRY"}],"timespans":[{"start":"2022-10-14T22:00:00+0200","end":"2022-10-15T02:10:00+0200","period":"Vrijdag 14-10-2022 22:00 uur t/m zaterdag 15-10-2022 02:10 uur.","situation":{"label":"Door werkzaamheden: tussen Enschede en Münster (Westf) Hbf is de internationale dienstregeling aangepast."},"cause":{"label":"Werkzaamheden"},"additionalTravelTime":{"label":"U heeft geen langere reistijd.","shortLabel":"Geen extra reistijd"},"alternativeTransport":{"label":"Er rijden bussen.","shortLabel":"er rijden bussen"},"advices":["Dit kan gevolgen hebben voor uw reis. Plan uw reis in de internationale app."]},{"start":"2022-10-15T22:00:00+0200","end":"2022-10-16T02:10:00+0200","period":"Zaterdag 15-10-2022 22:00 uur t/m zondag 16-10-2022 02:10 uur.","situation":{"label":"Door werkzaamheden: tussen Enschede en Münster (Westf) Hbf is de internationale dienstregeling aangepast."},"cause":{"label":"Werkzaamheden"},"additionalTravelTime":{"label":"U heeft geen langere reistijd.","shortLabel":"Geen extra reistijd"},"alternativeTransport":{"label":"Er rijden bussen.","shortLabel":"er rijden bussen"},"advices":["Dit kan gevolgen hebben voor uw reis. Plan uw reis in de internationale app."]},{"start":"2022-10-16T22:00:00+0200","end":"2022-10-17T02:10:00+0200","period":"Zondag 16-10-2022 22:00 uur t/m maandag 17-10-2022 02:10 uur.","situation":{"label":"Door werkzaamheden: tussen Enschede en Münster (Westf) Hbf is de internationale dienstregeling aangepast."},"cause":{"label":"Werkzaamheden"},"additionalTravelTime":{"label":"U heeft geen langere reistijd.","shortLabel":"Geen extra reistijd"},"alternativeTransport":{"label":"Er rijden bussen.","shortLabel":"er rijden bussen"},"advices":["Dit kan gevolgen hebben voor uw reis. Plan uw reis in de internationale app."]},{"start":"2022-10-17T22:00:00+0200","end":"2022-10-18T02:10:00+0200","period":"Maandag 17-10-2022 22:00 uur t/m dinsdag 18-10-2022 02:10 uur.","situation":{"label":"Door werkzaamheden: tussen Enschede en Münster (Westf) Hbf is de internationale dienstregeling aangepast."},"cause":{"label":"Werkzaamheden"},"additionalTravelTime":{"label":"U heeft geen langere reistijd.","shortLabel":"Geen extra reistijd"},"alternativeTransport":{"label":"Er rijden bussen.","shortLabel":"er rijden bussen"},"advices":["Dit kan gevolgen hebben voor uw reis. Plan uw reis in de internationale app."]},{"start":"2022-10-18T22:00:00+0200","end":"2022-10-19T02:10:00+0200","period":"Dinsdag 18-10-2022 22:00 uur t/m woensdag 19-10-2022 02:10 uur.","situation":{"label":"Door werkzaamheden: tussen Enschede en Münster (Westf) Hbf is de internationale dienstregeling aangepast."},"cause":{"label":"Werkzaamheden"},"additionalTravelTime":{"label":"U heeft geen langere reistijd.","shortLabel":"Geen extra reistijd"},"alternativeTransport":{"label":"Er rijden bussen.","shortLabel":"er rijden bussen"},"advices":["Dit kan gevolgen hebben voor uw reis. Plan uw reis in de internationale app."]},{"start":"2022-10-19T22:00:00+0200","end":"2022-10-20T02:10:00+0200","period":"Woensdag 19-10-2022 22:00 uur t/m donderdag 20-10-2022 02:10 uur.","situation":{"label":"Door werkzaamheden: tussen Enschede en Münster (Westf) Hbf is de internationale dienstregeling aangepast."},"cause":{"label":"Werkzaamheden"},"additionalTravelTime":{"label":"U heeft geen langere reistijd.","shortLabel":"Geen extra reistijd"},"alternativeTransport":{"label":"Er rijden bussen.","shortLabel":"er rijden bussen"},"advices":["Dit kan gevolgen hebben voor uw reis. Plan uw reis in de internationale app."]},{"start":"2022-10-23T22:00:00+0200","end":"2022-10-24T02:10:00+0200","period":"Zondag 23-10-2022 22:00 uur t/m maandag 24-10-2022 02:10 uur.","situation":{"label":"Door werkzaamheden: tussen Enschede en Münster (Westf) Hbf is de internationale dienstregeling aangepast."},"cause":{"label":"Werkzaamheden"},"additionalTravelTime":{"label":"U heeft geen langere reistijd.","shortLabel":"Geen extra reistijd"},"alternativeTransport":{"label":"Er rijden bussen.","shortLabel":"er rijden bussen"},"advices":["Dit kan gevolgen hebben voor uw reis. Plan uw reis in de internationale app."]}],"alternativeTransportTimespans":[{"start":"2022-10-14T22:00:00+0200","end":"2022-10-15T02:10:00+0200","alternativeTransport":{"location":[],"label":"Er rijden bussen tussen Steinfurt-Borghorst, Nordwalde, Altenberge en Münster (Westf) Hbf.","shortLabel":"Er rijden bussen Steinfurt-Borgh - Nordwalde - Altenberge - Münster (Westf)"}},{"start":"2022-10-15T22:00:00+0200","end":"2022-10-16T02:10:00+0200","alternativeTransport":{"location":[],"label":"Er rijden bussen tussen Steinfurt-Borghorst, Nordwalde, Altenberge en Münster (Westf) Hbf.","shortLabel":"Er rijden bussen Steinfurt-Borgh - Nordwalde - Altenberge - Münster (Westf)"}},{"start":"2022-10-16T22:00:00+0200","end":"2022-10-17T02:10:00+0200","alternativeTransport":{"location":[],"label":"Er rijden bussen tussen Steinfurt-Borghorst, Nordwalde, Altenberge en Münster (Westf) Hbf.","shortLabel":"Er rijden bussen Steinfurt-Borgh - Nordwalde - Altenberge - Münster (Westf)"}},{"start":"2022-10-17T22:00:00+0200","end":"2022-10-18T02:10:00+0200","alternativeTransport":{"location":[],"label":"Er rijden bussen tussen Steinfurt-Borghorst, Nordwalde, Altenberge en Münster (Westf) Hbf.","shortLabel":"Er rijden bussen Steinfurt-Borgh - Nordwalde - Altenberge - Münster (Westf)"}},{"start":"2022-10-18T22:00:00+0200","end":"2022-10-19T02:10:00+0200","alternativeTransport":{"location":[],"label":"Er rijden bussen tussen Steinfurt-Borghorst, Nordwalde, Altenberge en Münster (Westf) Hbf.","shortLabel":"Er rijden bussen Steinfurt-Borgh - Nordwalde - Altenberge - Münster (Westf)"}},{"start":"2022-10-19T22:00:00+0200","end":"2022-10-20T02:10:00+0200","alternativeTransport":{"location":[],"label":"Er rijden bussen tussen Steinfurt-Borghorst, Nordwalde, Altenberge en Münster (Westf) Hbf.","shortLabel":"Er rijden bussen Steinfurt-Borgh - Nordwalde - Altenberge - Münster (Westf)"}},{"start":"2022-10-23T22:00:00+0200","end":"2022-10-24T02:10:00+0200","alternativeTransport":{"location":[],"label":"Er rijden bussen tussen Steinfurt-Borghorst, Nordwalde, Altenberge en Münster (Westf) Hbf.","shortLabel":"Er rijden bussen Steinfurt-Borgh - Nordwalde - Altenberge - Münster (Westf)"}}]},{"id":"7002800","type":"MAINTENANCE","registrationTime":"2022-10-17T13:24:28+0200","releaseTime":"2022-10-17T13:24:28+0200","local":false,"title":"Deventer","titleSections":[[{"type":"STATION","value":"Deventer"}]],"isActive":true,"start":"2022-10-15T01:30:00+0200","end":"2022-10-24T02:00:00+0200","period":"Zaterdag 15-10-2022 01:30 uur t/m maandag 24-10-2022 02:00 uur.","impact":{"value":5},"summaryAdditionalTravelTime":{"label":"De extra reistijd kan oplopen tot 45 minuten.","shortLabel":"Extra reistijd tot 45 min.","maximumDurationInMinutes":45},"publicationSections":[{"section":{"stations":[{"uicCode":"8400173","stationCode":"DV","name":"Deventer","coordinate":{"lat":52.2574996948242,"lng":6.16055536270142},"countryCode":"NL"},{"uicCode":"8400185","stationCode":"DVC","name":"Deventer Colmschate","coordinate":{"lat":52.2502784729004,"lng":6.21444463729858},"countryCode":"NL"},{"uicCode":"8400328","stationCode":"HON","name":"Holten","coordinate":{"lat":52.2838897705078,"lng":6.42027759552002},"countryCode":"NL"},{"uicCode":"8400538","stationCode":"RSN","name":"Rijssen","coordinate":{"lat":52.3122215270996,"lng":6.52027797698975},"countryCode":"NL"},{"uicCode":"8400691","stationCode":"WDN","name":"Wierden","coordinate":{"lat":52.3613891601562,"lng":6.59166669845581},"countryCode":"NL"},{"uicCode":"8400051","stationCode":"AML","name":"Almelo","coordinate":{"lat":52.3580551147461,"lng":6.65388870239258},"countryCode":"NL"}],"direction":"BOTH"},"consequence":{"section":{"stations":[{"uicCode":"8400173","stationCode":"DV","name":"Deventer","coordinate":{"lat":52.2574996948242,"lng":6.16055536270142},"countryCode":"NL"}],"direction":"ONE_WAY"},"description":"dienstregeling aangepast","level":"LESS_TRAINS"},"sectionType":"NL"},{"section":{"stations":[{"uicCode":"8400173","stationCode":"DV","name":"Deventer","coordinate":{"lat":52.2574996948242,"lng":6.16055536270142},"countryCode":"NL"},{"uicCode":"8400744","stationCode":"ZP","name":"Zutphen","coordinate":{"lat":52.1452789306641,"lng":6.19416666030884},"countryCode":"NL"}],"direction":"BOTH"},"consequence":{"section":{"stations":[{"uicCode":"8400173","stationCode":"DV","name":"Deventer","coordinate":{"lat":52.2574996948242,"lng":6.16055536270142},"countryCode":"NL"}],"direction":"ONE_WAY"},"description":"dienstregeling aangepast","level":"LESS_TRAINS"},"sectionType":"NL"},{"section":{"stations":[{"uicCode":"8400066","stationCode":"APD","name":"Apeldoorn","coordinate":{"lat":52.2091674804687,"lng":5.97027778625488},"countryCode":"NL"},{"uicCode":"8400229","stationCode":"APDO","name":"Apeldoorn Osseveld","coordinate":{"lat":52.2152786254883,"lng":6.00444459915161},"countryCode":"NL"},{"uicCode":"8400599","stationCode":"TWL","name":"Twello","coordinate":{"lat":52.2377777099609,"lng":6.09861087799072},"countryCode":"NL"},{"uicCode":"8400173","stationCode":"DV","name":"Deventer","coordinate":{"lat":52.2574996948242,"lng":6.16055536270142},"countryCode":"NL"}],"direction":"BOTH"},"consequence":{"section":{"stations":[{"uicCode":"8400173","stationCode":"DV","name":"Deventer","coordinate":{"lat":52.2574996948242,"lng":6.16055536270142},"countryCode":"NL"}],"direction":"ONE_WAY"},"description":"dienstregeling aangepast","level":"LESS_TRAINS"},"sectionType":"NL"}],"timespans":[{"start":"2022-10-15T01:30:00+0200","end":"2022-10-24T02:00:00+0200","period":"Zaterdag 15-10-2022 01:30 uur t/m maandag 24-10-2022 02:00 uur.","situation":{"label":"Door werkzaamheden: van, via en naar Deventer is de dienstregeling aangepast."},"cause":{"label":"Werkzaamheden"},"additionalTravelTime":{"label":"De extra reistijd kan oplopen tot 45 minuten.","shortLabel":"Extra reistijd tot 45 min.","maximumDurationInMinutes":45},"alternativeTransport":{"label":"Maak gebruik van het vervangende vervoer.","shortLabel":"gebruik het vervangende vervoer"},"advices":["Reis naar Apeldoorn Osseveld via Apeldoorn. Plan uw reis in de app."]}],"alternativeTransportTimespans":[{"start":"2022-10-15T04:00:00+0200","end":"2022-10-17T02:00:00+0200","alternativeTransport":{"location":[{"station":{"uicCode":"8400066","stationCode":"APD","name":"Apeldoorn","coordinate":{"lat":52.2091674804687,"lng":5.97027778625488},"countryCode":"NL"},"description":"vanaf de voorzijde van het station"},{"station":{"uicCode":"8400173","stationCode":"DV","name":"Deventer","coordinate":{"lat":52.2574996948242,"lng":6.16055536270142},"countryCode":"NL"},"description":"vanaf de Stationsstraat"},{"station":{"uicCode":"8400538","stationCode":"RSN","name":"Rijssen","coordinate":{"lat":52.3122215270996,"lng":6.52027797698975},"countryCode":"NL"},"description":"vanaf het P+R-terrein"}],"label":"Er rijden snelbussen tussen Apeldoorn, Deventer en Rijssen.","shortLabel":"Er rijden snelbussen Apeldoorn - Deventer - Rijssen"}},{"start":"2022-10-15T04:00:00+0200","end":"2022-10-17T02:00:00+0200","alternativeTransport":{"location":[{"station":{"uicCode":"8400066","stationCode":"APD","name":"Apeldoorn","coordinate":{"lat":52.2091674804687,"lng":5.97027778625488},"countryCode":"NL"},"description":"vanaf de voorzijde van het station"},{"station":{"uicCode":"8400599","stationCode":"TWL","name":"Twello","coordinate":{"lat":52.2377777099609,"lng":6.09861087799072},"countryCode":"NL"},"description":"vanaf de NS Bushalte"},{"station":{"uicCode":"8400173","stationCode":"DV","name":"Deventer","coordinate":{"lat":52.2574996948242,"lng":6.16055536270142},"countryCode":"NL"},"description":"vanaf de Stationsstraat"},{"station":{"uicCode":"8400185","stationCode":"DVC","name":"Deventer Colmschate","coordinate":{"lat":52.2502784729004,"lng":6.21444463729858},"countryCode":"NL"},"description":"vanaf het P+R-terrein"},{"station":{"uicCode":"8400328","stationCode":"HON","name":"Holten","coordinate":{"lat":52.2838897705078,"lng":6.42027759552002},"countryCode":"NL"},"description":"vanaf de NS Bushalte"},{"station":{"uicCode":"8400538","stationCode":"RSN","name":"Rijssen","coordinate":{"lat":52.3122215270996,"lng":6.52027797698975},"countryCode":"NL"},"description":"vanaf het P+R-terrein"}],"label":"Er rijden stopbussen tussen Apeldoorn, Twello, Deventer, Deventer Colmschate, Holten en Rijssen.","shortLabel":"Er rijden stopbussen Apeldoorn - Twello - Deventer - Colmschate - Holten - Rijssen"}},{"start":"2022-10-15T04:00:00+0200","end":"2022-10-17T02:00:00+0200","alternativeTransport":{"location":[{"station":{"uicCode":"8400066","stationCode":"APD","name":"Apeldoorn","coordinate":{"lat":52.2091674804687,"lng":5.97027778625488},"countryCode":"NL"},"description":"vanaf de voorzijde van het station"},{"station":{"uicCode":"8400229","stationCode":"APDO","name":"Apeldoorn Osseveld","coordinate":{"lat":52.2152786254883,"lng":6.00444459915161},"countryCode":"NL"},"description":"vanaf de NS Bushalte"}],"label":"Er rijden taxibusjes tussen Apeldoorn en Apeldoorn Osseveld.","shortLabel":"Er rijden taxibusjes Apeldoorn - Osseveld"}},{"start":"2022-10-15T04:00:00+0200","end":"2022-10-17T02:00:00+0200","alternativeTransport":{"location":[{"station":{"uicCode":"8400173","stationCode":"DV","name":"Deventer","coordinate":{"lat":52.2574996948242,"lng":6.16055536270142},"countryCode":"NL"},"description":"vanaf de Stationsstraat"},{"station":{"uicCode":"8400744","stationCode":"ZP","name":"Zutphen","coordinate":{"lat":52.1452789306641,"lng":6.19416666030884},"countryCode":"NL"},"description":"vanaf de achterzijde van het station"}],"label":"Er rijden bussen tussen Deventer en Zutphen.","shortLabel":"Er rijden bussen Deventer - Zutphen"}},{"start":"2022-10-17T04:00:00+0200","end":"2022-10-24T02:00:00+0200","alternativeTransport":{"location":[{"station":{"uicCode":"8400066","stationCode":"APD","name":"Apeldoorn","coordinate":{"lat":52.2091674804687,"lng":5.97027778625488},"countryCode":"NL"},"description":"vanaf de voorzijde van het station"},{"station":{"uicCode":"8400173","stationCode":"DV","name":"Deventer","coordinate":{"lat":52.2574996948242,"lng":6.16055536270142},"countryCode":"NL"},"description":"vanaf de Stationsstraat"},{"station":{"uicCode":"8400538","stationCode":"RSN","name":"Rijssen","coordinate":{"lat":52.3122215270996,"lng":6.52027797698975},"countryCode":"NL"},"description":"vanaf het P+R-terrein"}],"label":"Er rijden snelbussen tussen Apeldoorn, Deventer en Rijssen.","shortLabel":"Er rijden snelbussen Apeldoorn - Deventer - Rijssen"}},{"start":"2022-10-17T04:00:00+0200","end":"2022-10-24T02:00:00+0200","alternativeTransport":{"location":[{"station":{"uicCode":"8400066","stationCode":"APD","name":"Apeldoorn","coordinate":{"lat":52.2091674804687,"lng":5.97027778625488},"countryCode":"NL"},"description":"vanaf de voorzijde van het station"},{"station":{"uicCode":"8400599","stationCode":"TWL","name":"Twello","coordinate":{"lat":52.2377777099609,"lng":6.09861087799072},"countryCode":"NL"},"description":"vanaf de NS Bushalte"},{"station":{"uicCode":"8400173","stationCode":"DV","name":"Deventer","coordinate":{"lat":52.2574996948242,"lng":6.16055536270142},"countryCode":"NL"},"description":"vanaf de Stationsstraat"},{"station":{"uicCode":"8400185","stationCode":"DVC","name":"Deventer Colmschate","coordinate":{"lat":52.2502784729004,"lng":6.21444463729858},"countryCode":"NL"},"description":"vanaf het P+R-terrein"},{"station":{"uicCode":"8400328","stationCode":"HON","name":"Holten","coordinate":{"lat":52.2838897705078,"lng":6.42027759552002},"countryCode":"NL"},"description":"vanaf de NS Bushalte"},{"station":{"uicCode":"8400538","stationCode":"RSN","name":"Rijssen","coordinate":{"lat":52.3122215270996,"lng":6.52027797698975},"countryCode":"NL"},"description":"vanaf het P+R-terrein"}],"label":"Er rijden stopbussen tussen Apeldoorn, Twello, Deventer, Deventer Colmschate, Holten en Rijssen.","shortLabel":"Er rijden stopbussen Apeldoorn - Twello - Deventer - Colmschate - Holten - Rijssen"}},{"start":"2022-10-17T04:00:00+0200","end":"2022-10-24T02:00:00+0200","alternativeTransport":{"location":[{"station":{"uicCode":"8400744","stationCode":"ZP","name":"Zutphen","coordinate":{"lat":52.1452789306641,"lng":6.19416666030884},"countryCode":"NL"},"description":"vanaf de achterzijde van het station"},{"station":{"uicCode":"8400173","stationCode":"DV","name":"Deventer","coordinate":{"lat":52.2574996948242,"lng":6.16055536270142},"countryCode":"NL"},"description":"vanaf de Stationsstraat"},{"station":{"uicCode":"8400486","stationCode":"OST","name":"Olst","coordinate":{"lat":52.3347206115723,"lng":6.11305570602417},"countryCode":"NL"},"description":"vanaf de voorzijde van het station"}],"label":"Er rijden bussen tussen Zutphen, Deventer en Olst.","shortLabel":"Er rijden bussen Zutphen - Deventer - Olst"}}]},{"id":"7002822","type":"MAINTENANCE","registrationTime":"2022-10-16T11:11:27+0200","releaseTime":"2022-10-16T11:11:27+0200","local":false,"title":"Amsterdam - Hannover - Berlin","titleSections":[[{"type":"STATION","value":"Amsterdam C."},{"type":"ICON","value":"MAINTENANCE"},{"type":"STATION","value":"Bad Bentheim"},{"type":"STATION","value":"Berlin Hbf"}]],"isActive":true,"start":"2022-10-15T04:00:00+0200","end":"2022-10-24T02:00:00+0200","period":"Zaterdag 15-10-2022 04:00 uur t/m maandag 24-10-2022 02:00 uur.","impact":{"value":2},"summaryAdditionalTravelTime":{"label":"De extra reistijd kan oplopen tot 30 minuten.","shortLabel":"Extra reistijd tot 30 min.","maximumDurationInMinutes":30},"publicationSections":[{"section":{"stations":[{"uicCode":"8400058","stationCode":"ASD","name":"Amsterdam Centraal","coordinate":{"lat":52.3788871765137,"lng":4.90027761459351},"countryCode":"NL"},{"uicCode":"8400060","stationCode":"ASDM","name":"Amsterdam Muiderpoort","coordinate":{"lat":52.3605537414551,"lng":4.93111133575439},"countryCode":"NL"},{"uicCode":"8400235","stationCode":"ASSP","name":"Amsterdam Science Park","coordinate":{"lat":52.35526,"lng":4.94651},"countryCode":"NL"},{"uicCode":"8400165","stationCode":"DMN","name":"Diemen","coordinate":{"lat":52.34515,"lng":4.967566},"countryCode":"NL"},{"uicCode":"8400685","stationCode":"WP","name":"Weesp","coordinate":{"lat":52.3127784729004,"lng":5.04305553436279},"countryCode":"NL"},{"uicCode":"8400452","stationCode":"NDB","name":"Naarden-Bussum","coordinate":{"lat":52.2802772521973,"lng":5.15694427490234},"countryCode":"NL"},{"uicCode":"8400145","stationCode":"BSMZ","name":"Bussum Zuid","coordinate":{"lat":52.2658348083496,"lng":5.16305541992188},"countryCode":"NL"},{"uicCode":"8400324","stationCode":"HVSM","name":"Hilversum Media Park","coordinate":{"lat":52.2380561828613,"lng":5.17388868331909},"countryCode":"NL"},{"uicCode":"8400322","stationCode":"HVS","name":"Hilversum","coordinate":{"lat":52.2258338928223,"lng":5.18194437026978},"countryCode":"NL"},{"uicCode":"8400086","stationCode":"BRN","name":"Baarn","coordinate":{"lat":52.2083320617676,"lng":5.28083324432373},"countryCode":"NL"},{"uicCode":"8400055","stationCode":"AMF","name":"Amersfoort Centraal","coordinate":{"lat":52.1538887023926,"lng":5.37055540084839},"countryCode":"NL"},{"uicCode":"8400490","stationCode":"HVL","name":"Hoevelaken","coordinate":{"lat":52.16652,"lng":5.45718},"countryCode":"NL"},{"uicCode":"8400066","stationCode":"APD","name":"Apeldoorn","coordinate":{"lat":52.2091674804687,"lng":5.97027778625488},"countryCode":"NL"},{"uicCode":"8400229","stationCode":"APDO","name":"Apeldoorn Osseveld","coordinate":{"lat":52.2152786254883,"lng":6.00444459915161},"countryCode":"NL"},{"uicCode":"8400599","stationCode":"TWL","name":"Twello","coordinate":{"lat":52.2377777099609,"lng":6.09861087799072},"countryCode":"NL"},{"uicCode":"8400173","stationCode":"DV","name":"Deventer","coordinate":{"lat":52.2574996948242,"lng":6.16055536270142},"countryCode":"NL"},{"uicCode":"8400185","stationCode":"DVC","name":"Deventer Colmschate","coordinate":{"lat":52.2502784729004,"lng":6.21444463729858},"countryCode":"NL"},{"uicCode":"8400328","stationCode":"HON","name":"Holten","coordinate":{"lat":52.2838897705078,"lng":6.42027759552002},"countryCode":"NL"},{"uicCode":"8400538","stationCode":"RSN","name":"Rijssen","coordinate":{"lat":52.3122215270996,"lng":6.52027797698975},"countryCode":"NL"},{"uicCode":"8400691","stationCode":"WDN","name":"Wierden","coordinate":{"lat":52.3613891601562,"lng":6.59166669845581},"countryCode":"NL"},{"uicCode":"8400051","stationCode":"AML","name":"Almelo","coordinate":{"lat":52.3580551147461,"lng":6.65388870239258},"countryCode":"NL"},{"uicCode":"8400520","stationCode":"AMRI","name":"Almelo de Riet","coordinate":{"lat":52.3419456481934,"lng":6.66666650772095},"countryCode":"NL"},{"uicCode":"8400124","stationCode":"BN","name":"Borne","coordinate":{"lat":52.2988891601562,"lng":6.74805545806885},"countryCode":"NL"},{"uicCode":"8400316","stationCode":"HGL","name":"Hengelo","coordinate":{"lat":52.2616653442383,"lng":6.79388904571533},"countryCode":"NL"},{"uicCode":"8400312","stationCode":"HGLO","name":"Hengelo Oost","coordinate":{"lat":52.2688903808594,"lng":6.81944465637207},"countryCode":"NL"},{"uicCode":"8400483","stationCode":"ODZ","name":"Oldenzaal","coordinate":{"lat":52.3063888549805,"lng":6.93472242355347},"countryCode":"NL"},{"uicCode":"8021156","stationCode":"BH","name":"Bad Bentheim","coordinate":{"lat":52.309685595156,"lng":7.15853691101074},"countryCode":"D"},{"uicCode":"8021067","stationCode":"RHEINE","name":"Rheine","coordinate":{"lat":52.276299,"lng":7.434255},"countryCode":"D"},{"uicCode":"8021025","stationCode":"OSNH","name":"Osnabrück Hbf","coordinate":{"lat":52.272851,"lng":8.061781},"countryCode":"D"},{"uicCode":"8013552","stationCode":"HANN","name":"Hannover Hbf","coordinate":{"lat":52.3770401,"lng":9.7416759},"countryCode":"D"},{"uicCode":"8065969","stationCode":"BERHBL","name":"Berlin Hbf","coordinate":{"lat":52.52503,"lng":13.36946},"countryCode":"D"}],"direction":"BOTH"},"consequence":{"section":{"stations":[{"uicCode":"8400058","stationCode":"ASD","name":"Amsterdam Centraal","coordinate":{"lat":52.3788871765137,"lng":4.90027761459351},"countryCode":"NL"},{"uicCode":"8400060","stationCode":"ASDM","name":"Amsterdam Muiderpoort","coordinate":{"lat":52.3605537414551,"lng":4.93111133575439},"countryCode":"NL"},{"uicCode":"8400235","stationCode":"ASSP","name":"Amsterdam Science Park","coordinate":{"lat":52.35526,"lng":4.94651},"countryCode":"NL"},{"uicCode":"8400165","stationCode":"DMN","name":"Diemen","coordinate":{"lat":52.34515,"lng":4.967566},"countryCode":"NL"},{"uicCode":"8400685","stationCode":"WP","name":"Weesp","coordinate":{"lat":52.3127784729004,"lng":5.04305553436279},"countryCode":"NL"},{"uicCode":"8400452","stationCode":"NDB","name":"Naarden-Bussum","coordinate":{"lat":52.2802772521973,"lng":5.15694427490234},"countryCode":"NL"},{"uicCode":"8400145","stationCode":"BSMZ","name":"Bussum Zuid","coordinate":{"lat":52.2658348083496,"lng":5.16305541992188},"countryCode":"NL"},{"uicCode":"8400324","stationCode":"HVSM","name":"Hilversum Media Park","coordinate":{"lat":52.2380561828613,"lng":5.17388868331909},"countryCode":"NL"},{"uicCode":"8400322","stationCode":"HVS","name":"Hilversum","coordinate":{"lat":52.2258338928223,"lng":5.18194437026978},"countryCode":"NL"},{"uicCode":"8400086","stationCode":"BRN","name":"Baarn","coordinate":{"lat":52.2083320617676,"lng":5.28083324432373},"countryCode":"NL"},{"uicCode":"8400055","stationCode":"AMF","name":"Amersfoort Centraal","coordinate":{"lat":52.1538887023926,"lng":5.37055540084839},"countryCode":"NL"},{"uicCode":"8400490","stationCode":"HVL","name":"Hoevelaken","coordinate":{"lat":52.16652,"lng":5.45718},"countryCode":"NL"},{"uicCode":"8400066","stationCode":"APD","name":"Apeldoorn","coordinate":{"lat":52.2091674804687,"lng":5.97027778625488},"countryCode":"NL"},{"uicCode":"8400229","stationCode":"APDO","name":"Apeldoorn Osseveld","coordinate":{"lat":52.2152786254883,"lng":6.00444459915161},"countryCode":"NL"},{"uicCode":"8400599","stationCode":"TWL","name":"Twello","coordinate":{"lat":52.2377777099609,"lng":6.09861087799072},"countryCode":"NL"},{"uicCode":"8400173","stationCode":"DV","name":"Deventer","coordinate":{"lat":52.2574996948242,"lng":6.16055536270142},"countryCode":"NL"},{"uicCode":"8400185","stationCode":"DVC","name":"Deventer Colmschate","coordinate":{"lat":52.2502784729004,"lng":6.21444463729858},"countryCode":"NL"},{"uicCode":"8400328","stationCode":"HON","name":"Holten","coordinate":{"lat":52.2838897705078,"lng":6.42027759552002},"countryCode":"NL"},{"uicCode":"8400538","stationCode":"RSN","name":"Rijssen","coordinate":{"lat":52.3122215270996,"lng":6.52027797698975},"countryCode":"NL"},{"uicCode":"8400691","stationCode":"WDN","name":"Wierden","coordinate":{"lat":52.3613891601562,"lng":6.59166669845581},"countryCode":"NL"},{"uicCode":"8400051","stationCode":"AML","name":"Almelo","coordinate":{"lat":52.3580551147461,"lng":6.65388870239258},"countryCode":"NL"},{"uicCode":"8400520","stationCode":"AMRI","name":"Almelo de Riet","coordinate":{"lat":52.3419456481934,"lng":6.66666650772095},"countryCode":"NL"},{"uicCode":"8400124","stationCode":"BN","name":"Borne","coordinate":{"lat":52.2988891601562,"lng":6.74805545806885},"countryCode":"NL"},{"uicCode":"8400316","stationCode":"HGL","name":"Hengelo","coordinate":{"lat":52.2616653442383,"lng":6.79388904571533},"countryCode":"NL"},{"uicCode":"8400312","stationCode":"HGLO","name":"Hengelo Oost","coordinate":{"lat":52.2688903808594,"lng":6.81944465637207},"countryCode":"NL"},{"uicCode":"8400483","stationCode":"ODZ","name":"Oldenzaal","coordinate":{"lat":52.3063888549805,"lng":6.93472242355347},"countryCode":"NL"},{"uicCode":"8021156","stationCode":"BH","name":"Bad Bentheim","coordinate":{"lat":52.309685595156,"lng":7.15853691101074},"countryCode":"D"}],"direction":"ONE_WAY"},"description":"aangepaste internationale dienstregeling","level":"LESS_TRAINS"},"sectionType":"NEIGHBORING_COUNTRY"}],"timespans":[{"start":"2022-10-15T04:00:00+0200","end":"2022-10-24T02:00:00+0200","period":"Zaterdag 15-10-2022 04:00 uur t/m maandag 24-10-2022 02:00 uur.","situation":{"label":"Door werkzaamheden: tussen Amsterdam Centraal en Bad Bentheim is de internationale dienstregeling aangepast."},"cause":{"label":"Werkzaamheden"},"additionalTravelTime":{"label":"De extra reistijd kan oplopen tot 30 minuten.","shortLabel":"Extra reistijd tot 30 min.","maximumDurationInMinutes":30},"alternativeTransport":{"label":"Er rijden bussen.","shortLabel":"er rijden bussen"},"advices":["Dit kan gevolgen hebben voor uw reis. Plan uw reis in de app."]}],"alternativeTransportTimespans":[{"start":"2022-10-15T04:00:00+0200","end":"2022-10-24T02:00:00+0200","alternativeTransport":{"location":[{"station":{"uicCode":"8400066","stationCode":"APD","name":"Apeldoorn","coordinate":{"lat":52.2091674804687,"lng":5.97027778625488},"countryCode":"NL"},"description":"vanaf de voorzijde van het station"}],"label":"Er rijden bussen tussen Apeldoorn en Bad Bentheim.","shortLabel":"Er rijden bussen Apeldoorn - Bad Bentheim"}},{"start":"2022-10-15T04:00:00+0200","end":"2022-10-24T02:00:00+0200","alternativeTransport":{"location":[{"station":{"uicCode":"8400316","stationCode":"HGL","name":"Hengelo","coordinate":{"lat":52.2616653442383,"lng":6.79388904571533},"countryCode":"NL"},"description":"vanaf de voorzijde van het station"}],"label":"Er rijden bussen tussen Hengelo en Bad Bentheim.","shortLabel":"Er rijden bussen Hengelo - Bad Bentheim"}}]},{"id":"7002771","type":"MAINTENANCE","registrationTime":"2022-10-17T10:05:01+0200","releaseTime":"2022-10-17T10:05:01+0200","local":false,"title":"Zwolle - Groningen; Zwolle - Leeuwarden","titleSections":[[{"type":"STATION","value":"Zwolle"},{"type":"STATION","value":"Meppel"},{"type":"ICON","value":"MAINTENANCE"},{"type":"STATION","value":"Heerenveen"},{"type":"STATION","value":"Leeuwarden"}],[{"type":"STATION","value":"Zwolle"},{"type":"STATION","value":"Meppel"},{"type":"ICON","value":"MAINTENANCE"},{"type":"STATION","value":"Hoogeveen"},{"type":"STATION","value":"Groningen"}]],"isActive":true,"start":"2022-10-15T04:00:00+0200","end":"2022-10-24T02:00:00+0200","period":"Zaterdag 15-10-2022 04:00 uur t/m maandag 24-10-2022 02:00 uur.","impact":{"value":5},"summaryAdditionalTravelTime":{"label":"De extra reistijd kan oplopen tot 30 minuten.","shortLabel":"Extra reistijd tot 30 min.","maximumDurationInMinutes":30},"publicationSections":[{"section":{"stations":[{"uicCode":"8400747","stationCode":"ZL","name":"Zwolle","coordinate":{"lat":52.5047225952148,"lng":6.09194421768188},"countryCode":"NL"},{"uicCode":"8400435","stationCode":"MP","name":"Meppel","coordinate":{"lat":52.6908340454102,"lng":6.19750022888184},"countryCode":"NL"},{"uicCode":"8400578","stationCode":"SWK","name":"Steenwijk","coordinate":{"lat":52.7915109924316,"lng":6.11455576324463},"countryCode":"NL"},{"uicCode":"8400705","stationCode":"WV","name":"Wolvega","coordinate":{"lat":52.8808326721191,"lng":6.00361108779907},"countryCode":"NL"},{"uicCode":"8400305","stationCode":"HR","name":"Heerenveen","coordinate":{"lat":52.9613876342773,"lng":5.91416645050049},"countryCode":"NL"},{"uicCode":"8400049","stationCode":"AKM","name":"Akkrum","coordinate":{"lat":53.0463905334473,"lng":5.84361124038696},"countryCode":"NL"},{"uicCode":"8400266","stationCode":"GW","name":"Grou-Jirnsum","coordinate":{"lat":53.0888900756836,"lng":5.82250022888184},"countryCode":"NL"},{"uicCode":"8400387","stationCode":"LW","name":"Leeuwarden","coordinate":{"lat":53.1958351135254,"lng":5.79222202301025},"countryCode":"NL"}],"direction":"BOTH"},"consequence":{"section":{"stations":[{"uicCode":"8400435","stationCode":"MP","name":"Meppel","coordinate":{"lat":52.6908340454102,"lng":6.19750022888184},"countryCode":"NL"},{"uicCode":"8400578","stationCode":"SWK","name":"Steenwijk","coordinate":{"lat":52.7915109924316,"lng":6.11455576324463},"countryCode":"NL"},{"uicCode":"8400705","stationCode":"WV","name":"Wolvega","coordinate":{"lat":52.8808326721191,"lng":6.00361108779907},"countryCode":"NL"},{"uicCode":"8400305","stationCode":"HR","name":"Heerenveen","coordinate":{"lat":52.9613876342773,"lng":5.91416645050049},"countryCode":"NL"}],"direction":"ONE_WAY"},"description":"rijden bussen","level":"NO_OR_MUCH_LESS_TRAINS"},"sectionType":"NL"},{"section":{"stations":[{"uicCode":"8400747","stationCode":"ZL","name":"Zwolle","coordinate":{"lat":52.5047225952148,"lng":6.09194421768188},"countryCode":"NL"},{"uicCode":"8400435","stationCode":"MP","name":"Meppel","coordinate":{"lat":52.6908340454102,"lng":6.19750022888184},"countryCode":"NL"},{"uicCode":"8400330","stationCode":"HGV","name":"Hoogeveen","coordinate":{"lat":52.7338905334473,"lng":6.47361087799072},"countryCode":"NL"},{"uicCode":"8400100","stationCode":"BL","name":"Beilen","coordinate":{"lat":52.8547210693359,"lng":6.52111101150513},"countryCode":"NL"},{"uicCode":"8400073","stationCode":"ASN","name":"Assen","coordinate":{"lat":52.9916648864746,"lng":6.57083320617676},"countryCode":"NL"},{"uicCode":"8400297","stationCode":"HRN","name":"Haren","coordinate":{"lat":53.1761093139648,"lng":6.61722230911255},"countryCode":"NL"},{"uicCode":"8400238","stationCode":"GERP","name":"Groningen Europapark","coordinate":{"lat":53.20480027,"lng":6.5854178},"countryCode":"NL"},{"uicCode":"8400263","stationCode":"GN","name":"Groningen","coordinate":{"lat":53.2105560302734,"lng":6.56472206115723},"countryCode":"NL"}],"direction":"BOTH"},"consequence":{"section":{"stations":[{"uicCode":"8400435","stationCode":"MP","name":"Meppel","coordinate":{"lat":52.6908340454102,"lng":6.19750022888184},"countryCode":"NL"},{"uicCode":"8400330","stationCode":"HGV","name":"Hoogeveen","coordinate":{"lat":52.7338905334473,"lng":6.47361087799072},"countryCode":"NL"}],"direction":"ONE_WAY"},"description":"rijden bussen","level":"NO_OR_MUCH_LESS_TRAINS"},"sectionType":"NL"}],"timespans":[{"start":"2022-10-15T04:00:00+0200","end":"2022-10-17T02:00:00+0200","period":"Zaterdag 15-10-2022 04:00 uur t/m maandag 17-10-2022 02:00 uur.","situation":{"label":"Door werkzaamheden: tussen Meppel en Heerenveen rijden er bussen en tussen Meppel en Hoogeveen rijden er bussen."},"cause":{"label":"Werkzaamheden"},"additionalTravelTime":{"label":"De extra reistijd kan oplopen tot 30 minuten.","shortLabel":"Extra reistijd tot 30 min.","maximumDurationInMinutes":30},"advices":[]},{"start":"2022-10-17T02:00:00+0200","end":"2022-10-24T02:00:00+0200","period":"Maandag 17-10-2022 02:00 uur t/m maandag 24-10-2022 02:00 uur.","situation":{"label":"Door werkzaamheden: tussen Meppel en Heerenveen rijden er bussen."},"cause":{"label":"Werkzaamheden"},"additionalTravelTime":{"label":"De extra reistijd kan oplopen tot 30 minuten.","shortLabel":"Extra reistijd tot 30 min.","maximumDurationInMinutes":30},"advices":[]}],"alternativeTransportTimespans":[{"start":"2022-10-15T04:00:00+0200","end":"2022-10-24T02:00:00+0200","alternativeTransport":{"location":[{"station":{"uicCode":"8400435","stationCode":"MP","name":"Meppel","coordinate":{"lat":52.6908340454102,"lng":6.19750022888184},"countryCode":"NL"},"description":"vanaf de voorzijde van het station"},{"station":{"uicCode":"8400305","stationCode":"HR","name":"Heerenveen","coordinate":{"lat":52.9613876342773,"lng":5.91416645050049},"countryCode":"NL"},"description":"vanaf de voorzijde van het station"}],"label":"Er rijden snelbussen tussen Meppel en Heerenveen.","shortLabel":"Er rijden snelbussen Meppel - Heerenveen"}},{"start":"2022-10-15T04:00:00+0200","end":"2022-10-24T02:00:00+0200","alternativeTransport":{"location":[{"station":{"uicCode":"8400435","stationCode":"MP","name":"Meppel","coordinate":{"lat":52.6908340454102,"lng":6.19750022888184},"countryCode":"NL"},"description":"vanaf de voorzijde van het station"},{"station":{"uicCode":"8400578","stationCode":"SWK","name":"Steenwijk","coordinate":{"lat":52.7915109924316,"lng":6.11455576324463},"countryCode":"NL"},"description":"vanaf het Stationsplein"},{"station":{"uicCode":"8400705","stationCode":"WV","name":"Wolvega","coordinate":{"lat":52.8808326721191,"lng":6.00361108779907},"countryCode":"NL"},"description":"vanaf de voorzijde van het station"},{"station":{"uicCode":"8400305","stationCode":"HR","name":"Heerenveen","coordinate":{"lat":52.9613876342773,"lng":5.91416645050049},"countryCode":"NL"},"description":"vanaf de voorzijde van het station"}],"label":"Er rijden stopbussen tussen Meppel, Steenwijk, Wolvega en Heerenveen.","shortLabel":"Er rijden stopbussen Meppel - Steenwijk - Wolvega - Heerenveen"}},{"start":"2022-10-15T04:00:00+0200","end":"2022-10-24T02:00:00+0200","alternativeTransport":{"location":[{"station":{"uicCode":"8400435","stationCode":"MP","name":"Meppel","coordinate":{"lat":52.6908340454102,"lng":6.19750022888184},"countryCode":"NL"},"description":"vanaf de voorzijde van het station"},{"station":{"uicCode":"8400330","stationCode":"HGV","name":"Hoogeveen","coordinate":{"lat":52.7338905334473,"lng":6.47361087799072},"countryCode":"NL"},"description":"vanaf de voorzijde van het station"}],"label":"Er rijden bussen tussen Meppel en Hoogeveen.","shortLabel":"Er rijden bussen Meppel - Hoogeveen"}}]},{"id":"7002855","type":"MAINTENANCE","registrationTime":"2022-10-06T12:01:27+0200","releaseTime":"2022-10-06T12:01:27+0200","local":false,"title":"Alphen a/d Rijn - Gouda","titleSections":[[{"type":"STATION","value":"Alphen a/d Rijn"},{"type":"ICON","value":"MAINTENANCE"},{"type":"STATION","value":"Gouda"}]],"isActive":true,"start":"2022-10-16T04:00:00+0200","end":"2022-10-26T02:00:00+0200","period":"Zondag 16-10-2022 04:00 uur t/m woensdag 26-10-2022 02:00 uur.","impact":{"value":2},"summaryAdditionalTravelTime":{"label":"De extra reistijd is ongeveer 15 minuten.","shortLabel":"Extra reistijd 15 min.","minimumDurationInMinutes":15,"maximumDurationInMinutes":15},"publicationSections":[{"section":{"stations":[{"uicCode":"8400053","stationCode":"APN","name":"Alphen a/d Rijn","coordinate":{"lat":52.1244430541992,"lng":4.65777778625488},"countryCode":"NL"},{"uicCode":"8400125","stationCode":"BSK","name":"Boskoop","coordinate":{"lat":52.0777778625488,"lng":4.64694452285767},"countryCode":"NL"},{"uicCode":"8400126","stationCode":"BSKS","name":"Boskoop Snijdelwijk","coordinate":{"lat":52.067658,"lng":4.646186},"countryCode":"NL"},{"uicCode":"8400674","stationCode":"WADN","name":"Waddinxveen Noord","coordinate":{"lat":52.0550003051758,"lng":4.64833354949951},"countryCode":"NL"},{"uicCode":"8400675","stationCode":"WAD","name":"Waddinxveen","coordinate":{"lat":52.0441665649414,"lng":4.6497220993042},"countryCode":"NL"},{"uicCode":"8400677","stationCode":"WADT","name":"Waddinxveen Triangel","coordinate":{"lat":52.02725,"lng":4.6491},"countryCode":"NL"},{"uicCode":"8400258","stationCode":"GD","name":"Gouda","coordinate":{"lat":52.0175018310547,"lng":4.70444440841675},"countryCode":"NL"}],"direction":"BOTH"},"consequence":{"section":{"stations":[{"uicCode":"8400053","stationCode":"APN","name":"Alphen a/d Rijn","coordinate":{"lat":52.1244430541992,"lng":4.65777778625488},"countryCode":"NL"},{"uicCode":"8400125","stationCode":"BSK","name":"Boskoop","coordinate":{"lat":52.0777778625488,"lng":4.64694452285767},"countryCode":"NL"},{"uicCode":"8400126","stationCode":"BSKS","name":"Boskoop Snijdelwijk","coordinate":{"lat":52.067658,"lng":4.646186},"countryCode":"NL"},{"uicCode":"8400674","stationCode":"WADN","name":"Waddinxveen Noord","coordinate":{"lat":52.0550003051758,"lng":4.64833354949951},"countryCode":"NL"},{"uicCode":"8400675","stationCode":"WAD","name":"Waddinxveen","coordinate":{"lat":52.0441665649414,"lng":4.6497220993042},"countryCode":"NL"},{"uicCode":"8400677","stationCode":"WADT","name":"Waddinxveen Triangel","coordinate":{"lat":52.02725,"lng":4.6491},"countryCode":"NL"},{"uicCode":"8400258","stationCode":"GD","name":"Gouda","coordinate":{"lat":52.0175018310547,"lng":4.70444440841675},"countryCode":"NL"}],"direction":"ONE_WAY"},"description":"dienstregeling aangepast","level":"LESS_TRAINS"},"sectionType":"NL"}],"timespans":[{"start":"2022-10-16T04:00:00+0200","end":"2022-10-26T02:00:00+0200","period":"Zondag 16-10-2022 04:00 uur t/m woensdag 26-10-2022 02:00 uur.","situation":{"label":"Door werkzaamheden: tussen Alphen a/d Rijn en Gouda is de dienstregeling aangepast."},"cause":{"label":"Werkzaamheden"},"additionalTravelTime":{"label":"De extra reistijd is ongeveer 15 minuten.","shortLabel":"Extra reistijd 15 min.","minimumDurationInMinutes":15,"maximumDurationInMinutes":15},"advices":["Let op, ook hierna is er hinder. Plan uw reis in de app."]}],"alternativeTransportTimespans":[]},{"id":"7002804","type":"MAINTENANCE","registrationTime":"2022-09-15T10:01:10+0200","releaseTime":"2022-09-15T10:01:10+0200","local":false,"title":"Venlo - Mönchengladbach - Düsseldorf","titleSections":[[{"type":"STATION","value":"Venlo"},{"type":"ICON","value":"MAINTENANCE"},{"type":"STATION","value":"Mönchengladbach"},{"type":"STATION","value":"Düsseldorf Hbf"}]],"isActive":true,"start":"2022-10-17T04:00:00+0200","end":"2022-10-24T02:00:00+0200","period":"Maandag 17-10-2022 04:00 uur t/m maandag 24-10-2022 02:00 uur.","impact":{"value":5},"summaryAdditionalTravelTime":{"label":"De extra reistijd kan oplopen tot 30 minuten.","shortLabel":"Extra reistijd tot 30 min.","maximumDurationInMinutes":30},"publicationSections":[{"section":{"stations":[{"uicCode":"8400644","stationCode":"VL","name":"Venlo","coordinate":{"lat":51.3636093139648,"lng":6.17277765274048},"countryCode":"NL"},{"uicCode":"8015130","stationCode":"KN","name":"Kaldenkirchen","coordinate":{"lat":51.327184,"lng":6.203225},"countryCode":"D"},{"uicCode":"8015129","stationCode":"KBRY","name":"Breyell","coordinate":{"lat":51.294615,"lng":6.241174},"countryCode":"D"},{"uicCode":"8015128","stationCode":"KBOI","name":"Boisheim","coordinate":{"lat":51.274323,"lng":6.274591},"countryCode":"D"},{"uicCode":"8015125","stationCode":"KDUL","name":"Dülken","coordinate":{"lat":51.257149,"lng":6.33793},"countryCode":"D"},{"uicCode":"8015122","stationCode":"VIERS","name":"Viersen","coordinate":{"lat":51.25516,"lng":6.40388},"countryCode":"D"},{"uicCode":"8015165","stationCode":"MCGB","name":"Mönchengladbach Hbf","coordinate":{"lat":51.196583,"lng":6.446111},"countryCode":"D"},{"uicCode":"8015149","stationCode":"NEUSS","name":"Neuss Hbf","coordinate":{"lat":51.20444,"lng":6.68468},"countryCode":"D"},{"uicCode":"8008094","stationCode":"DUSSEL","name":"Düsseldorf Hbf","coordinate":{"lat":51.220146,"lng":6.793137},"countryCode":"D"}],"direction":"BOTH"},"consequence":{"section":{"stations":[{"uicCode":"8400644","stationCode":"VL","name":"Venlo","coordinate":{"lat":51.3636093139648,"lng":6.17277765274048},"countryCode":"NL"},{"uicCode":"8015130","stationCode":"KN","name":"Kaldenkirchen","coordinate":{"lat":51.327184,"lng":6.203225},"countryCode":"D"},{"uicCode":"8015129","stationCode":"KBRY","name":"Breyell","coordinate":{"lat":51.294615,"lng":6.241174},"countryCode":"D"},{"uicCode":"8015128","stationCode":"KBOI","name":"Boisheim","coordinate":{"lat":51.274323,"lng":6.274591},"countryCode":"D"},{"uicCode":"8015125","stationCode":"KDUL","name":"Dülken","coordinate":{"lat":51.257149,"lng":6.33793},"countryCode":"D"},{"uicCode":"8015122","stationCode":"VIERS","name":"Viersen","coordinate":{"lat":51.25516,"lng":6.40388},"countryCode":"D"},{"uicCode":"8015165","stationCode":"MCGB","name":"Mönchengladbach Hbf","coordinate":{"lat":51.196583,"lng":6.446111},"countryCode":"D"}],"direction":"ONE_WAY"},"description":"rijden bussen","level":"NO_OR_MUCH_LESS_TRAINS"},"sectionType":"NEIGHBORING_COUNTRY"}],"timespans":[{"start":"2022-10-17T04:00:00+0200","end":"2022-10-24T02:00:00+0200","period":"Maandag 17-10-2022 04:00 uur t/m maandag 24-10-2022 02:00 uur.","situation":{"label":"Door werkzaamheden: tussen Venlo en Mönchengladbach Hbf rijden er bussen."},"cause":{"label":"Werkzaamheden"},"additionalTravelTime":{"label":"De extra reistijd kan oplopen tot 30 minuten.","shortLabel":"Extra reistijd tot 30 min.","maximumDurationInMinutes":30},"alternativeTransport":{"label":"Er rijden stop- en snelbussen.","shortLabel":"er rijden stop- en snelbussen"},"advices":[]}],"alternativeTransportTimespans":[{"start":"2022-10-17T04:00:00+0200","end":"2022-10-24T02:00:00+0200","alternativeTransport":{"location":[{"station":{"uicCode":"8400644","stationCode":"VL","name":"Venlo","coordinate":{"lat":51.3636093139648,"lng":6.17277765274048},"countryCode":"NL"},"description":"vanaf het busstation"}],"label":"Er rijden snelbussen tussen Venlo en Mönchengladbach Hbf.","shortLabel":"Er rijden snelbussen Venlo - Mönchengladbach"}},{"start":"2022-10-17T04:00:00+0200","end":"2022-10-24T02:00:00+0200","alternativeTransport":{"location":[{"station":{"uicCode":"8400644","stationCode":"VL","name":"Venlo","coordinate":{"lat":51.3636093139648,"lng":6.17277765274048},"countryCode":"NL"},"description":"vanaf het busstation"}],"label":"Er rijden stopbussen tussen Venlo, Kaldenkirchen, Breyell, Boisheim, Dülken, Viersen en Mönchengladbach Hbf.","shortLabel":"Er rijden stopbussen Venlo - Kaldenkirchen - Breyell - Boisheim - Dülken - Viersen - Mönchengladbach"}}]},{"id":"7002806","type":"MAINTENANCE","registrationTime":"2022-10-10T10:41:22+0200","releaseTime":"2022-10-10T10:41:22+0200","local":false,"title":"Amsterdam Sloterdijk","titleSections":[[{"type":"STATION","value":"Sloterdijk"}]],"isActive":false,"start":"2022-10-18T21:00:00+0200","end":"2022-10-24T02:00:00+0200","period":"Dinsdag 18-10-2022 21:00 uur t/m maandag 24-10-2022 02:00 uur.","impact":{"value":5},"summaryAdditionalTravelTime":{"label":"De extra reistijd kan oplopen tot 30 minuten.","shortLabel":"Extra reistijd tot 30 min.","maximumDurationInMinutes":30},"publicationSections":[{"section":{"stations":[{"uicCode":"8400058","stationCode":"ASD","name":"Amsterdam Centraal","coordinate":{"lat":52.3788871765137,"lng":4.90027761459351},"countryCode":"NL"},{"uicCode":"8400059","stationCode":"ASS","name":"Amsterdam Sloterdijk","coordinate":{"lat":52.3888893127441,"lng":4.83777761459351},"countryCode":"NL"},{"uicCode":"8400731","stationCode":"ZD","name":"Zaandam","coordinate":{"lat":52.4388885498047,"lng":4.81361103057861},"countryCode":"NL"},{"uicCode":"8400363","stationCode":"KZ","name":"Koog aan de Zaan","coordinate":{"lat":52.458610534668,"lng":4.80555534362793},"countryCode":"NL"},{"uicCode":"8400364","stationCode":"ZZS","name":"Zaandijk Zaanse Schans","coordinate":{"lat":52.469165802002,"lng":4.80499982833862},"countryCode":"NL"},{"uicCode":"8400707","stationCode":"WM","name":"Wormerveer","coordinate":{"lat":52.4891662597656,"lng":4.79222202301025},"countryCode":"NL"},{"uicCode":"8400368","stationCode":"KMA","name":"Krommenie-Assendelft","coordinate":{"lat":52.49511,"lng":4.75417},"countryCode":"NL"},{"uicCode":"8400615","stationCode":"UTG","name":"Uitgeest","coordinate":{"lat":52.5216674804687,"lng":4.70166683197022},"countryCode":"NL"},{"uicCode":"8400151","stationCode":"CAS","name":"Castricum","coordinate":{"lat":52.5458335876465,"lng":4.65861129760742},"countryCode":"NL"},{"uicCode":"8400309","stationCode":"HLO","name":"Heiloo","coordinate":{"lat":52.5994453430176,"lng":4.70055532455444},"countryCode":"NL"},{"uicCode":"8400050","stationCode":"AMR","name":"Alkmaar","coordinate":{"lat":52.6377792358398,"lng":4.73972225189209},"countryCode":"NL"}],"direction":"BOTH"},"consequence":{"section":{"stations":[{"uicCode":"8400059","stationCode":"ASS","name":"Amsterdam Sloterdijk","coordinate":{"lat":52.3888893127441,"lng":4.83777761459351},"countryCode":"NL"}],"direction":"ONE_WAY"},"description":"dienstregeling aangepast","level":"LESS_TRAINS"},"sectionType":"NL"},{"section":{"stations":[{"uicCode":"8400058","stationCode":"ASD","name":"Amsterdam Centraal","coordinate":{"lat":52.3788871765137,"lng":4.90027761459351},"countryCode":"NL"},{"uicCode":"8400059","stationCode":"ASS","name":"Amsterdam Sloterdijk","coordinate":{"lat":52.3888893127441,"lng":4.83777761459351},"countryCode":"NL"},{"uicCode":"8400731","stationCode":"ZD","name":"Zaandam","coordinate":{"lat":52.4388885498047,"lng":4.81361103057861},"countryCode":"NL"},{"uicCode":"8400728","stationCode":"ZDK","name":"Zaandam Kogerveld","coordinate":{"lat":52.4566650390625,"lng":4.82027769088745},"countryCode":"NL"},{"uicCode":"8400499","stationCode":"PMW","name":"Purmerend Weidevenne","coordinate":{"lat":52.4965906325416,"lng":4.93562936782836},"countryCode":"NL"},{"uicCode":"8400508","stationCode":"PMR","name":"Purmerend","coordinate":{"lat":52.5030555725098,"lng":4.95361089706421},"countryCode":"NL"},{"uicCode":"8400506","stationCode":"PMO","name":"Purmerend Overwhere","coordinate":{"lat":52.5113906860352,"lng":4.96833324432373},"countryCode":"NL"},{"uicCode":"8400337","stationCode":"HN","name":"Hoorn","coordinate":{"lat":52.6447219848633,"lng":5.05555534362793},"countryCode":"NL"},{"uicCode":"8400336","stationCode":"HNK","name":"Hoorn Kersenboogerd","coordinate":{"lat":52.6536102294922,"lng":5.08555555343628},"countryCode":"NL"},{"uicCode":"8400334","stationCode":"HKS","name":"Hoogkarspel","coordinate":{"lat":52.6905555725098,"lng":5.18388891220093},"countryCode":"NL"},{"uicCode":"8400127","stationCode":"BKG","name":"Bovenkarspel-Grootebroek","coordinate":{"lat":52.6949996948242,"lng":5.23777770996094},"countryCode":"NL"},{"uicCode":"8400230","stationCode":"BKF","name":"Bovenkarspel Flora","coordinate":{"lat":52.6961097717285,"lng":5.25277757644653},"countryCode":"NL"},{"uicCode":"8400210","stationCode":"EKZ","name":"Enkhuizen","coordinate":{"lat":52.6991653442383,"lng":5.28638887405396},"countryCode":"NL"}],"direction":"BOTH"},"consequence":{"section":{"stations":[{"uicCode":"8400059","stationCode":"ASS","name":"Amsterdam Sloterdijk","coordinate":{"lat":52.3888893127441,"lng":4.83777761459351},"countryCode":"NL"}],"direction":"ONE_WAY"},"description":"dienstregeling aangepast","level":"LESS_TRAINS"},"sectionType":"NL"},{"section":{"stations":[{"uicCode":"8400058","stationCode":"ASD","name":"Amsterdam Centraal","coordinate":{"lat":52.3788871765137,"lng":4.90027761459351},"countryCode":"NL"},{"uicCode":"8400059","stationCode":"ASS","name":"Amsterdam Sloterdijk","coordinate":{"lat":52.3888893127441,"lng":4.83777761459351},"countryCode":"NL"},{"uicCode":"8400400","stationCode":"HWZB","name":"Halfweg-Zwanenburg","coordinate":{"lat":52.385935,"lng":4.747165},"countryCode":"NL"},{"uicCode":"8400270","stationCode":"HLMS","name":"Haarlem Spaarnwoude","coordinate":{"lat":52.3827781677246,"lng":4.67305564880371},"countryCode":"NL"},{"uicCode":"8400285","stationCode":"HLM","name":"Haarlem","coordinate":{"lat":52.3877792358398,"lng":4.63833332061768},"countryCode":"NL"}],"direction":"BOTH"},"consequence":{"section":{"stations":[{"uicCode":"8400059","stationCode":"ASS","name":"Amsterdam Sloterdijk","coordinate":{"lat":52.3888893127441,"lng":4.83777761459351},"countryCode":"NL"}],"direction":"ONE_WAY"},"description":"dienstregeling aangepast","level":"LESS_TRAINS"},"sectionType":"NL"},{"section":{"stations":[{"uicCode":"8400058","stationCode":"ASD","name":"Amsterdam Centraal","coordinate":{"lat":52.3788871765137,"lng":4.90027761459351},"countryCode":"NL"},{"uicCode":"8400059","stationCode":"ASS","name":"Amsterdam Sloterdijk","coordinate":{"lat":52.3888893127441,"lng":4.83777761459351},"countryCode":"NL"},{"uicCode":"8400079","stationCode":"ASDL","name":"Amsterdam Lelylaan","coordinate":{"lat":52.3577766418457,"lng":4.83388900756836},"countryCode":"NL"},{"uicCode":"8400561","stationCode":"SHL","name":"Schiphol Airport","coordinate":{"lat":52.3094444274902,"lng":4.76194429397583},"countryCode":"NL"}],"direction":"BOTH"},"consequence":{"section":{"stations":[{"uicCode":"8400059","stationCode":"ASS","name":"Amsterdam Sloterdijk","coordinate":{"lat":52.3888893127441,"lng":4.83777761459351},"countryCode":"NL"}],"direction":"ONE_WAY"},"description":"dienstregeling aangepast","level":"LESS_TRAINS"},"sectionType":"NL"}],"timespans":[{"start":"2022-10-18T21:00:00+0200","end":"2022-10-24T02:00:00+0200","period":"Dinsdag 18-10-2022 21:00 uur t/m maandag 24-10-2022 02:00 uur.","situation":{"label":"Door werkzaamheden: van, via en naar Amsterdam Sloterdijk is de dienstregeling aangepast."},"cause":{"label":"Werkzaamheden"},"additionalTravelTime":{"label":"De extra reistijd kan oplopen tot 30 minuten.","shortLabel":"Extra reistijd tot 30 min.","maximumDurationInMinutes":30},"alternativeTransport":{"label":"Er rijden bussen.","shortLabel":"er rijden bussen"},"advices":["Tussen Sloterdijk en Leiden C. reist u via Schiphol Airport"]}],"alternativeTransportTimespans":[{"start":"2022-10-18T21:00:00+0200","end":"2022-10-24T02:00:00+0200","alternativeTransport":{"location":[{"station":{"uicCode":"8400059","stationCode":"ASS","name":"Amsterdam Sloterdijk","coordinate":{"lat":52.3888893127441,"lng":4.83777761459351},"countryCode":"NL"},"description":"vanaf de voorzijde van het station"},{"station":{"uicCode":"8400400","stationCode":"HWZB","name":"Halfweg-Zwanenburg","coordinate":{"lat":52.385935,"lng":4.747165},"countryCode":"NL"},"description":"vanaf de bushalte"},{"station":{"uicCode":"8400270","stationCode":"HLMS","name":"Haarlem Spaarnwoude","coordinate":{"lat":52.3827781677246,"lng":4.67305564880371},"countryCode":"NL"},"description":"vanaf de bushalte"},{"station":{"uicCode":"8400285","stationCode":"HLM","name":"Haarlem","coordinate":{"lat":52.3877792358398,"lng":4.63833332061768},"countryCode":"NL"},"description":"vanaf de Jansweg"}],"label":"Er rijden bussen tussen Amsterdam Sloterdijk, Halfweg-Zwanenburg, Haarlem Spaarnwoude en Haarlem.","shortLabel":"Er rijden bussen Sloterdijk - Halfweg-Zw. - Spaarnwoude - Haarlem"}},{"start":"2022-10-19T00:55:00+0200","end":"2022-10-19T01:40:00+0200","alternativeTransport":{"location":[{"station":{"uicCode":"8400285","stationCode":"HLM","name":"Haarlem","coordinate":{"lat":52.3877792358398,"lng":4.63833332061768},"countryCode":"NL"},"description":"vanaf de Jansweg"},{"station":{"uicCode":"8400270","stationCode":"HLMS","name":"Haarlem Spaarnwoude","coordinate":{"lat":52.3827781677246,"lng":4.67305564880371},"countryCode":"NL"},"description":"vanaf de bushalte"},{"station":{"uicCode":"8400400","stationCode":"HWZB","name":"Halfweg-Zwanenburg","coordinate":{"lat":52.385935,"lng":4.747165},"countryCode":"NL"},"description":"vanaf de bushalte"},{"station":{"uicCode":"8400059","stationCode":"ASS","name":"Amsterdam Sloterdijk","coordinate":{"lat":52.3888893127441,"lng":4.83777761459351},"countryCode":"NL"},"description":"vanaf de voorzijde van het station"}],"label":"Er rijden bussen van Haarlem, Haarlem Spaarnwoude, Halfweg-Zwanenburg, Amsterdam Sloterdijk naar Amsterdam Centraal.","shortLabel":"Er rijden bussen Haarlem -> Spaarnwoude -> Halfweg-Zw. -> Sloterdijk -> Amsterdam C."}},{"start":"2022-10-20T00:55:00+0200","end":"2022-10-20T01:40:00+0200","alternativeTransport":{"location":[{"station":{"uicCode":"8400285","stationCode":"HLM","name":"Haarlem","coordinate":{"lat":52.3877792358398,"lng":4.63833332061768},"countryCode":"NL"},"description":"vanaf de Jansweg"},{"station":{"uicCode":"8400270","stationCode":"HLMS","name":"Haarlem Spaarnwoude","coordinate":{"lat":52.3827781677246,"lng":4.67305564880371},"countryCode":"NL"},"description":"vanaf de bushalte"},{"station":{"uicCode":"8400400","stationCode":"HWZB","name":"Halfweg-Zwanenburg","coordinate":{"lat":52.385935,"lng":4.747165},"countryCode":"NL"},"description":"vanaf de bushalte"},{"station":{"uicCode":"8400059","stationCode":"ASS","name":"Amsterdam Sloterdijk","coordinate":{"lat":52.3888893127441,"lng":4.83777761459351},"countryCode":"NL"},"description":"vanaf de voorzijde van het station"}],"label":"Er rijden bussen van Haarlem, Haarlem Spaarnwoude, Halfweg-Zwanenburg, Amsterdam Sloterdijk naar Amsterdam Centraal.","shortLabel":"Er rijden bussen Haarlem -> Spaarnwoude -> Halfweg-Zw. -> Sloterdijk -> Amsterdam C."}},{"start":"2022-10-21T00:55:00+0200","end":"2022-10-21T01:40:00+0200","alternativeTransport":{"location":[{"station":{"uicCode":"8400285","stationCode":"HLM","name":"Haarlem","coordinate":{"lat":52.3877792358398,"lng":4.63833332061768},"countryCode":"NL"},"description":"vanaf de Jansweg"},{"station":{"uicCode":"8400270","stationCode":"HLMS","name":"Haarlem Spaarnwoude","coordinate":{"lat":52.3827781677246,"lng":4.67305564880371},"countryCode":"NL"},"description":"vanaf de bushalte"},{"station":{"uicCode":"8400400","stationCode":"HWZB","name":"Halfweg-Zwanenburg","coordinate":{"lat":52.385935,"lng":4.747165},"countryCode":"NL"},"description":"vanaf de bushalte"},{"station":{"uicCode":"8400059","stationCode":"ASS","name":"Amsterdam Sloterdijk","coordinate":{"lat":52.3888893127441,"lng":4.83777761459351},"countryCode":"NL"},"description":"vanaf de voorzijde van het station"}],"label":"Er rijden bussen van Haarlem, Haarlem Spaarnwoude, Halfweg-Zwanenburg, Amsterdam Sloterdijk naar Amsterdam Centraal.","shortLabel":"Er rijden bussen Haarlem -> Spaarnwoude -> Halfweg-Zw. -> Sloterdijk -> Amsterdam C."}},{"start":"2022-10-22T21:00:00+0200","end":"2022-10-23T02:00:00+0200","alternativeTransport":{"location":[{"station":{"uicCode":"8400059","stationCode":"ASS","name":"Amsterdam Sloterdijk","coordinate":{"lat":52.3888893127441,"lng":4.83777761459351},"countryCode":"NL"},"description":"vanaf de voorzijde van het station"},{"station":{"uicCode":"8400731","stationCode":"ZD","name":"Zaandam","coordinate":{"lat":52.4388885498047,"lng":4.81361103057861},"countryCode":"NL"},"description":"vanaf het busstation"}],"label":"Er rijden bussen tussen Amsterdam Sloterdijk en Zaandam.","shortLabel":"Er rijden bussen Sloterdijk - Zaandam"}},{"start":"2022-10-23T05:00:00+0200","end":"2022-10-23T07:30:00+0200","alternativeTransport":{"location":[{"station":{"uicCode":"8400058","stationCode":"ASD","name":"Amsterdam Centraal","coordinate":{"lat":52.3788871765137,"lng":4.90027761459351},"countryCode":"NL"},"description":"vanaf het busstation"},{"station":{"uicCode":"8400561","stationCode":"SHL","name":"Schiphol Airport","coordinate":{"lat":52.3094444274902,"lng":4.76194429397583},"countryCode":"NL"},"description":"van het busstation halte C15 en C17"}],"label":"Er rijden bussen tussen Amsterdam Centraal en Schiphol Airport.","shortLabel":"Er rijden bussen Amsterdam C. - Schiphol Airport"}},{"start":"2022-10-23T05:00:00+0200","end":"2022-10-23T06:10:00+0200","alternativeTransport":{"location":[{"station":{"uicCode":"8400332","stationCode":"HFD","name":"Hoofddorp","coordinate":{"lat":52.2933349609375,"lng":4.70055532455444},"countryCode":"NL"},"description":"onder het spoorviaduct"},{"station":{"uicCode":"8400561","stationCode":"SHL","name":"Schiphol Airport","coordinate":{"lat":52.3094444274902,"lng":4.76194429397583},"countryCode":"NL"},"description":"van het busstation halte C15 en C17"},{"station":{"uicCode":"8400079","stationCode":"ASDL","name":"Amsterdam Lelylaan","coordinate":{"lat":52.3577766418457,"lng":4.83388900756836},"countryCode":"NL"},"description":"vanaf het busstation"},{"station":{"uicCode":"8400059","stationCode":"ASS","name":"Amsterdam Sloterdijk","coordinate":{"lat":52.3888893127441,"lng":4.83777761459351},"countryCode":"NL"},"description":"vanaf de voorzijde van het station"}],"label":"Er rijden bussen van Hoofddorp, Schiphol Airport, Amsterdam Lelylaan, Amsterdam Sloterdijk naar Amsterdam Centraal.","shortLabel":"Er rijden bussen Hoofddorp -> Schiphol Airport -> Lelylaan -> Sloterdijk -> Amsterdam C."}},{"start":"2022-10-23T05:35:00+0200","end":"2022-10-23T07:40:00+0200","alternativeTransport":{"location":[{"station":{"uicCode":"8400561","stationCode":"SHL","name":"Schiphol Airport","coordinate":{"lat":52.3094444274902,"lng":4.76194429397583},"countryCode":"NL"},"description":"van het busstation halte C15 en C17"},{"station":{"uicCode":"8400079","stationCode":"ASDL","name":"Amsterdam Lelylaan","coordinate":{"lat":52.3577766418457,"lng":4.83388900756836},"countryCode":"NL"},"description":"vanaf het busstation"},{"station":{"uicCode":"8400059","stationCode":"ASS","name":"Amsterdam Sloterdijk","coordinate":{"lat":52.3888893127441,"lng":4.83777761459351},"countryCode":"NL"},"description":"vanaf de voorzijde van het station"},{"station":{"uicCode":"8400731","stationCode":"ZD","name":"Zaandam","coordinate":{"lat":52.4388885498047,"lng":4.81361103057861},"countryCode":"NL"},"description":"vanaf het busstation"}],"label":"Er rijden bussen tussen Schiphol Airport, Amsterdam Lelylaan, Amsterdam Sloterdijk en Zaandam.","shortLabel":"Er rijden bussen Schiphol Airport - Lelylaan - Sloterdijk - Zaandam"}},{"start":"2022-10-23T05:50:00+0200","end":"2022-10-23T06:55:00+0200","alternativeTransport":{"location":[{"station":{"uicCode":"8400059","stationCode":"ASS","name":"Amsterdam Sloterdijk","coordinate":{"lat":52.3888893127441,"lng":4.83777761459351},"countryCode":"NL"},"description":"vanaf de voorzijde van het station"},{"station":{"uicCode":"8400058","stationCode":"ASD","name":"Amsterdam Centraal","coordinate":{"lat":52.3788871765137,"lng":4.90027761459351},"countryCode":"NL"},"description":"vanaf het busstation"}],"label":"Er rijden bussen van Amsterdam Sloterdijk naar Amsterdam Centraal.","shortLabel":"Er rijden bussen Sloterdijk -> Amsterdam C."}},{"start":"2022-10-23T05:50:00+0200","end":"2022-10-23T07:45:00+0200","alternativeTransport":{"location":[{"station":{"uicCode":"8400058","stationCode":"ASD","name":"Amsterdam Centraal","coordinate":{"lat":52.3788871765137,"lng":4.90027761459351},"countryCode":"NL"},"description":"vanaf het busstation"},{"station":{"uicCode":"8400059","stationCode":"ASS","name":"Amsterdam Sloterdijk","coordinate":{"lat":52.3888893127441,"lng":4.83777761459351},"countryCode":"NL"},"description":"vanaf de voorzijde van het station"},{"station":{"uicCode":"8400400","stationCode":"HWZB","name":"Halfweg-Zwanenburg","coordinate":{"lat":52.385935,"lng":4.747165},"countryCode":"NL"},"description":"vanaf de bushalte"},{"station":{"uicCode":"8400270","stationCode":"HLMS","name":"Haarlem Spaarnwoude","coordinate":{"lat":52.3827781677246,"lng":4.67305564880371},"countryCode":"NL"},"description":"vanaf de bushalte"},{"station":{"uicCode":"8400285","stationCode":"HLM","name":"Haarlem","coordinate":{"lat":52.3877792358398,"lng":4.63833332061768},"countryCode":"NL"},"description":"vanaf de Jansweg"}],"label":"Er rijden bussen tussen Amsterdam Centraal, Amsterdam Sloterdijk, Halfweg-Zwanenburg, Haarlem Spaarnwoude en Haarlem.","shortLabel":"Er rijden bussen Amsterdam C. - Sloterdijk - Halfweg-Zw. - Spaarnwoude - Haarlem"}},{"start":"2022-10-23T06:15:00+0200","end":"2022-10-23T07:25:00+0200","alternativeTransport":{"location":[{"station":{"uicCode":"8400058","stationCode":"ASD","name":"Amsterdam Centraal","coordinate":{"lat":52.3788871765137,"lng":4.90027761459351},"countryCode":"NL"},"description":"vanaf het busstation"},{"station":{"uicCode":"8400059","stationCode":"ASS","name":"Amsterdam Sloterdijk","coordinate":{"lat":52.3888893127441,"lng":4.83777761459351},"countryCode":"NL"},"description":"vanaf de voorzijde van het station"},{"station":{"uicCode":"8400079","stationCode":"ASDL","name":"Amsterdam Lelylaan","coordinate":{"lat":52.3577766418457,"lng":4.83388900756836},"countryCode":"NL"},"description":"vanaf het busstation"},{"station":{"uicCode":"8400561","stationCode":"SHL","name":"Schiphol Airport","coordinate":{"lat":52.3094444274902,"lng":4.76194429397583},"countryCode":"NL"},"description":"van het busstation halte C15 en C17"}],"label":"Er rijden bussen tussen Amsterdam Centraal, Amsterdam Sloterdijk, Amsterdam Lelylaan en Schiphol Airport.","shortLabel":"Er rijden bussen Amsterdam C. - Sloterdijk - Lelylaan - Schiphol Airport"}},{"start":"2022-10-23T07:20:00+0200","end":"2022-10-23T08:55:00+0200","alternativeTransport":{"location":[{"station":{"uicCode":"8400059","stationCode":"ASS","name":"Amsterdam Sloterdijk","coordinate":{"lat":52.3888893127441,"lng":4.83777761459351},"countryCode":"NL"},"description":"vanaf de voorzijde van het station"},{"station":{"uicCode":"8400731","stationCode":"ZD","name":"Zaandam","coordinate":{"lat":52.4388885498047,"lng":4.81361103057861},"countryCode":"NL"},"description":"vanaf het busstation"}],"label":"Er rijden bussen tussen Amsterdam Sloterdijk en Zaandam.","shortLabel":"Er rijden bussen Sloterdijk - Zaandam"}},{"start":"2022-10-23T07:20:00+0200","end":"2022-10-23T08:10:00+0200","alternativeTransport":{"location":[{"station":{"uicCode":"8400058","stationCode":"ASD","name":"Amsterdam Centraal","coordinate":{"lat":52.3788871765137,"lng":4.90027761459351},"countryCode":"NL"},"description":"vanaf het busstation"},{"station":{"uicCode":"8400059","stationCode":"ASS","name":"Amsterdam Sloterdijk","coordinate":{"lat":52.3888893127441,"lng":4.83777761459351},"countryCode":"NL"},"description":"vanaf de voorzijde van het station"}],"label":"Er rijden bussen van Amsterdam Centraal, Amsterdam Sloterdijk naar Haarlem.","shortLabel":"Er rijden bussen Amsterdam C. -> Sloterdijk -> Haarlem"}},{"start":"2022-10-23T07:30:00+0200","end":"2022-10-23T08:00:00+0200","alternativeTransport":{"location":[{"station":{"uicCode":"8400561","stationCode":"SHL","name":"Schiphol Airport","coordinate":{"lat":52.3094444274902,"lng":4.76194429397583},"countryCode":"NL"},"description":"van het busstation halte C15 en C17"},{"station":{"uicCode":"8400079","stationCode":"ASDL","name":"Amsterdam Lelylaan","coordinate":{"lat":52.3577766418457,"lng":4.83388900756836},"countryCode":"NL"},"description":"vanaf het busstation"}],"label":"Er rijden bussen van Schiphol Airport, Amsterdam Lelylaan naar Amsterdam Sloterdijk.","shortLabel":"Er rijden bussen Schiphol Airport -> Lelylaan -> Sloterdijk"}},{"start":"2022-10-24T00:55:00+0200","end":"2022-10-24T01:40:00+0200","alternativeTransport":{"location":[{"station":{"uicCode":"8400285","stationCode":"HLM","name":"Haarlem","coordinate":{"lat":52.3877792358398,"lng":4.63833332061768},"countryCode":"NL"},"description":"vanaf de Jansweg"},{"station":{"uicCode":"8400270","stationCode":"HLMS","name":"Haarlem Spaarnwoude","coordinate":{"lat":52.3827781677246,"lng":4.67305564880371},"countryCode":"NL"},"description":"vanaf de bushalte"},{"station":{"uicCode":"8400400","stationCode":"HWZB","name":"Halfweg-Zwanenburg","coordinate":{"lat":52.385935,"lng":4.747165},"countryCode":"NL"},"description":"vanaf de bushalte"},{"station":{"uicCode":"8400059","stationCode":"ASS","name":"Amsterdam Sloterdijk","coordinate":{"lat":52.3888893127441,"lng":4.83777761459351},"countryCode":"NL"},"description":"vanaf de voorzijde van het station"}],"label":"Er rijden bussen van Haarlem, Haarlem Spaarnwoude, Halfweg-Zwanenburg, Amsterdam Sloterdijk naar Amsterdam Centraal.","shortLabel":"Er rijden bussen Haarlem -> Spaarnwoude -> Halfweg-Zw. -> Sloterdijk -> Amsterdam C."}}]},{"id":"7002784","type":"MAINTENANCE","registrationTime":"2022-09-26T10:13:41+0200","releaseTime":"2022-09-26T10:13:41+0200","local":false,"title":"Schiphol - Leiden","titleSections":[[{"type":"STATION","value":"Schiphol Airport"},{"type":"ICON","value":"MAINTENANCE"},{"type":"STATION","value":"Leiden C."}]],"isActive":false,"start":"2022-10-19T01:35:00+0200","end":"2022-10-19T05:00:00+0200","period":"Woensdag 19-10-2022 01:35 uur t/m woensdag 19-10-2022 05:00 uur.","impact":{"value":2},"summaryAdditionalTravelTime":{"label":"De extra reistijd kan oplopen tot 30 minuten.","shortLabel":"Extra reistijd tot 30 min.","maximumDurationInMinutes":30},"publicationSections":[{"section":{"stations":[{"uicCode":"8400561","stationCode":"SHL","name":"Schiphol Airport","coordinate":{"lat":52.3094444274902,"lng":4.76194429397583},"countryCode":"NL"},{"uicCode":"8400332","stationCode":"HFD","name":"Hoofddorp","coordinate":{"lat":52.2933349609375,"lng":4.70055532455444},"countryCode":"NL"},{"uicCode":"8400460","stationCode":"NVP","name":"Nieuw Vennep","coordinate":{"lat":52.2588882446289,"lng":4.64555549621582},"countryCode":"NL"},{"uicCode":"8400603","stationCode":"SSH","name":"Sassenheim","coordinate":{"lat":52.215278,"lng":4.517222},"countryCode":"NL"},{"uicCode":"8400390","stationCode":"LEDN","name":"Leiden Centraal","coordinate":{"lat":52.1661109924316,"lng":4.48166656494141},"countryCode":"NL"}],"direction":"BOTH"},"consequence":{"section":{"stations":[{"uicCode":"8400561","stationCode":"SHL","name":"Schiphol Airport","coordinate":{"lat":52.3094444274902,"lng":4.76194429397583},"countryCode":"NL"},{"uicCode":"8400332","stationCode":"HFD","name":"Hoofddorp","coordinate":{"lat":52.2933349609375,"lng":4.70055532455444},"countryCode":"NL"},{"uicCode":"8400460","stationCode":"NVP","name":"Nieuw Vennep","coordinate":{"lat":52.2588882446289,"lng":4.64555549621582},"countryCode":"NL"},{"uicCode":"8400603","stationCode":"SSH","name":"Sassenheim","coordinate":{"lat":52.215278,"lng":4.517222},"countryCode":"NL"},{"uicCode":"8400390","stationCode":"LEDN","name":"Leiden Centraal","coordinate":{"lat":52.1661109924316,"lng":4.48166656494141},"countryCode":"NL"}],"direction":"ONE_WAY"},"description":"rijden bussen","level":"NO_OR_MUCH_LESS_TRAINS"},"sectionType":"NL"}],"timespans":[{"start":"2022-10-19T01:35:00+0200","end":"2022-10-19T05:00:00+0200","period":"Woensdag 19-10-2022 01:35 uur t/m woensdag 19-10-2022 05:00 uur.","situation":{"label":"Door werkzaamheden: tussen Schiphol Airport en Leiden Centraal rijden er bussen."},"cause":{"label":"Werkzaamheden"},"additionalTravelTime":{"label":"De extra reistijd kan oplopen tot 30 minuten.","shortLabel":"Extra reistijd tot 30 min.","maximumDurationInMinutes":30},"alternativeTransport":{"label":"Er rijden bussen.","shortLabel":"er rijden bussen"},"advices":[]}],"alternativeTransportTimespans":[{"start":"2022-10-19T01:35:00+0200","end":"2022-10-19T05:00:00+0200","alternativeTransport":{"location":[{"station":{"uicCode":"8400561","stationCode":"SHL","name":"Schiphol Airport","coordinate":{"lat":52.3094444274902,"lng":4.76194429397583},"countryCode":"NL"},"description":"vanaf de voorzijde van het station"},{"station":{"uicCode":"8400390","stationCode":"LEDN","name":"Leiden Centraal","coordinate":{"lat":52.1661109924316,"lng":4.48166656494141},"countryCode":"NL"},"description":"vanaf het stadsbusstation"}],"label":"Er rijden bussen tussen Schiphol Airport en Leiden Centraal.","shortLabel":"Er rijden bussen Schiphol Airport - Leiden C."}}]},{"id":"7002785","type":"MAINTENANCE","registrationTime":"2022-09-26T10:12:57+0200","releaseTime":"2022-09-26T10:12:57+0200","local":false,"title":"Roosendaal - Vlissingen","titleSections":[[{"type":"STATION","value":"Roosendaal"},{"type":"STATION","value":"Goes"},{"type":"ICON","value":"MAINTENANCE"},{"type":"STATION","value":"Vlissingen"}]],"isActive":false,"start":"2022-10-20T00:40:00+0200","end":"2022-10-20T01:40:00+0200","period":"Donderdag 20-10-2022 00:40 uur t/m donderdag 20-10-2022 01:40 uur.","impact":{"value":2},"summaryAdditionalTravelTime":{"label":"De extra reistijd kan oplopen tot 15 minuten.","shortLabel":"Extra reistijd tot 15 min.","maximumDurationInMinutes":15},"publicationSections":[{"section":{"stations":[{"uicCode":"8400526","stationCode":"RSD","name":"Roosendaal","coordinate":{"lat":51.5402793884277,"lng":4.45833349227905},"countryCode":"NL"},{"uicCode":"8400108","stationCode":"BGN","name":"Bergen op Zoom","coordinate":{"lat":51.4938888549805,"lng":4.29611110687256},"countryCode":"NL"},{"uicCode":"8400521","stationCode":"RB","name":"Rilland-Bath","coordinate":{"lat":51.422779083252,"lng":4.16111087799072},"countryCode":"NL"},{"uicCode":"8400367","stationCode":"KBD","name":"Krabbendijke","coordinate":{"lat":51.4333343505859,"lng":4.11694431304932},"countryCode":"NL"},{"uicCode":"8400370","stationCode":"KRG","name":"Kruiningen-Yerseke","coordinate":{"lat":51.4650001525879,"lng":4.03722238540649},"countryCode":"NL"},{"uicCode":"8400354","stationCode":"BZL","name":"Kapelle-Biezelinge","coordinate":{"lat":51.4808349609375,"lng":3.95611119270325},"countryCode":"NL"},{"uicCode":"8400253","stationCode":"GS","name":"Goes","coordinate":{"lat":51.4980545043945,"lng":3.89055562019348},"countryCode":"NL"},{"uicCode":"8400069","stationCode":"ARN","name":"Arnemuiden","coordinate":{"lat":51.5016670227051,"lng":3.66916656494141},"countryCode":"NL"},{"uicCode":"8400436","stationCode":"MDB","name":"Middelburg","coordinate":{"lat":51.4947204589844,"lng":3.61722230911255},"countryCode":"NL"},{"uicCode":"8400653","stationCode":"VSS","name":"Vlissingen Souburg","coordinate":{"lat":51.4647216796875,"lng":3.59527778625488},"countryCode":"NL"},{"uicCode":"8400652","stationCode":"VS","name":"Vlissingen","coordinate":{"lat":51.4458351135254,"lng":3.59527778625488},"countryCode":"NL"}],"direction":"ONE_WAY"},"consequence":{"section":{"stations":[{"uicCode":"8400253","stationCode":"GS","name":"Goes","coordinate":{"lat":51.4980545043945,"lng":3.89055562019348},"countryCode":"NL"},{"uicCode":"8400069","stationCode":"ARN","name":"Arnemuiden","coordinate":{"lat":51.5016670227051,"lng":3.66916656494141},"countryCode":"NL"},{"uicCode":"8400436","stationCode":"MDB","name":"Middelburg","coordinate":{"lat":51.4947204589844,"lng":3.61722230911255},"countryCode":"NL"},{"uicCode":"8400653","stationCode":"VSS","name":"Vlissingen Souburg","coordinate":{"lat":51.4647216796875,"lng":3.59527778625488},"countryCode":"NL"},{"uicCode":"8400652","stationCode":"VS","name":"Vlissingen","coordinate":{"lat":51.4458351135254,"lng":3.59527778625488},"countryCode":"NL"}],"direction":"ONE_WAY"},"description":"rijden bussen","level":"NO_OR_MUCH_LESS_TRAINS"},"sectionType":"NL"}],"timespans":[{"start":"2022-10-20T00:40:00+0200","end":"2022-10-20T01:40:00+0200","period":"Donderdag 20-10-2022 00:40 uur t/m donderdag 20-10-2022 01:40 uur.","situation":{"label":"Door werkzaamheden: van Goes naar Vlissingen rijden er bussen."},"cause":{"label":"Werkzaamheden"},"additionalTravelTime":{"label":"De extra reistijd kan oplopen tot 15 minuten.","shortLabel":"Extra reistijd tot 15 min.","maximumDurationInMinutes":15},"alternativeTransport":{"label":"Er rijden bussen.","shortLabel":"er rijden bussen"},"advices":[]}],"alternativeTransportTimespans":[{"start":"2022-10-20T00:40:00+0200","end":"2022-10-20T01:40:00+0200","alternativeTransport":{"location":[{"station":{"uicCode":"8400253","stationCode":"GS","name":"Goes","coordinate":{"lat":51.4980545043945,"lng":3.89055562019348},"countryCode":"NL"},"description":"vanaf de achterzijde van het station"},{"station":{"uicCode":"8400069","stationCode":"ARN","name":"Arnemuiden","coordinate":{"lat":51.5016670227051,"lng":3.66916656494141},"countryCode":"NL"},"description":"vanaf het Stationsplein"},{"station":{"uicCode":"8400436","stationCode":"MDB","name":"Middelburg","coordinate":{"lat":51.4947204589844,"lng":3.61722230911255},"countryCode":"NL"},"description":"vanaf de achterzijde van het station"},{"station":{"uicCode":"8400653","stationCode":"VSS","name":"Vlissingen Souburg","coordinate":{"lat":51.4647216796875,"lng":3.59527778625488},"countryCode":"NL"},"description":"vanaf de achterzijde van het station"}],"label":"Er rijden bussen van Goes, Arnemuiden, Middelburg, Vlissingen Souburg naar Vlissingen.","shortLabel":"Er rijden bussen Goes -> Arnemuiden -> Middelburg -> Souburg -> Vlissingen"}}]},{"id":"7002767","type":"MAINTENANCE","registrationTime":"2022-09-08T14:40:11+0200","releaseTime":"2022-09-08T14:40:11+0200","local":false,"title":"Dordrecht - Breda; Dordrecht - Roosendaal","titleSections":[[{"type":"STATION","value":"Dordrecht"},{"type":"ICON","value":"MAINTENANCE"},{"type":"STATION","value":"Lage Zwaluwe"},{"type":"STATION","value":"Breda"}],[{"type":"STATION","value":"Dordrecht"},{"type":"ICON","value":"MAINTENANCE"},{"type":"STATION","value":"Roosendaal"}]],"isActive":false,"start":"2022-10-20T04:00:00+0200","end":"2022-11-07T02:00:00+0100","period":"Donderdag 20-10-2022 04:00 uur t/m maandag 07-11-2022 02:00 uur.","impact":{"value":5},"summaryAdditionalTravelTime":{"label":"De extra reistijd kan oplopen tot 45 minuten.","shortLabel":"Extra reistijd tot 45 min.","maximumDurationInMinutes":45},"publicationSections":[{"section":{"stations":[{"uicCode":"8400180","stationCode":"DDR","name":"Dordrecht","coordinate":{"lat":51.8072204589844,"lng":4.66833353042603},"countryCode":"NL"},{"uicCode":"8400181","stationCode":"DDZD","name":"Dordrecht Zuid","coordinate":{"lat":51.7900009155273,"lng":4.67138910293579},"countryCode":"NL"},{"uicCode":"8400382","stationCode":"ZLW","name":"Lage Zwaluwe","coordinate":{"lat":51.6911125183105,"lng":4.66305541992188},"countryCode":"NL"},{"uicCode":"8400132","stationCode":"BDPB","name":"Breda-Prinsenbeek","coordinate":{"lat":51.606388092041,"lng":4.72083330154419},"countryCode":"NL"},{"uicCode":"8400131","stationCode":"BD","name":"Breda","coordinate":{"lat":51.5955543518066,"lng":4.78000020980835},"countryCode":"NL"}],"direction":"BOTH"},"consequence":{"section":{"stations":[{"uicCode":"8400180","stationCode":"DDR","name":"Dordrecht","coordinate":{"lat":51.8072204589844,"lng":4.66833353042603},"countryCode":"NL"},{"uicCode":"8400181","stationCode":"DDZD","name":"Dordrecht Zuid","coordinate":{"lat":51.7900009155273,"lng":4.67138910293579},"countryCode":"NL"},{"uicCode":"8400382","stationCode":"ZLW","name":"Lage Zwaluwe","coordinate":{"lat":51.6911125183105,"lng":4.66305541992188},"countryCode":"NL"}],"direction":"ONE_WAY"},"description":"rijden bussen","level":"NO_OR_MUCH_LESS_TRAINS"},"sectionType":"NL"},{"section":{"stations":[{"uicCode":"8400180","stationCode":"DDR","name":"Dordrecht","coordinate":{"lat":51.8072204589844,"lng":4.66833353042603},"countryCode":"NL"},{"uicCode":"8400181","stationCode":"DDZD","name":"Dordrecht Zuid","coordinate":{"lat":51.7900009155273,"lng":4.67138910293579},"countryCode":"NL"},{"uicCode":"8400382","stationCode":"ZLW","name":"Lage Zwaluwe","coordinate":{"lat":51.6911125183105,"lng":4.66305541992188},"countryCode":"NL"},{"uicCode":"8400737","stationCode":"ZVB","name":"Zevenbergen","coordinate":{"lat":51.64042,"lng":4.60904},"countryCode":"NL"},{"uicCode":"8400498","stationCode":"ODB","name":"Oudenbosch","coordinate":{"lat":51.587776184082,"lng":4.53333330154419},"countryCode":"NL"},{"uicCode":"8400526","stationCode":"RSD","name":"Roosendaal","coordinate":{"lat":51.5402793884277,"lng":4.45833349227905},"countryCode":"NL"}],"direction":"BOTH"},"consequence":{"section":{"stations":[{"uicCode":"8400180","stationCode":"DDR","name":"Dordrecht","coordinate":{"lat":51.8072204589844,"lng":4.66833353042603},"countryCode":"NL"},{"uicCode":"8400181","stationCode":"DDZD","name":"Dordrecht Zuid","coordinate":{"lat":51.7900009155273,"lng":4.67138910293579},"countryCode":"NL"},{"uicCode":"8400382","stationCode":"ZLW","name":"Lage Zwaluwe","coordinate":{"lat":51.6911125183105,"lng":4.66305541992188},"countryCode":"NL"},{"uicCode":"8400737","stationCode":"ZVB","name":"Zevenbergen","coordinate":{"lat":51.64042,"lng":4.60904},"countryCode":"NL"},{"uicCode":"8400498","stationCode":"ODB","name":"Oudenbosch","coordinate":{"lat":51.587776184082,"lng":4.53333330154419},"countryCode":"NL"},{"uicCode":"8400526","stationCode":"RSD","name":"Roosendaal","coordinate":{"lat":51.5402793884277,"lng":4.45833349227905},"countryCode":"NL"}],"direction":"ONE_WAY"},"description":"rijden bussen","level":"NO_OR_MUCH_LESS_TRAINS"},"sectionType":"NL"}],"timespans":[{"start":"2022-10-20T04:00:00+0200","end":"2022-11-06T03:15:00+0100","period":"Donderdag 20-10-2022 04:00 uur t/m zondag 06-11-2022 03:15 uur.","situation":{"label":"Door werkzaamheden: tussen Dordrecht en Lage Zwaluwe rijden er bussen."},"cause":{"label":"Werkzaamheden"},"additionalTravelTime":{"label":"De extra reistijd kan oplopen tot 30 minuten.","shortLabel":"Extra reistijd tot 30 min.","maximumDurationInMinutes":30},"alternativeTransport":{"label":"Maak gebruik van het vervangende vervoer.","shortLabel":"gebruik het vervangende vervoer"},"advices":["Tussen Rotterdam C. en Roosendaal reist u via Breda","Tussen Dordrecht Zuid en Lage Zwaluwe reist u via Dordrecht"]},{"start":"2022-11-06T04:00:00+0100","end":"2022-11-07T02:00:00+0100","period":"Zondag 06-11-2022 04:00 uur t/m maandag 07-11-2022 02:00 uur.","situation":{"label":"Door werkzaamheden: tussen Dordrecht en Roosendaal rijden er bussen en tussen Dordrecht en Lage Zwaluwe rijden er bussen."},"cause":{"label":"Werkzaamheden"},"additionalTravelTime":{"label":"De extra reistijd kan oplopen tot 45 minuten.","shortLabel":"Extra reistijd tot 45 min.","maximumDurationInMinutes":45},"alternativeTransport":{"label":"Er rijden snelbussen.","shortLabel":"er rijden snelbussen"},"advices":[]}],"alternativeTransportTimespans":[{"start":"2022-10-20T04:00:00+0200","end":"2022-11-06T03:15:00+0100","alternativeTransport":{"location":[{"station":{"uicCode":"8400180","stationCode":"DDR","name":"Dordrecht","coordinate":{"lat":51.8072204589844,"lng":4.66833353042603},"countryCode":"NL"},"description":"vanaf de achterzijde van het station"},{"station":{"uicCode":"8400382","stationCode":"ZLW","name":"Lage Zwaluwe","coordinate":{"lat":51.6911125183105,"lng":4.66305541992188},"countryCode":"NL"},"description":"vanaf de Westelijke Parallelweg"}],"label":"Er rijden snelbussen tussen Dordrecht en Lage Zwaluwe.","shortLabel":"Er rijden snelbussen Dordrecht - Lage Zwaluwe"}},{"start":"2022-10-20T04:00:00+0200","end":"2022-11-06T03:15:00+0100","alternativeTransport":{"location":[{"station":{"uicCode":"8400180","stationCode":"DDR","name":"Dordrecht","coordinate":{"lat":51.8072204589844,"lng":4.66833353042603},"countryCode":"NL"},"description":"vanaf de achterzijde van het station"},{"station":{"uicCode":"8400181","stationCode":"DDZD","name":"Dordrecht Zuid","coordinate":{"lat":51.7900009155273,"lng":4.67138910293579},"countryCode":"NL"},"description":"vanaf de Spirea"}],"label":"Er rijden taxibusjes tussen Dordrecht en Dordrecht Zuid.","shortLabel":"Er rijden taxibusjes Dordrecht - Dordrecht Zuid"}},{"start":"2022-10-21T00:15:00+0200","end":"2022-10-21T00:45:00+0200","alternativeTransport":{"location":[{"station":{"uicCode":"8400131","stationCode":"BD","name":"Breda","coordinate":{"lat":51.5955543518066,"lng":4.78000020980835},"countryCode":"NL"},"description":"vanaf de Belcrumzijde"}],"label":"Er rijden snelbussen van Breda naar Rotterdam Centraal.","shortLabel":"Er rijden snelbussen Breda -> Rotterdam C."}},