[{"id":"6019336","type":"DISRUPTION","registrationTime":"2022-10-20T15:10:39+0200","releaseTime":"2022-10-20T15:10:39+0200","local":false,"title":"Nijmegen-Roermond","titleSections":[[{"type":"STATION","value":"Nijmegen"},{"type":"ICON","value":"DISRUPTION"},{"type":"STATION","value":"Roermond"}]],"topic":"disruption_6019336_nl","isActive":true,"start":"2022-10-18T19:45:02+0200","end":"2022-10-22T01:00:00+0200","phase":{"id":"2","label":"Impact bekend"},"impact":{"value":3},"expectedDuration":{"description":"Dit duurt tot ongeveer zaterdag 22 oktober 01:00 uur.","endTime":"2022-10-22T01:00:00+0200"},"publicationSections":[{"section":{"stations":[{"uicCode":"8400470","stationCode":"NM","name":"Nijmegen","coordinate":{"lat":51.8436126708984,"lng":5.85222244262695},"countryCode":"NL"},{"uicCode":"8400468","stationCode":"NMH","name":"Nijmegen Heyendaal","coordinate":{"lat":51.8269462585449,"lng":5.86749982833862},"countryCode":"NL"},{"uicCode":"8400446","stationCode":"MMLH","name":"Mook-Molenhoek","coordinate":{"lat":51.766262,"lng":5.879133},"countryCode":"NL"},{"uicCode":"8400155","stationCode":"CK","name":"Cuijk","coordinate":{"lat":51.7266825879048,"lng":5.87429523468017},"countryCode":"NL"},{"uicCode":"8400128","stationCode":"BMR","name":"Boxmeer","coordinate":{"lat":51.6445217676531,"lng":5.93903303146362},"countryCode":"NL"},{"uicCode":"8400647","stationCode":"VLB","name":"Vierlingsbeek","coordinate":{"lat":51.59193,"lng":5.99714},"countryCode":"NL"},{"uicCode":"8400646","stationCode":"VRY","name":"Venray","coordinate":{"lat":51.526568099007,"lng":6.01417779922485},"countryCode":"NL"},{"uicCode":"8400117","stationCode":"BR","name":"Blerick","coordinate":{"lat":51.372501373291,"lng":6.15500020980835},"countryCode":"NL"},{"uicCode":"8400644","stationCode":"VL","name":"Venlo","coordinate":{"lat":51.3636093139648,"lng":6.17277765274048},"countryCode":"NL"},{"uicCode":"8400591","stationCode":"TG","name":"Tegelen","coordinate":{"lat":51.33894,"lng":6.14253},"countryCode":"NL"},{"uicCode":"8400518","stationCode":"RV","name":"Reuver","coordinate":{"lat":51.2832191665301,"lng":6.07895851135253},"countryCode":"NL"},{"uicCode":"8400583","stationCode":"SM","name":"Swalmen","coordinate":{"lat":51.23582,"lng":6.03228},"countryCode":"NL"},{"uicCode":"8400523","stationCode":"RM","name":"Roermond","coordinate":{"lat":51.1930541992188,"lng":5.9941668510437},"countryCode":"NL"}],"direction":"BOTH"},"consequence":{"section":{"stations":[{"uicCode":"8400470","stationCode":"NM","name":"Nijmegen","coordinate":{"lat":51.8436126708984,"lng":5.85222244262695},"countryCode":"NL"},{"uicCode":"8400468","stationCode":"NMH","name":"Nijmegen Heyendaal","coordinate":{"lat":51.8269462585449,"lng":5.86749982833862},"countryCode":"NL"},{"uicCode":"8400446","stationCode":"MMLH","name":"Mook-Molenhoek","coordinate":{"lat":51.766262,"lng":5.879133},"countryCode":"NL"},{"uicCode":"8400155","stationCode":"CK","name":"Cuijk","coordinate":{"lat":51.7266825879048,"lng":5.87429523468017},"countryCode":"NL"},{"uicCode":"8400128","stationCode":"BMR","name":"Boxmeer","coordinate":{"lat":51.6445217676531,"lng":5.93903303146362},"countryCode":"NL"},{"uicCode":"8400647","stationCode":"VLB","name":"Vierlingsbeek","coordinate":{"lat":51.59193,"lng":5.99714},"countryCode":"NL"},{"uicCode":"8400646","stationCode":"VRY","name":"Venray","coordinate":{"lat":51.526568099007,"lng":6.01417779922485},"countryCode":"NL"},{"uicCode":"8400117","stationCode":"BR","name":"Blerick","coordinate":{"lat":51.372501373291,"lng":6.15500020980835},"countryCode":"NL"},{"uicCode":"8400644","stationCode":"VL","name":"Venlo","coordinate":{"lat":51.3636093139648,"lng":6.17277765274048},"countryCode":"NL"},{"uicCode":"8400591","stationCode":"TG","name":"Tegelen","coordinate":{"lat":51.33894,"lng":6.14253},"countryCode":"NL"},{"uicCode":"8400518","stationCode":"RV","name":"Reuver","coordinate":{"lat":51.2832191665301,"lng":6.07895851135253},"countryCode":"NL"},{"uicCode":"8400583","stationCode":"SM","name":"Swalmen","coordinate":{"lat":51.23582,"lng":6.03228},"countryCode":"NL"},{"uicCode":"8400523","stationCode":"RM","name":"Roermond","coordinate":{"lat":51.1930541992188,"lng":5.9941668510437},"countryCode":"NL"}],"direction":"ONE_WAY"},"description":"geen treinen","level":"NO_OR_MUCH_LESS_TRAINS"},"sectionType":"NL"}],"timespans":[{"start":"2022-10-18T19:45:02+0200","end":"2022-10-22T01:00:00+0200","situation":{"label":"Tussen Nijmegen en Roermond rijden er geen treinen door een staking."},"cause":{"label":"Staking"},"advices":["Dit betreft alleen Arriva-treinen"]}],"alternativeTransportTimespans":[]},{"id":"6019337","type":"DISRUPTION","registrationTime":"2022-10-20T15:10:48+0200","releaseTime":"2022-10-20T15:10:48+0200","local":false,"title":"Sittard-Heerlen-Kerkrade","titleSections":[[{"type":"STATION","value":"Sittard"},{"type":"ICON","value":"DISRUPTION"},{"type":"STATION","value":"Kerkrade C."}]],"topic":"disruption_6019337_nl","isActive":true,"start":"2022-10-18T19:47:45+0200","end":"2022-10-22T01:00:00+0200","phase":{"id":"2","label":"Impact bekend"},"impact":{"value":3},"expectedDuration":{"description":"Dit duurt tot ongeveer zaterdag 22 oktober 01:00 uur.","endTime":"2022-10-22T01:00:00+0200"},"publicationSections":[{"section":{"stations":[{"uicCode":"8400564","stationCode":"STD","name":"Sittard","coordinate":{"lat":51.0016670227051,"lng":5.85861110687256},"countryCode":"NL"},{"uicCode":"8400246","stationCode":"GLN","name":"Geleen Oost","coordinate":{"lat":50.9669456481934,"lng":5.84305572509766},"countryCode":"NL"},{"uicCode":"8400572","stationCode":"SBK","name":"Spaubeek","coordinate":{"lat":50.94327,"lng":5.850529},"countryCode":"NL"},{"uicCode":"8400554","stationCode":"SN","name":"Schinnen","coordinate":{"lat":50.9391670227051,"lng":5.87444448471069},"countryCode":"NL"},{"uicCode":"8400467","stationCode":"NH","name":"Nuth","coordinate":{"lat":50.9194450378418,"lng":5.89277791976929},"countryCode":"NL"},{"uicCode":"8400326","stationCode":"HB","name":"Hoensbroek","coordinate":{"lat":50.9055557250977,"lng":5.93055534362793},"countryCode":"NL"},{"uicCode":"8400307","stationCode":"HRL","name":"Heerlen","coordinate":{"lat":50.8908348083496,"lng":5.97499990463257},"countryCode":"NL"},{"uicCode":"8400548","stationCode":"LG","name":"Landgraaf","coordinate":{"lat":50.8963890075684,"lng":6.01916646957398},"countryCode":"NL"},{"uicCode":"8400338","stationCode":"EGH","name":"Eygelshoven","coordinate":{"lat":50.8905563354492,"lng":6.04500007629395},"countryCode":"NL"},{"uicCode":"8400152","stationCode":"CVM","name":"Chevremont","coordinate":{"lat":50.8761100769043,"lng":6.05972242355347},"countryCode":"NL"},{"uicCode":"8400355","stationCode":"KRD","name":"Kerkrade Centrum","coordinate":{"lat":50.8616676330566,"lng":6.05749988555908},"countryCode":"NL"}],"direction":"BOTH"},"consequence":{"section":{"stations":[{"uicCode":"8400564","stationCode":"STD","name":"Sittard","coordinate":{"lat":51.0016670227051,"lng":5.85861110687256},"countryCode":"NL"},{"uicCode":"8400246","stationCode":"GLN","name":"Geleen Oost","coordinate":{"lat":50.9669456481934,"lng":5.84305572509766},"countryCode":"NL"},{"uicCode":"8400572","stationCode":"SBK","name":"Spaubeek","coordinate":{"lat":50.94327,"lng":5.850529},"countryCode":"NL"},{"uicCode":"8400554","stationCode":"SN","name":"Schinnen","coordinate":{"lat":50.9391670227051,"lng":5.87444448471069},"countryCode":"NL"},{"uicCode":"8400467","stationCode":"NH","name":"Nuth","coordinate":{"lat":50.9194450378418,"lng":5.89277791976929},"countryCode":"NL"},{"uicCode":"8400326","stationCode":"HB","name":"Hoensbroek","coordinate":{"lat":50.9055557250977,"lng":5.93055534362793},"countryCode":"NL"},{"uicCode":"8400307","stationCode":"HRL","name":"Heerlen","coordinate":{"lat":50.8908348083496,"lng":5.97499990463257},"countryCode":"NL"},{"uicCode":"8400548","stationCode":"LG","name":"Landgraaf","coordinate":{"lat":50.8963890075684,"lng":6.01916646957398},"countryCode":"NL"},{"uicCode":"8400338","stationCode":"EGH","name":"Eygelshoven","coordinate":{"lat":50.8905563354492,"lng":6.04500007629395},"countryCode":"NL"},{"uicCode":"8400152","stationCode":"CVM","name":"Chevremont","coordinate":{"lat":50.8761100769043,"lng":6.05972242355347},"countryCode":"NL"},{"uicCode":"8400355","stationCode":"KRD","name":"Kerkrade Centrum","coordinate":{"lat":50.8616676330566,"lng":6.05749988555908},"countryCode":"NL"}],"direction":"ONE_WAY"},"description":"geen stoptreinen","level":"LESS_TRAINS"},"sectionType":"NL"}],"timespans":[{"start":"2022-10-18T19:47:45+0200","end":"2022-10-22T01:00:00+0200","situation":{"label":"Tussen Sittard en Kerkrade Centrum rijden er geen stoptreinen door een staking."},"cause":{"label":"Staking"},"advices":["Dit betreft alleen Arriva-treinen"]}],"alternativeTransportTimespans":[]},{"id":"6019338","type":"DISRUPTION","registrationTime":"2022-10-20T15:10:57+0200","releaseTime":"2022-10-20T15:10:57+0200","local":false,"title":"Heerlen-Maastricht Randwyck","titleSections":[[{"type":"STATION","value":"Heerlen"},{"type":"ICON","value":"DISRUPTION"},{"type":"STATION","value":"Maastricht"},{"type":"STATION","value":"Randwyck"}]],"topic":"disruption_6019338_nl","isActive":true,"start":"2022-10-18T19:49:56+0200","end":"2022-10-22T01:00:00+0200","phase":{"id":"2","label":"Impact bekend"},"impact":{"value":3},"expectedDuration":{"description":"Dit duurt tot ongeveer zaterdag 22 oktober 01:00 uur.","endTime":"2022-10-22T01:00:00+0200"},"publicationSections":[{"section":{"stations":[{"uicCode":"8400307","stationCode":"HRL","name":"Heerlen","coordinate":{"lat":50.8908348083496,"lng":5.97499990463257},"countryCode":"NL"},{"uicCode":"8400404","stationCode":"HRLW","name":"Heerlen Woonboulevard","coordinate":{"lat":50.896667,"lng":5.952222},"countryCode":"NL"},{"uicCode":"8400656","stationCode":"VDL","name":"Voerendaal","coordinate":{"lat":50.8872222900391,"lng":5.93027782440186},"countryCode":"NL"},{"uicCode":"8400362","stationCode":"KMR","name":"Klimmen-Ransdaal","coordinate":{"lat":50.8663902282715,"lng":5.8905553817749},"countryCode":"NL"},{"uicCode":"8400555","stationCode":"SOG","name":"Schin op Geul","coordinate":{"lat":50.856388092041,"lng":5.87222242355347},"countryCode":"NL"},{"uicCode":"8400632","stationCode":"VK","name":"Valkenburg","coordinate":{"lat":50.8697204589844,"lng":5.83222198486328},"countryCode":"NL"},{"uicCode":"8400341","stationCode":"SGL","name":"Houthem-St. Gerlach","coordinate":{"lat":50.8733329772949,"lng":5.79722213745117},"countryCode":"NL"},{"uicCode":"8400434","stationCode":"MES","name":"Meerssen","coordinate":{"lat":50.882879392551,"lng":5.75099945068359},"countryCode":"NL"},{"uicCode":"8400449","stationCode":"MTN","name":"Maastricht Noord","coordinate":{"lat":50.87087,"lng":5.71774},"countryCode":"NL"},{"uicCode":"8400424","stationCode":"MT","name":"Maastricht","coordinate":{"lat":50.8502769470215,"lng":5.70555543899536},"countryCode":"NL"},{"uicCode":"8400426","stationCode":"MTR","name":"Maastricht Randwyck","coordinate":{"lat":50.8386116027832,"lng":5.71722221374512},"countryCode":"NL"}],"direction":"BOTH"},"consequence":{"section":{"stations":[{"uicCode":"8400307","stationCode":"HRL","name":"Heerlen","coordinate":{"lat":50.8908348083496,"lng":5.97499990463257},"countryCode":"NL"},{"uicCode":"8400404","stationCode":"HRLW","name":"Heerlen Woonboulevard","coordinate":{"lat":50.896667,"lng":5.952222},"countryCode":"NL"},{"uicCode":"8400656","stationCode":"VDL","name":"Voerendaal","coordinate":{"lat":50.8872222900391,"lng":5.93027782440186},"countryCode":"NL"},{"uicCode":"8400362","stationCode":"KMR","name":"Klimmen-Ransdaal","coordinate":{"lat":50.8663902282715,"lng":5.8905553817749},"countryCode":"NL"},{"uicCode":"8400555","stationCode":"SOG","name":"Schin op Geul","coordinate":{"lat":50.856388092041,"lng":5.87222242355347},"countryCode":"NL"},{"uicCode":"8400632","stationCode":"VK","name":"Valkenburg","coordinate":{"lat":50.8697204589844,"lng":5.83222198486328},"countryCode":"NL"},{"uicCode":"8400341","stationCode":"SGL","name":"Houthem-St. Gerlach","coordinate":{"lat":50.8733329772949,"lng":5.79722213745117},"countryCode":"NL"},{"uicCode":"8400434","stationCode":"MES","name":"Meerssen","coordinate":{"lat":50.882879392551,"lng":5.75099945068359},"countryCode":"NL"},{"uicCode":"8400449","stationCode":"MTN","name":"Maastricht Noord","coordinate":{"lat":50.87087,"lng":5.71774},"countryCode":"NL"},{"uicCode":"8400424","stationCode":"MT","name":"Maastricht","coordinate":{"lat":50.8502769470215,"lng":5.70555543899536},"countryCode":"NL"}],"direction":"ONE_WAY"},"description":"geen treinen","level":"NO_OR_MUCH_LESS_TRAINS"},"sectionType":"NL"}],"timespans":[{"start":"2022-10-18T19:49:56+0200","end":"2022-10-22T01:00:00+0200","situation":{"label":"Tussen Heerlen en Maastricht rijden er geen treinen door een staking."},"cause":{"label":"Staking"},"advices":["Dit betreft alleen Arriva-treinen"]}],"alternativeTransportTimespans":[]},{"id":"6019339","type":"DISRUPTION","registrationTime":"2022-10-20T15:11:04+0200","releaseTime":"2022-10-20T15:11:04+0200","local":false,"title":"Heerlen-Aachen Hbf","titleSections":[[{"type":"STATION","value":"Heerlen"},{"type":"ICON","value":"DISRUPTION"},{"type":"STATION","value":"Aachen Hbf"}]],"topic":"disruption_6019339_nl","isActive":true,"start":"2022-10-18T19:56:05+0200","end":"2022-10-22T01:00:00+0200","phase":{"id":"2","label":"Impact bekend"},"impact":{"value":3},"expectedDuration":{"description":"Dit duurt tot ongeveer zaterdag 22 oktober 01:00 uur.","endTime":"2022-10-22T01:00:00+0200"},"publicationSections":[{"section":{"stations":[{"uicCode":"8400307","stationCode":"HRL","name":"Heerlen","coordinate":{"lat":50.8908348083496,"lng":5.97499990463257},"countryCode":"NL"},{"uicCode":"8400548","stationCode":"LG","name":"Landgraaf","coordinate":{"lat":50.8963890075684,"lng":6.01916646957398},"countryCode":"NL"},{"uicCode":"8400234","stationCode":"EGHM","name":"Eygelshoven Markt","coordinate":{"lat":50.8960498196442,"lng":6.0602474212646396},"countryCode":"NL"},{"uicCode":"8015190","stationCode":"HZ","name":"Herzogenrath","coordinate":{"lat":50.870916,"lng":6.094486},"countryCode":"D"},{"uicCode":"8015345","stationCode":"AHBF","name":"Aachen Hbf","coordinate":{"lat":50.7678,"lng":6.091499},"countryCode":"D"}],"direction":"BOTH"},"consequence":{"section":{"stations":[{"uicCode":"8400307","stationCode":"HRL","name":"Heerlen","coordinate":{"lat":50.8908348083496,"lng":5.97499990463257},"countryCode":"NL"},{"uicCode":"8400548","stationCode":"LG","name":"Landgraaf","coordinate":{"lat":50.8963890075684,"lng":6.01916646957398},"countryCode":"NL"},{"uicCode":"8400234","stationCode":"EGHM","name":"Eygelshoven Markt","coordinate":{"lat":50.8960498196442,"lng":6.0602474212646396},"countryCode":"NL"},{"uicCode":"8015190","stationCode":"HZ","name":"Herzogenrath","coordinate":{"lat":50.870916,"lng":6.094486},"countryCode":"D"},{"uicCode":"8015345","stationCode":"AHBF","name":"Aachen Hbf","coordinate":{"lat":50.7678,"lng":6.091499},"countryCode":"D"}],"direction":"ONE_WAY"},"description":"geen treinen","level":"NO_OR_MUCH_LESS_TRAINS"},"sectionType":"NEIGHBORING_COUNTRY"}],"timespans":[{"start":"2022-10-18T19:56:05+0200","end":"2022-10-22T01:00:00+0200","situation":{"label":"Tussen Heerlen en Aachen Hbf rijden er geen treinen door een staking."},"cause":{"label":"Staking"},"advices":["Dit betreft alleen Arriva-treinen"]}],"alternativeTransportTimespans":[]},{"id":"6019340","type":"DISRUPTION","registrationTime":"2022-10-20T15:11:12+0200","releaseTime":"2022-10-20T15:11:12+0200","local":false,"title":"Roermond-Maastricht-Maastricht Randwyck","titleSections":[[{"type":"STATION","value":"Roermond"},{"type":"ICON","value":"DISRUPTION"},{"type":"STATION","value":"Maastricht"},{"type":"STATION","value":"Randwyck"}]],"topic":"disruption_6019340_nl","isActive":true,"start":"2022-10-18T19:57:23+0200","end":"2022-10-22T01:00:00+0200","phase":{"id":"2","label":"Impact bekend"},"impact":{"value":3},"expectedDuration":{"description":"Dit duurt tot ongeveer zaterdag 22 oktober 01:00 uur.","endTime":"2022-10-22T01:00:00+0200"},"publicationSections":[{"section":{"stations":[{"uicCode":"8400523","stationCode":"RM","name":"Roermond","coordinate":{"lat":51.1930541992188,"lng":5.9941668510437},"countryCode":"NL"},{"uicCode":"8400195","stationCode":"EC","name":"Echt","coordinate":{"lat":51.1005554199219,"lng":5.87888908386231},"countryCode":"NL"},{"uicCode":"8400582","stationCode":"SRN","name":"Susteren","coordinate":{"lat":51.0613899230957,"lng":5.86305570602417},"countryCode":"NL"},{"uicCode":"8400564","stationCode":"STD","name":"Sittard","coordinate":{"lat":51.0016670227051,"lng":5.85861110687256},"countryCode":"NL"},{"uicCode":"8400248","stationCode":"LUT","name":"Geleen-Lutterade","coordinate":{"lat":50.9755554199219,"lng":5.82472229003906},"countryCode":"NL"},{"uicCode":"8400096","stationCode":"BK","name":"Beek-Elsloo","coordinate":{"lat":50.9474983215332,"lng":5.78666687011719},"countryCode":"NL"},{"uicCode":"8400140","stationCode":"BDE","name":"Bunde","coordinate":{"lat":50.8969459533691,"lng":5.73666667938232},"countryCode":"NL"},{"uicCode":"8400424","stationCode":"MT","name":"Maastricht","coordinate":{"lat":50.8502769470215,"lng":5.70555543899536},"countryCode":"NL"},{"uicCode":"8400426","stationCode":"MTR","name":"Maastricht Randwyck","coordinate":{"lat":50.8386116027832,"lng":5.71722221374512},"countryCode":"NL"}],"direction":"BOTH"},"consequence":{"section":{"stations":[{"uicCode":"8400523","stationCode":"RM","name":"Roermond","coordinate":{"lat":51.1930541992188,"lng":5.9941668510437},"countryCode":"NL"},{"uicCode":"8400195","stationCode":"EC","name":"Echt","coordinate":{"lat":51.1005554199219,"lng":5.87888908386231},"countryCode":"NL"},{"uicCode":"8400582","stationCode":"SRN","name":"Susteren","coordinate":{"lat":51.0613899230957,"lng":5.86305570602417},"countryCode":"NL"},{"uicCode":"8400564","stationCode":"STD","name":"Sittard","coordinate":{"lat":51.0016670227051,"lng":5.85861110687256},"countryCode":"NL"},{"uicCode":"8400248","stationCode":"LUT","name":"Geleen-Lutterade","coordinate":{"lat":50.9755554199219,"lng":5.82472229003906},"countryCode":"NL"},{"uicCode":"8400096","stationCode":"BK","name":"Beek-Elsloo","coordinate":{"lat":50.9474983215332,"lng":5.78666687011719},"countryCode":"NL"},{"uicCode":"8400140","stationCode":"BDE","name":"Bunde","coordinate":{"lat":50.8969459533691,"lng":5.73666667938232},"countryCode":"NL"},{"uicCode":"8400424","stationCode":"MT","name":"Maastricht","coordinate":{"lat":50.8502769470215,"lng":5.70555543899536},"countryCode":"NL"}],"direction":"ONE_WAY"},"description":"geen stoptreinen","level":"LESS_TRAINS"},"sectionType":"NL"}],"timespans":[{"start":"2022-10-18T19:57:23+0200","end":"2022-10-22T01:00:00+0200","situation":{"label":"Tussen Roermond en Maastricht rijden er geen stoptreinen door een staking."},"cause":{"label":"Staking"},"advices":["Dit betreft alleen Arriva-treinen"]}],"alternativeTransportTimespans":[]},{"id":"6019378","type":"DISRUPTION","registrationTime":"2022-10-21T15:09:03+0200","releaseTime":"2022-10-21T15:09:03+0200","local":false,"title":"Amsterdam-Gouda","titleSections":[[{"type":"STATION","value":"Amsterdam C."},{"type":"STATION","value":"Breukelen"},{"type":"ICON","value":"DISRUPTION"},{"type":"STATION","value":"Goverwelle"},{"type":"STATION","value":"Gouda"}]],"topic":"disruption_6019378_nl","isActive":true,"start":"2022-10-21T13:23:09+0200","end":"2022-10-21T19:30:00+0200","phase":{"id":"2","label":"Impact bekend"},"impact":{"value":3},"expectedDuration":{"description":"Dit duurt tot ongeveer 19:30 uur.","endTime":"2022-10-21T19:30:00+0200"},"publicationSections":[{"section":{"stations":[{"uicCode":"8400058","stationCode":"ASD","name":"Amsterdam Centraal","coordinate":{"lat":52.3788871765137,"lng":4.90027761459351},"countryCode":"NL"},{"uicCode":"8400060","stationCode":"ASDM","name":"Amsterdam Muiderpoort","coordinate":{"lat":52.3605537414551,"lng":4.93111133575439},"countryCode":"NL"},{"uicCode":"8400057","stationCode":"ASA","name":"Amsterdam Amstel","coordinate":{"lat":52.3466682434082,"lng":4.91777801513672},"countryCode":"NL"},{"uicCode":"8400194","stationCode":"DVD","name":"Duivendrecht","coordinate":{"lat":52.3233337402344,"lng":4.93638896942139},"countryCode":"NL"},{"uicCode":"8400074","stationCode":"ASB","name":"Amsterdam Bijlmer ArenA","coordinate":{"lat":52.3122215270996,"lng":4.94694423675537},"countryCode":"NL"},{"uicCode":"8400231","stationCode":"ASHD","name":"Amsterdam Holendrecht","coordinate":{"lat":52.29844,"lng":4.95972},"countryCode":"NL"},{"uicCode":"8400047","stationCode":"AC","name":"Abcoude","coordinate":{"lat":52.2785,"lng":4.977},"countryCode":"NL"},{"uicCode":"8400133","stationCode":"BKL","name":"Breukelen","coordinate":{"lat":52.17149,"lng":4.9906},"countryCode":"NL"},{"uicCode":"8400702","stationCode":"WD","name":"Woerden","coordinate":{"lat":52.0849990844727,"lng":4.89361095428467},"countryCode":"NL"},{"uicCode":"8400257","stationCode":"GDG","name":"Gouda Goverwelle","coordinate":{"lat":52.0149993896484,"lng":4.7408332824707},"countryCode":"NL"},{"uicCode":"8400258","stationCode":"GD","name":"Gouda","coordinate":{"lat":52.0175018310547,"lng":4.70444440841675},"countryCode":"NL"}],"direction":"BOTH"},"consequence":{"section":{"stations":[{"uicCode":"8400133","stationCode":"BKL","name":"Breukelen","coordinate":{"lat":52.17149,"lng":4.9906},"countryCode":"NL"},{"uicCode":"8400702","stationCode":"WD","name":"Woerden","coordinate":{"lat":52.0849990844727,"lng":4.89361095428467},"countryCode":"NL"},{"uicCode":"8400257","stationCode":"GDG","name":"Gouda Goverwelle","coordinate":{"lat":52.0149993896484,"lng":4.7408332824707},"countryCode":"NL"}],"direction":"ONE_WAY"},"description":"geen treinen","level":"NO_OR_MUCH_LESS_TRAINS"},"sectionType":"NL"}],"timespans":[{"start":"2022-10-21T13:23:09+0200","end":"2022-10-21T19:30:00+0200","situation":{"label":"Tussen Breukelen en Gouda Goverwelle rijden er geen treinen door een defecte bovenleiding."},"cause":{"label":"Defecte bovenleiding"},"advices":[]}],"alternativeTransportTimespans":[]},{"id":"6019381","type":"DISRUPTION","registrationTime":"2022-10-21T14:16:36+0200","releaseTime":"2022-10-21T14:16:36+0200","local":false,"title":"Amersfoort-Barneveld","titleSections":[[{"type":"STATION","value":"Amersfoort C."},{"type":"ICON","value":"DISRUPTION"},{"type":"STATION","value":"Barneveld Zuid"}]],"topic":"disruption_6019381_nl","isActive":true,"start":"2022-10-21T14:13:04+0200","end":"2022-10-21T21:00:00+0200","phase":{"id":"2","label":"Impact bekend"},"impact":{"value":2},"expectedDuration":{"description":"De treinen rijden weer normaal rond 21:00 uur.","endTime":"2022-10-21T21:00:00+0200"},"publicationSections":[{"section":{"stations":[{"uicCode":"8400055","stationCode":"AMF","name":"Amersfoort Centraal","coordinate":{"lat":52.1538887023926,"lng":5.37055540084839},"countryCode":"NL"},{"uicCode":"8400490","stationCode":"HVL","name":"Hoevelaken","coordinate":{"lat":52.16652,"lng":5.45718},"countryCode":"NL"},{"uicCode":"8400092","stationCode":"BNN","name":"Barneveld Noord","coordinate":{"lat":52.1613883972168,"lng":5.59805536270142},"countryCode":"NL"},{"uicCode":"8400091","stationCode":"BNC","name":"Barneveld Centrum","coordinate":{"lat":52.1399993896484,"lng":5.59027767181396},"countryCode":"NL"},{"uicCode":"8400115","stationCode":"BNZ","name":"Barneveld Zuid","coordinate":{"lat":52.128853,"lng":5.60246},"countryCode":"NL"}],"direction":"BOTH"},"consequence":{"section":{"stations":[{"uicCode":"8400055","stationCode":"AMF","name":"Amersfoort Centraal","coordinate":{"lat":52.1538887023926,"lng":5.37055540084839},"countryCode":"NL"},{"uicCode":"8400490","stationCode":"HVL","name":"Hoevelaken","coordinate":{"lat":52.16652,"lng":5.45718},"countryCode":"NL"},{"uicCode":"8400092","stationCode":"BNN","name":"Barneveld Noord","coordinate":{"lat":52.1613883972168,"lng":5.59805536270142},"countryCode":"NL"},{"uicCode":"8400091","stationCode":"BNC","name":"Barneveld Centrum","coordinate":{"lat":52.1399993896484,"lng":5.59027767181396},"countryCode":"NL"},{"uicCode":"8400115","stationCode":"BNZ","name":"Barneveld Zuid","coordinate":{"lat":52.128853,"lng":5.60246},"countryCode":"NL"}],"direction":"ONE_WAY"},"description":"minder treinen","level":"LESS_TRAINS"},"sectionType":"NL"}],"timespans":[{"start":"2022-10-21T14:13:04+0200","end":"2022-10-21T21:00:00+0200","situation":{"label":"Tussen Amersfoort Centraal en Barneveld Zuid rijden er minder treinen door een tekort aan personeel."},"cause":{"label":"Tekort personeel"},"advices":[]}],"alternativeTransportTimespans":[]},{"id":"6019380","type":"DISRUPTION","registrationTime":"2022-10-21T15:08:57+0200","releaseTime":"2022-10-21T15:08:57+0200","local":false,"title":"Rotterdam-Gouda Goverwelle","titleSections":[[{"type":"STATION","value":"Rotterdam C."},{"type":"ICON","value":"DISRUPTION"},{"type":"STATION","value":"Goverwelle"}]],"topic":"disruption_6019380_nl","isActive":true,"start":"2022-10-21T14:14:10+0200","end":"2022-10-21T19:30:00+0200","phase":{"id":"2","label":"Impact bekend"},"impact":{"value":2},"expectedDuration":{"description":"Dit duurt tot ongeveer 19:30 uur.","endTime":"2022-10-21T19:30:00+0200"},"summaryAdditionalTravelTime":{"label":"De extra reistijd kan oplopen tot 15 minuten.","shortLabel":"Extra reistijd tot 15 min.","maximumDurationInMinutes":15},"publicationSections":[{"section":{"stations":[{"uicCode":"8400530","stationCode":"RTD","name":"Rotterdam Centraal","coordinate":{"lat":51.9249992370605,"lng":4.46888875961304},"countryCode":"NL"},{"uicCode":"8400531","stationCode":"RTN","name":"Rotterdam Noord","coordinate":{"lat":51.9422225952148,"lng":4.48166656494141},"countryCode":"NL"},{"uicCode":"8400507","stationCode":"RTA","name":"Rotterdam Alexander","coordinate":{"lat":51.9519462585449,"lng":4.55361127853394},"countryCode":"NL"},{"uicCode":"8400147","stationCode":"CPS","name":"Capelle Schollevaar","coordinate":{"lat":51.9541664123535,"lng":4.58416652679443},"countryCode":"NL"},{"uicCode":"8400455","stationCode":"NWK","name":"Nieuwerkerk a/d IJssel","coordinate":{"lat":51.9652786254883,"lng":4.61694431304932},"countryCode":"NL"},{"uicCode":"8400258","stationCode":"GD","name":"Gouda","coordinate":{"lat":52.0175018310547,"lng":4.70444440841675},"countryCode":"NL"},{"uicCode":"8400257","stationCode":"GDG","name":"Gouda Goverwelle","coordinate":{"lat":52.0149993896484,"lng":4.7408332824707},"countryCode":"NL"}],"direction":"BOTH"},"consequence":{"section":{"stations":[{"uicCode":"8400530","stationCode":"RTD","name":"Rotterdam Centraal","coordinate":{"lat":51.9249992370605,"lng":4.46888875961304},"countryCode":"NL"},{"uicCode":"8400531","stationCode":"RTN","name":"Rotterdam Noord","coordinate":{"lat":51.9422225952148,"lng":4.48166656494141},"countryCode":"NL"},{"uicCode":"8400507","stationCode":"RTA","name":"Rotterdam Alexander","coordinate":{"lat":51.9519462585449,"lng":4.55361127853394},"countryCode":"NL"},{"uicCode":"8400147","stationCode":"CPS","name":"Capelle Schollevaar","coordinate":{"lat":51.9541664123535,"lng":4.58416652679443},"countryCode":"NL"},{"uicCode":"8400455","stationCode":"NWK","name":"Nieuwerkerk a/d IJssel","coordinate":{"lat":51.9652786254883,"lng":4.61694431304932},"countryCode":"NL"},{"uicCode":"8400258","stationCode":"GD","name":"Gouda","coordinate":{"lat":52.0175018310547,"lng":4.70444440841675},"countryCode":"NL"},{"uicCode":"8400257","stationCode":"GDG","name":"Gouda Goverwelle","coordinate":{"lat":52.0149993896484,"lng":4.7408332824707},"countryCode":"NL"}],"direction":"ONE_WAY"},"description":"minder Sprinters","level":"LESS_TRAINS"},"sectionType":"NL"}],"timespans":[{"start":"2022-10-21T14:14:10+0200","end":"2022-10-21T19:30:00+0200","situation":{"label":"Tussen Rotterdam Centraal en Gouda Goverwelle rijden er minder Sprinters door een defecte bovenleiding."},"cause":{"label":"Defecte bovenleiding"},"additionalTravelTime":{"label":"De extra reistijd kan oplopen tot 15 minuten.","shortLabel":"Extra reistijd tot 15 min.","maximumDurationInMinutes":15},"advices":[]}],"alternativeTransportTimespans":[]},{"id":"585edfdf-429b-4373-872e-d34d25603aea","title":"Utrecht C-Driebergen/Rhenen/Ede, maandag 24 t/m woensdag 26 oktober","topic":"disruption_585edfdf-429b-4373-872e-d34d25603aea_nl","description":"Door werkzaamheden rijden er van maandag 24 t/m woensdag 26 oktober bussen tussen Utrecht-Driebergen/Rhenen/Ede. Plan je reis vooraf met de reisplanner.","priority":"PRIO_3","lastUpdated":"2022-10-21T00:12:00+0200","bodyItems":[],"buttons":{"position":["BOTTOM"],"items":[{"label":"Plan je reis","type":"PLANNER","accessibilityLabel":"Plan je reis","url":"https://www.ns.nl/reisplanner"}]},"url":"https://www.ns.nl/reisinformatie/calamiteiten/utrecht-c-driebergen-rhenen-ede-maandag-24-t-m-woensdag-26-oktober.html","type":"CALAMITY","isActive":true},{"id":"d74f5e48-91db-4849-9662-cdbf5f971145","title":"Eindhoven Centraal-Venlo , zondag 23 oktober t/m dinsdag 1 november","topic":"disruption_d74f5e48-91db-4849-9662-cdbf5f971145_nl","description":"Door werkzaamheden rijden er bussen tussen  Eindhoven Centraal en Venlo. Plan je reis vooraf met de reisplanner.","priority":"PRIO_3","lastUpdated":"2022-10-19T05:00:00+0200","bodyItems":[],"buttons":{"position":["BOTTOM"],"items":[{"label":"Plan je reis","type":"PLANNER","accessibilityLabel":"Plan je reis","url":"https://www.ns.nl/reisplanner"}]},"url":"https://www.ns.nl/reisinformatie/calamiteiten/eindhoven-centraal-venlo--zondag-23-oktober-t-m-dinsdag-1-november.html","type":"CALAMITY","isActive":true},{"id":"7002938","type":"MAINTENANCE","registrationTime":"2022-10-21T11:30:50+0200","releaseTime":"2022-10-21T11:30:50+0200","local":false,"title":"Lelystad - Zwolle","titleSections":[[{"type":"STATION","value":"Lelystad C."},{"type":"ICON","value":"MAINTENANCE"},{"type":"STATION","value":"Dronten"},{"type":"STATION","value":"Zwolle"}]],"isActive":true,"start":"2022-10-21T11:31:00+0200","end":"2022-12-15T02:00:00+0100","period":"Vrijdag 21-10-2022 11:31 uur t/m donderdag 15-12-2022 02:00 uur.","impact":{"value":4},"publicationSections":[{"section":{"stations":[{"uicCode":"8400394","stationCode":"LLS","name":"Lelystad Centrum","coordinate":{"lat":52.5077781677246,"lng":5.47277784347534},"countryCode":"NL"},{"uicCode":"8400198","stationCode":"DRON","name":"Dronten","coordinate":{"lat":52.5344,"lng":5.72089},"countryCode":"NL"},{"uicCode":"8400360","stationCode":"KPNZ","name":"Kampen Zuid","coordinate":{"lat":52.5331,"lng":5.91309},"countryCode":"NL"},{"uicCode":"8400747","stationCode":"ZL","name":"Zwolle","coordinate":{"lat":52.5047225952148,"lng":6.09194421768188},"countryCode":"NL"}],"direction":"BOTH"},"consequence":{"section":{"stations":[{"uicCode":"8400394","stationCode":"LLS","name":"Lelystad Centrum","coordinate":{"lat":52.5077781677246,"lng":5.47277784347534},"countryCode":"NL"},{"uicCode":"8400198","stationCode":"DRON","name":"Dronten","coordinate":{"lat":52.5344,"lng":5.72089},"countryCode":"NL"}],"direction":"ONE_WAY"},"description":"rijden bussen","level":"NO_OR_MUCH_LESS_TRAINS"},"sectionType":"NL"}],"timespans":[{"start":"2022-10-21T11:31:00+0200","end":"2022-12-15T02:00:00+0100","period":"Vrijdag 21-10-2022 11:31 uur t/m donderdag 15-12-2022 02:00 uur.","situation":{"label":"Door herstelwerkzaamheden: tussen Lelystad Centrum en Dronten rijden er bussen."},"cause":{"label":"Herstelwerkzaamheden"},"alternativeTransport":{"label":"Er rijden bussen.","shortLabel":"er rijden bussen"},"advices":["Tussen Schiphol Airport en Zwolle reist u via Amersfoort C.","Tussen Amsterdam C. en Zwolle reist u via Amersfoort C."]}],"alternativeTransportTimespans":[{"start":"2022-10-21T11:31:00+0200","end":"2022-12-15T02:00:00+0100","alternativeTransport":{"location":[{"station":{"uicCode":"8400394","stationCode":"LLS","name":"Lelystad Centrum","coordinate":{"lat":52.5077781677246,"lng":5.47277784347534},"countryCode":"NL"},"description":"vanaf de achterzijde van het station"},{"station":{"uicCode":"8400198","stationCode":"DRON","name":"Dronten","coordinate":{"lat":52.5344,"lng":5.72089},"countryCode":"NL"},"description":"vanaf de voorzijde van het station"}],"label":"Er rijden bussen tussen Lelystad Centrum en Dronten.","shortLabel":"Er rijden bussen Lelystad C. - Dronten"}}]},{"id":"7002788","type":"MAINTENANCE","registrationTime":"2022-10-21T09:52:05+0200","releaseTime":"2022-10-21T09:52:05+0200","local":false,"title":"Eindhoven - Venlo","titleSections":[[{"type":"STATION","value":"Eindhoven C."},{"type":"ICON","value":"MAINTENANCE"},{"type":"STATION","value":"Venlo"}]],"isActive":false,"start":"2022-10-23T04:00:00+0200","end":"2022-11-02T02:00:00+0100","period":"Zondag 23-10-2022 04:00 uur t/m woensdag 02-11-2022 02:00 uur.","impact":{"value":5},"summaryAdditionalTravelTime":{"label":"De extra reistijd kan oplopen tot 30 minuten.","shortLabel":"Extra reistijd tot 30 min.","maximumDurationInMinutes":30},"publicationSections":[{"section":{"stations":[{"uicCode":"8400206","stationCode":"EHV","name":"Eindhoven Centraal","coordinate":{"lat":51.4433326721191,"lng":5.48138904571533},"countryCode":"NL"},{"uicCode":"8400242","stationCode":"HMBV","name":"Helmond Brandevoort","coordinate":{"lat":51.4622230529785,"lng":5.60722208023071},"countryCode":"NL"},{"uicCode":"8400300","stationCode":"HMH","name":"Helmond 't Hout","coordinate":{"lat":51.46794,"lng":5.63085},"countryCode":"NL"},{"uicCode":"8400313","stationCode":"HM","name":"Helmond","coordinate":{"lat":51.4755554199219,"lng":5.66194438934326},"countryCode":"NL"},{"uicCode":"8400299","stationCode":"HMBH","name":"Helmond Brouwhuis","coordinate":{"lat":51.47068,"lng":5.70177},"countryCode":"NL"},{"uicCode":"8400172","stationCode":"DN","name":"Deurne","coordinate":{"lat":51.4558334350586,"lng":5.78888893127441},"countryCode":"NL"},{"uicCode":"8400339","stationCode":"HRT","name":"Horst-Sevenum","coordinate":{"lat":51.4263877868652,"lng":6.04222202301025},"countryCode":"NL"},{"uicCode":"8400117","stationCode":"BR","name":"Blerick","coordinate":{"lat":51.372501373291,"lng":6.15500020980835},"countryCode":"NL"},{"uicCode":"8400644","stationCode":"VL","name":"Venlo","coordinate":{"lat":51.3636093139648,"lng":6.17277765274048},"countryCode":"NL"}],"direction":"BOTH"},"consequence":{"section":{"stations":[{"uicCode":"8400206","stationCode":"EHV","name":"Eindhoven Centraal","coordinate":{"lat":51.4433326721191,"lng":5.48138904571533},"countryCode":"NL"},{"uicCode":"8400242","stationCode":"HMBV","name":"Helmond Brandevoort","coordinate":{"lat":51.4622230529785,"lng":5.60722208023071},"countryCode":"NL"},{"uicCode":"8400300","stationCode":"HMH","name":"Helmond 't Hout","coordinate":{"lat":51.46794,"lng":5.63085},"countryCode":"NL"},{"uicCode":"8400313","stationCode":"HM","name":"Helmond","coordinate":{"lat":51.4755554199219,"lng":5.66194438934326},"countryCode":"NL"},{"uicCode":"8400299","stationCode":"HMBH","name":"Helmond Brouwhuis","coordinate":{"lat":51.47068,"lng":5.70177},"countryCode":"NL"},{"uicCode":"8400172","stationCode":"DN","name":"Deurne","coordinate":{"lat":51.4558334350586,"lng":5.78888893127441},"countryCode":"NL"},{"uicCode":"8400339","stationCode":"HRT","name":"Horst-Sevenum","coordinate":{"lat":51.4263877868652,"lng":6.04222202301025},"countryCode":"NL"},{"uicCode":"8400117","stationCode":"BR","name":"Blerick","coordinate":{"lat":51.372501373291,"lng":6.15500020980835},"countryCode":"NL"},{"uicCode":"8400644","stationCode":"VL","name":"Venlo","coordinate":{"lat":51.3636093139648,"lng":6.17277765274048},"countryCode":"NL"}],"direction":"ONE_WAY"},"description":"rijden bussen","level":"NO_OR_MUCH_LESS_TRAINS"},"sectionType":"NL"}],"timespans":[{"start":"2022-10-23T04:00:00+0200","end":"2022-11-02T02:00:00+0100","period":"Zondag 23-10-2022 04:00 uur t/m woensdag 02-11-2022 02:00 uur.","situation":{"label":"Door werkzaamheden: tussen Eindhoven Centraal en Venlo rijden er bussen."},"cause":{"label":"Werkzaamheden"},"additionalTravelTime":{"label":"De extra reistijd kan oplopen tot 30 minuten.","shortLabel":"Extra reistijd tot 30 min.","maximumDurationInMinutes":30},"alternativeTransport":{"label":"Maak gebruik van het vervangende vervoer.","shortLabel":"gebruik het vervangende vervoer"},"advices":["Houd rekening met grote drukte en lange wachttijden bij de NS-bussen","Tussen Eindhoven C. en Horst-Sevenum/Blerick reist u via Helmond","Tussen Eindhoven C. en Brandevoort/'t Hout reist u via Helmond","Tussen Eindhoven C. en Brouwhuis reist u via Helmond"]}],"alternativeTransportTimespans":[{"start":"2022-10-23T04:00:00+0200","end":"2022-11-02T02:00:00+0100","alternativeTransport":{"location":[{"station":{"uicCode":"8400206","stationCode":"EHV","name":"Eindhoven Centraal","coordinate":{"lat":51.4433326721191,"lng":5.48138904571533},"countryCode":"NL"},"description":"vanaf het Beursplein, aan de achterzijde van het station"},{"station":{"uicCode":"8400313","stationCode":"HM","name":"Helmond","coordinate":{"lat":51.4755554199219,"lng":5.66194438934326},"countryCode":"NL"},"description":"vanaf de achterzijde van het station"},{"station":{"uicCode":"8400172","stationCode":"DN","name":"Deurne","coordinate":{"lat":51.4558334350586,"lng":5.78888893127441},"countryCode":"NL"},"description":"vanaf de achterzijde van het station"}],"label":"Er rijden snelbussen tussen Eindhoven Centraal, Helmond en Deurne.","shortLabel":"Er rijden snelbussen Eindhoven C. - Helmond - Deurne"}},{"start":"2022-10-23T04:00:00+0200","end":"2022-11-02T02:00:00+0100","alternativeTransport":{"location":[{"station":{"uicCode":"8400206","stationCode":"EHV","name":"Eindhoven Centraal","coordinate":{"lat":51.4433326721191,"lng":5.48138904571533},"countryCode":"NL"},"description":"vanaf het Beursplein, aan de achterzijde van het station"},{"station":{"uicCode":"8400644","stationCode":"VL","name":"Venlo","coordinate":{"lat":51.3636093139648,"lng":6.17277765274048},"countryCode":"NL"},"description":"vanaf het busstation"}],"label":"Er rijden snelbussen tussen Eindhoven Centraal en Venlo.","shortLabel":"Er rijden snelbussen Eindhoven C. - Venlo"}},{"start":"2022-10-23T04:00:00+0200","end":"2022-11-02T02:00:00+0100","alternativeTransport":{"location":[{"station":{"uicCode":"8400313","stationCode":"HM","name":"Helmond","coordinate":{"lat":51.4755554199219,"lng":5.66194438934326},"countryCode":"NL"},"description":"vanaf de achterzijde van het station"},{"station":{"uicCode":"8400339","stationCode":"HRT","name":"Horst-Sevenum","coordinate":{"lat":51.4263877868652,"lng":6.04222202301025},"countryCode":"NL"},"description":"vanaf de achterzijde van het station"},{"station":{"uicCode":"8400117","stationCode":"BR","name":"Blerick","coordinate":{"lat":51.372501373291,"lng":6.15500020980835},"countryCode":"NL"},"description":"vanaf de bushalte, centrumzijde"},{"station":{"uicCode":"8400644","stationCode":"VL","name":"Venlo","coordinate":{"lat":51.3636093139648,"lng":6.17277765274048},"countryCode":"NL"},"description":"vanaf het busstation"}],"label":"Er rijden snelbussen tussen Helmond, Horst-Sevenum, Blerick en Venlo.","shortLabel":"Er rijden snelbussen Helmond - Horst-Sevenum - Blerick - Venlo"}},{"start":"2022-10-23T04:00:00+0200","end":"2022-11-02T02:00:00+0100","alternativeTransport":{"location":[{"station":{"uicCode":"8400172","stationCode":"DN","name":"Deurne","coordinate":{"lat":51.4558334350586,"lng":5.78888893127441},"countryCode":"NL"},"description":"vanaf de achterzijde van het station"},{"station":{"uicCode":"8400339","stationCode":"HRT","name":"Horst-Sevenum","coordinate":{"lat":51.4263877868652,"lng":6.04222202301025},"countryCode":"NL"},"description":"vanaf de achterzijde van het station"}],"label":"We zetten taxi's in tussen Deurne en Horst-Sevenum.","shortLabel":"We zetten taxi's in Deurne - Horst-Sevenum"}},{"start":"2022-10-23T04:00:00+0200","end":"2022-11-02T02:00:00+0100","alternativeTransport":{"location":[{"station":{"uicCode":"8400242","stationCode":"HMBV","name":"Helmond Brandevoort","coordinate":{"lat":51.4622230529785,"lng":5.60722208023071},"countryCode":"NL"},"description":"vanaf de achterzijde van het station"},{"station":{"uicCode":"8400300","stationCode":"HMH","name":"Helmond 't Hout","coordinate":{"lat":51.46794,"lng":5.63085},"countryCode":"NL"},"description":"vanaf de zijde Meester Stikkerplein"},{"station":{"uicCode":"8400313","stationCode":"HM","name":"Helmond","coordinate":{"lat":51.4755554199219,"lng":5.66194438934326},"countryCode":"NL"},"description":"vanaf de achterzijde van het station"},{"station":{"uicCode":"8400299","stationCode":"HMBH","name":"Helmond Brouwhuis","coordinate":{"lat":51.47068,"lng":5.70177},"countryCode":"NL"},"description":"vanaf de voorzijde van het station"}],"label":"We zetten taxi's in tussen Helmond Brandevoort, Helmond 't Hout, Helmond en Helmond Brouwhuis.","shortLabel":"We zetten taxi's in Brandevoort - 't Hout - Helmond - Brouwhuis"}}]},{"id":"7002935","type":"MAINTENANCE","registrationTime":"2022-10-21T10:01:25+0200","releaseTime":"2022-10-21T10:01:25+0200","local":false,"title":"Leeuwarden - Harlingen Haven","titleSections":[[{"type":"STATION","value":"Leeuwarden"},{"type":"ICON","value":"MAINTENANCE"},{"type":"STATION","value":"Harlingen Haven"}]],"isActive":false,"start":"2022-10-23T08:00:00+0200","end":"2022-10-23T21:00:00+0200","period":"Zondag 23-10-2022 08:00 uur t/m zondag 23-10-2022 21:00 uur.","impact":{"value":3},"summaryAdditionalTravelTime":{"label":"De extra reistijd kan oplopen tot 30 minuten.","shortLabel":"Extra reistijd tot 30 min.","maximumDurationInMinutes":30},"publicationSections":[{"section":{"stations":[{"uicCode":"8400387","stationCode":"LW","name":"Leeuwarden","coordinate":{"lat":53.1958351135254,"lng":5.79222202301025},"countryCode":"NL"},{"uicCode":"8400168","stationCode":"DEI","name":"Deinum","coordinate":{"lat":53.1888115,"lng":5.7281572},"countryCode":"NL"},{"uicCode":"8400192","stationCode":"DRP","name":"Dronryp","coordinate":{"lat":53.1778086,"lng":5.6347411},"countryCode":"NL"},{"uicCode":"8400232","stationCode":"FN","name":"Franeker","coordinate":{"lat":53.1824488,"lng":5.5483094},"countryCode":"NL"},{"uicCode":"8400296","stationCode":"HLG","name":"Harlingen","coordinate":{"lat":53.1704205,"lng":5.4251932},"countryCode":"NL"},{"uicCode":"8400298","stationCode":"HLGH","name":"Harlingen Haven","coordinate":{"lat":53.174917,"lng":5.4112885},"countryCode":"NL"}],"direction":"BOTH"},"consequence":{"section":{"stations":[{"uicCode":"8400387","stationCode":"LW","name":"Leeuwarden","coordinate":{"lat":53.1958351135254,"lng":5.79222202301025},"countryCode":"NL"},{"uicCode":"8400168","stationCode":"DEI","name":"Deinum","coordinate":{"lat":53.1888115,"lng":5.7281572},"countryCode":"NL"},{"uicCode":"8400192","stationCode":"DRP","name":"Dronryp","coordinate":{"lat":53.1778086,"lng":5.6347411},"countryCode":"NL"},{"uicCode":"8400232","stationCode":"FN","name":"Franeker","coordinate":{"lat":53.1824488,"lng":5.5483094},"countryCode":"NL"},{"uicCode":"8400296","stationCode":"HLG","name":"Harlingen","coordinate":{"lat":53.1704205,"lng":5.4251932},"countryCode":"NL"},{"uicCode":"8400298","stationCode":"HLGH","name":"Harlingen Haven","coordinate":{"lat":53.174917,"lng":5.4112885},"countryCode":"NL"}],"direction":"ONE_WAY"},"description":"dienstregeling aangepast","level":"LESS_TRAINS"},"sectionType":"NL"}],"timespans":[{"start":"2022-10-23T08:00:00+0200","end":"2022-10-23T21:00:00+0200","period":"Zondag 23-10-2022 08:00 uur t/m zondag 23-10-2022 21:00 uur.","situation":{"label":"Door werkzaamheden: tussen Leeuwarden en Harlingen Haven is de dienstregeling aangepast."},"cause":{"label":"Werkzaamheden"},"additionalTravelTime":{"label":"De extra reistijd kan oplopen tot 30 minuten.","shortLabel":"Extra reistijd tot 30 min.","maximumDurationInMinutes":30},"alternativeTransport":{"label":"Er rijden bussen.","shortLabel":"er rijden bussen"},"advices":[]}],"alternativeTransportTimespans":[{"start":"2022-10-23T08:00:00+0200","end":"2022-10-23T21:00:00+0200","alternativeTransport":{"location":[{"station":{"uicCode":"8400387","stationCode":"LW","name":"Leeuwarden","coordinate":{"lat":53.1958351135254,"lng":5.79222202301025},"countryCode":"NL"},"description":"vanaf het busstation"},{"station":{"uicCode":"8400296","stationCode":"HLG","name":"Harlingen","coordinate":{"lat":53.1704205,"lng":5.4251932},"countryCode":"NL"},"description":"vanaf de voorzijde van het station"},{"station":{"uicCode":"8400298","stationCode":"HLGH","name":"Harlingen Haven","coordinate":{"lat":53.174917,"lng":5.4112885},"countryCode":"NL"},"description":"vanaf de voorzijde van het station"}],"label":"Er rijden bussen tussen Leeuwarden, Harlingen en Harlingen Haven.","shortLabel":"Er rijden bussen Leeuwarden - Harlingen - Harlingen Haven"}}]},{"id":"7002850","type":"MAINTENANCE","registrationTime":"2022-10-20T15:34:14+0200","releaseTime":"2022-10-20T15:34:14+0200","local":false,"title":"Leiden - Den Haag; Leiden - Den Haag HS; Den Haag - Rotterdam","titleSections":[[{"type":"STATION","value":"Leiden C."},{"type":"ICON","value":"MAINTENANCE"},{"type":"STATION","value":"Den Haag C."}],[{"type":"STATION","value":"Leiden C."},{"type":"ICON","value":"MAINTENANCE"},{"type":"STATION","value":"Den Haag HS"}],[{"type":"STATION","value":"Den Haag C."},{"type":"ICON","value":"MAINTENANCE"},{"type":"STATION","value":"Den Haag HS"},{"type":"STATION","value":"Rotterdam C."}]],"isActive":false,"start":"2022-10-27T01:00:00+0200","end":"2022-10-31T03:00:00+0100","period":"Donderdag 27-10-2022 01:00 uur t/m maandag 31-10-2022 03:00 uur.","impact":{"value":5},"summaryAdditionalTravelTime":{"label":"De extra reistijd kan oplopen tot 45 minuten.","shortLabel":"Extra reistijd tot 45 min.","maximumDurationInMinutes":45},"publicationSections":[{"section":{"stations":[{"uicCode":"8400390","stationCode":"LEDN","name":"Leiden Centraal","coordinate":{"lat":52.1661109924316,"lng":4.48166656494141},"countryCode":"NL"},{"uicCode":"8400188","stationCode":"DVNK","name":"De Vink","coordinate":{"lat":52.1472206115723,"lng":4.4563889503479},"countryCode":"NL"},{"uicCode":"8400659","stationCode":"VST","name":"Voorschoten","coordinate":{"lat":52.1252784729004,"lng":4.43249988555908},"countryCode":"NL"},{"uicCode":"8400278","stationCode":"GVM","name":"Den Haag Mariahoeve","coordinate":{"lat":52.0905570983887,"lng":4.36944437026978},"countryCode":"NL"},{"uicCode":"8400380","stationCode":"LAA","name":"Den Haag Laan v NOI","coordinate":{"lat":52.0786094665527,"lng":4.34277772903442},"countryCode":"NL"},{"uicCode":"8400282","stationCode":"GVC","name":"Den Haag Centraal","coordinate":{"lat":52.0802764892578,"lng":4.32499980926514},"countryCode":"NL"}],"direction":"BOTH"},"consequence":{"section":{"stations":[{"uicCode":"8400390","stationCode":"LEDN","name":"Leiden Centraal","coordinate":{"lat":52.1661109924316,"lng":4.48166656494141},"countryCode":"NL"},{"uicCode":"8400188","stationCode":"DVNK","name":"De Vink","coordinate":{"lat":52.1472206115723,"lng":4.4563889503479},"countryCode":"NL"},{"uicCode":"8400659","stationCode":"VST","name":"Voorschoten","coordinate":{"lat":52.1252784729004,"lng":4.43249988555908},"countryCode":"NL"},{"uicCode":"8400278","stationCode":"GVM","name":"Den Haag Mariahoeve","coordinate":{"lat":52.0905570983887,"lng":4.36944437026978},"countryCode":"NL"},{"uicCode":"8400380","stationCode":"LAA","name":"Den Haag Laan v NOI","coordinate":{"lat":52.0786094665527,"lng":4.34277772903442},"countryCode":"NL"},{"uicCode":"8400282","stationCode":"GVC","name":"Den Haag Centraal","coordinate":{"lat":52.0802764892578,"lng":4.32499980926514},"countryCode":"NL"}],"direction":"ONE_WAY"},"description":"rijden bussen","level":"NO_OR_MUCH_LESS_TRAINS"},"sectionType":"NL"},{"section":{"stations":[{"uicCode":"8400390","stationCode":"LEDN","name":"Leiden Centraal","coordinate":{"lat":52.1661109924316,"lng":4.48166656494141},"countryCode":"NL"},{"uicCode":"8400188","stationCode":"DVNK","name":"De Vink","coordinate":{"lat":52.1472206115723,"lng":4.4563889503479},"countryCode":"NL"},{"uicCode":"8400659","stationCode":"VST","name":"Voorschoten","coordinate":{"lat":52.1252784729004,"lng":4.43249988555908},"countryCode":"NL"},{"uicCode":"8400278","stationCode":"GVM","name":"Den Haag Mariahoeve","coordinate":{"lat":52.0905570983887,"lng":4.36944437026978},"countryCode":"NL"},{"uicCode":"8400380","stationCode":"LAA","name":"Den Haag Laan v NOI","coordinate":{"lat":52.0786094665527,"lng":4.34277772903442},"countryCode":"NL"},{"uicCode":"8400280","stationCode":"GV","name":"Den Haag HS","coordinate":{"lat":52.0697212219238,"lng":4.32250022888184},"countryCode":"NL"}],"direction":"BOTH"},"consequence":{"section":{"stations":[{"uicCode":"8400390","stationCode":"LEDN","name":"Leiden Centraal","coordinate":{"lat":52.1661109924316,"lng":4.48166656494141},"countryCode":"NL"},{"uicCode":"8400188","stationCode":"DVNK","name":"De Vink","coordinate":{"lat":52.1472206115723,"lng":4.4563889503479},"countryCode":"NL"},{"uicCode":"8400659","stationCode":"VST","name":"Voorschoten","coordinate":{"lat":52.1252784729004,"lng":4.43249988555908},"countryCode":"NL"},{"uicCode":"8400278","stationCode":"GVM","name":"Den Haag Mariahoeve","coordinate":{"lat":52.0905570983887,"lng":4.36944437026978},"countryCode":"NL"},{"uicCode":"8400380","stationCode":"LAA","name":"Den Haag Laan v NOI","coordinate":{"lat":52.0786094665527,"lng":4.34277772903442},"countryCode":"NL"},{"uicCode":"8400280","stationCode":"GV","name":"Den Haag HS","coordinate":{"lat":52.0697212219238,"lng":4.32250022888184},"countryCode":"NL"}],"direction":"ONE_WAY"},"description":"geen treinen","level":"NO_OR_MUCH_LESS_TRAINS"},"sectionType":"NL"},{"section":{"stations":[{"uicCode":"8400282","stationCode":"GVC","name":"Den Haag Centraal","coordinate":{"lat":52.0802764892578,"lng":4.32499980926514},"countryCode":"NL"},{"uicCode":"8400280","stationCode":"GV","name":"Den Haag HS","coordinate":{"lat":52.0697212219238,"lng":4.32250022888184},"countryCode":"NL"},{"uicCode":"8400279","stationCode":"GVMW","name":"Den Haag Moerwijk","coordinate":{"lat":52.0538902282715,"lng":4.3086109161377},"countryCode":"NL"},{"uicCode":"8400505","stationCode":"RSW","name":"Rijswijk","coordinate":{"lat":52.039722442627,"lng":4.31916666030884},"countryCode":"NL"},{"uicCode":"8400170","stationCode":"DT","name":"Delft","coordinate":{"lat":52.0066680908203,"lng":4.35638904571533},"countryCode":"NL"},{"uicCode":"8400166","stationCode":"DTCP","name":"Delft Campus","coordinate":{"lat":51.9908332824707,"lng":4.36472225189209},"countryCode":"NL"},{"uicCode":"8400553","stationCode":"SDM","name":"Schiedam Centrum","coordinate":{"lat":51.9212438128032,"lng":4.4089937210083},"countryCode":"NL"},{"uicCode":"8400530","stationCode":"RTD","name":"Rotterdam Centraal","coordinate":{"lat":51.9249992370605,"lng":4.46888875961304},"countryCode":"NL"}],"direction":"BOTH"},"consequence":{"section":{"stations":[{"uicCode":"8400282","stationCode":"GVC","name":"Den Haag Centraal","coordinate":{"lat":52.0802764892578,"lng":4.32499980926514},"countryCode":"NL"},{"uicCode":"8400280","stationCode":"GV","name":"Den Haag HS","coordinate":{"lat":52.0697212219238,"lng":4.32250022888184},"countryCode":"NL"}],"direction":"ONE_WAY"},"description":"rijden bussen","level":"NO_OR_MUCH_LESS_TRAINS"},"sectionType":"NL"}],"timespans":[{"start":"2022-10-27T01:00:00+0200","end":"2022-10-31T03:00:00+0100","period":"Donderdag 27-10-2022 01:00 uur t/m maandag 31-10-2022 03:00 uur.","situation":{"label":"Door werkzaamheden: tussen Leiden Centraal en Den Haag Centraal rijden er bussen en tussen Leiden Centraal en Den Haag HS rijden er geen treinen en tussen Den Haag Centraal en Den Haag HS rijden er bussen."},"cause":{"label":"Werkzaamheden"},"additionalTravelTime":{"label":"De extra reistijd kan oplopen tot 45 minuten.","shortLabel":"Extra reistijd tot 45 min.","maximumDurationInMinutes":45},"alternativeTransport":{"label":"Maak gebruik van het vervangende vervoer.","shortLabel":"gebruik het vervangende vervoer"},"advices":["Tussen Leiden C en Den Haag C kunt u ook reizen met omgeleide IC's via Woerden.","Tussen Leiden C. en Den Haag HS reist u via Den Haag C.","Tussen Leiden C. en Rotterdam C. reist u via Woerden","Tussen Leiden C. en Laan v NOI reist u via Den Haag C."]}],"alternativeTransportTimespans":[{"start":"2022-10-27T01:00:00+0200","end":"2022-10-31T03:00:00+0100","alternativeTransport":{"location":[{"station":{"uicCode":"8400282","stationCode":"GVC","name":"Den Haag Centraal","coordinate":{"lat":52.0802764892578,"lng":4.32499980926514},"countryCode":"NL"},"description":"vanaf het busplatform"},{"station":{"uicCode":"8400280","stationCode":"GV","name":"Den Haag HS","coordinate":{"lat":52.0697212219238,"lng":4.32250022888184},"countryCode":"NL"},"description":"vanaf de achterzijde van het station"}],"label":"Er rijden bussen tussen Den Haag Centraal en Den Haag HS.","shortLabel":"Er rijden bussen Den Haag C. - Den Haag HS"}},{"start":"2022-10-27T01:00:00+0200","end":"2022-10-31T03:00:00+0100","alternativeTransport":{"location":[{"station":{"uicCode":"8400390","stationCode":"LEDN","name":"Leiden Centraal","coordinate":{"lat":52.1661109924316,"lng":4.48166656494141},"countryCode":"NL"},"description":"vanaf het stadsbusstation"},{"station":{"uicCode":"8400188","stationCode":"DVNK","name":"De Vink","coordinate":{"lat":52.1472206115723,"lng":4.4563889503479},"countryCode":"NL"},"description":"vanaf het busstation"},{"station":{"uicCode":"8400659","stationCode":"VST","name":"Voorschoten","coordinate":{"lat":52.1252784729004,"lng":4.43249988555908},"countryCode":"NL"},"description":"vanaf de Wijngaardenlaan"},{"station":{"uicCode":"8400278","stationCode":"GVM","name":"Den Haag Mariahoeve","coordinate":{"lat":52.0905570983887,"lng":4.36944437026978},"countryCode":"NL"},"description":"vanaf de voorzijde van het station"},{"station":{"uicCode":"8400282","stationCode":"GVC","name":"Den Haag Centraal","coordinate":{"lat":52.0802764892578,"lng":4.32499980926514},"countryCode":"NL"},"description":"vanaf het busplatform"}],"label":"Er rijden bussen tussen Leiden Centraal, De Vink, Voorschoten, Den Haag Mariahoeve en Den Haag Centraal.","shortLabel":"Er rijden bussen Leiden C. - De Vink - Voorschoten - Mariahoeve - Den Haag C."}},{"start":"2022-10-27T01:00:00+0200","end":"2022-10-27T05:00:00+0200","alternativeTransport":{"location":[{"station":{"uicCode":"8400390","stationCode":"LEDN","name":"Leiden Centraal","coordinate":{"lat":52.1661109924316,"lng":4.48166656494141},"countryCode":"NL"},"description":"vanaf het stadsbusstation"},{"station":{"uicCode":"8400282","stationCode":"GVC","name":"Den Haag Centraal","coordinate":{"lat":52.0802764892578,"lng":4.32499980926514},"countryCode":"NL"},"description":"vanaf het busplatform"}],"label":"Er rijden snelbussen tussen Leiden Centraal en Den Haag Centraal.","shortLabel":"Er rijden snelbussen Leiden C. - Den Haag C."}},{"start":"2022-10-27T01:00:00+0200","end":"2022-10-27T05:00:00+0200","alternativeTransport":{"location":[{"station":{"uicCode":"8400282","stationCode":"GVC","name":"Den Haag Centraal","coordinate":{"lat":52.0802764892578,"lng":4.32499980926514},"countryCode":"NL"},"description":"vanaf het busplatform"},{"station":{"uicCode":"8400280","stationCode":"GV","name":"Den Haag HS","coordinate":{"lat":52.0697212219238,"lng":4.32250022888184},"countryCode":"NL"},"description":"vanaf de achterzijde van het station"},{"station":{"uicCode":"8400170","stationCode":"DT","name":"Delft","coordinate":{"lat":52.0066680908203,"lng":4.35638904571533},"countryCode":"NL"},"description":"vanaf het busplatform"},{"station":{"uicCode":"8400530","stationCode":"RTD","name":"Rotterdam Centraal","coordinate":{"lat":51.9249992370605,"lng":4.46888875961304},"countryCode":"NL"},"description":"vanaf de Conradstraat aan de centrumzijde"}],"label":"Er rijden snelbussen tussen Den Haag Centraal, Den Haag HS, Delft en Rotterdam Centraal.","shortLabel":"Er rijden snelbussen Den Haag C. - Den Haag HS - Delft - Rotterdam C."}},{"start":"2022-10-27T01:00:00+0200","end":"2022-10-31T03:00:00+0100","alternativeTransport":{"location":[],"label":"Maak gebruik van de Haagse tram lijn 3 of lijn 4 tussen Den Haag Laan v NOI en Den Haag Centraal.","shortLabel":"Gebruik de Haagse tram lijn 3/4 Laan v NOI - Den Haag C."}},{"start":"2022-10-28T01:25:00+0200","end":"2022-10-28T05:40:00+0200","alternativeTransport":{"location":[{"station":{"uicCode":"8400390","stationCode":"LEDN","name":"Leiden Centraal","coordinate":{"lat":52.1661109924316,"lng":4.48166656494141},"countryCode":"NL"},"description":"vanaf het stadsbusstation"},{"station":{"uicCode":"8400280","stationCode":"GV","name":"Den Haag HS","coordinate":{"lat":52.0697212219238,"lng":4.32250022888184},"countryCode":"NL"},"description":"vanaf de achterzijde van het station"}],"label":"Er rijden snelbussen tussen Leiden Centraal en Den Haag HS.","shortLabel":"Er rijden snelbussen Leiden C. - Den Haag HS"}},{"start":"2022-10-29T02:00:00+0200","end":"2022-10-29T05:40:00+0200","alternativeTransport":{"location":[{"station":{"uicCode":"8400390","stationCode":"LEDN","name":"Leiden Centraal","coordinate":{"lat":52.1661109924316,"lng":4.48166656494141},"countryCode":"NL"},"description":"vanaf het stadsbusstation"},{"station":{"uicCode":"8400280","stationCode":"GV","name":"Den Haag HS","coordinate":{"lat":52.0697212219238,"lng":4.32250022888184},"countryCode":"NL"},"description":"vanaf de achterzijde van het station"}],"label":"Er rijden snelbussen tussen Leiden Centraal en Den Haag HS.","shortLabel":"Er rijden snelbussen Leiden C. - Den Haag HS"}},{"start":"2022-10-30T01:00:00+0200","end":"2022-10-30T05:40:00+0100","alternativeTransport":{"location":[{"station":{"uicCode":"8400561","stationCode":"SHL","name":"Schiphol Airport","coordinate":{"lat":52.3094444274902,"lng":4.76194429397583},"countryCode":"NL"},"description":"van het busstation halte C15 en C17"},{"station":{"uicCode":"8400390","stationCode":"LEDN","name":"Leiden Centraal","coordinate":{"lat":52.1661109924316,"lng":4.48166656494141},"countryCode":"NL"},"description":"vanaf het stadsbusstation"},{"station":{"uicCode":"8400280","stationCode":"GV","name":"Den Haag HS","coordinate":{"lat":52.0697212219238,"lng":4.32250022888184},"countryCode":"NL"},"description":"vanaf de achterzijde van het station"}],"label":"Er rijden snelbussen tussen Schiphol Airport, Leiden Centraal en Den Haag HS.","shortLabel":"Er rijden snelbussen Schiphol Airport - Leiden C. - Den Haag HS"}},{"start":"2022-10-31T01:20:00+0100","end":"2022-10-31T02:40:00+0100","alternativeTransport":{"location":[{"station":{"uicCode":"8400390","stationCode":"LEDN","name":"Leiden Centraal","coordinate":{"lat":52.1661109924316,"lng":4.48166656494141},"countryCode":"NL"},"description":"vanaf het stadsbusstation"},{"station":{"uicCode":"8400280","stationCode":"GV","name":"Den Haag HS","coordinate":{"lat":52.0697212219238,"lng":4.32250022888184},"countryCode":"NL"},"description":"vanaf de achterzijde van het station"}],"label":"Er rijden snelbussen tussen Leiden Centraal en Den Haag HS.","shortLabel":"Er rijden snelbussen Leiden C. - Den Haag HS"}}]},{"id":"7002933","type":"MAINTENANCE","registrationTime":"2022-10-20T11:42:14+0200","releaseTime":"2022-10-20T11:42:14+0200","local":false,"title":"Dordrecht - Geldermalsen","titleSections":[[{"type":"STATION","value":"Dordrecht"},{"type":"ICON","value":"MAINTENANCE"},{"type":"STATION","value":"Geldermalsen"}]],"isActive":false,"start":"2022-11-12T00:30:00+0100","end":"2022-11-12T03:15:00+0100","period":"Zaterdag 12-11-2022 00:30 uur t/m zaterdag 12-11-2022 03:15 uur.","impact":{"value":3},"summaryAdditionalTravelTime":{"label":"De extra reistijd kan oplopen tot 30 minuten.","shortLabel":"Extra reistijd tot 30 min.","maximumDurationInMinutes":30},"publicationSections":[{"section":{"stations":[{"uicCode":"8400180","stationCode":"DDR","name":"Dordrecht","coordinate":{"lat":51.8072204589844,"lng":4.66833353042603},"countryCode":"NL"},{"uicCode":"8400186","stationCode":"DDRS","name":"Dordrecht Stadspolders","coordinate":{"lat":51.801944732666,"lng":4.71666669845581},"countryCode":"NL"},{"uicCode":"8400497","stationCode":"SDTB","name":"Sliedrecht Baanhoek","coordinate":{"lat":51.829722,"lng":4.743333},"countryCode":"NL"},{"uicCode":"8400565","stationCode":"SDT","name":"Sliedrecht","coordinate":{"lat":51.8297233581543,"lng":4.77833318710327},"countryCode":"NL"},{"uicCode":"8400438","stationCode":"HBZM","name":"Hardinxveld Blauwe Zoom","coordinate":{"lat":51.82944,"lng":4.81556},"countryCode":"NL"},{"uicCode":"8400295","stationCode":"GND","name":"Hardinxveld-Giessendam","coordinate":{"lat":51.8305549621582,"lng":4.83583354949951},"countryCode":"NL"},{"uicCode":"8400236","stationCode":"BHDV","name":"Boven-Hardinxveld","coordinate":{"lat":51.832222,"lng":4.878056},"countryCode":"NL"},{"uicCode":"8400256","stationCode":"GR","name":"Gorinchem","coordinate":{"lat":51.8338890075684,"lng":4.96833324432373},"countryCode":"NL"},{"uicCode":"8400068","stationCode":"AKL","name":"Arkel","coordinate":{"lat":51.8719444274902,"lng":4.99277782440186},"countryCode":"NL"},{"uicCode":"8400386","stationCode":"LDM","name":"Leerdam","coordinate":{"lat":51.8947219848633,"lng":5.09138870239258},"countryCode":"NL"},{"uicCode":"8400097","stationCode":"BSD","name":"Beesd","coordinate":{"lat":51.8994445800781,"lng":5.19444465637207},"countryCode":"NL"},{"uicCode":"8400244","stationCode":"GDM","name":"Geldermalsen","coordinate":{"lat":51.88301,"lng":5.27127},"countryCode":"NL"}],"direction":"BOTH"},"consequence":{"section":{"stations":[{"uicCode":"8400180","stationCode":"DDR","name":"Dordrecht","coordinate":{"lat":51.8072204589844,"lng":4.66833353042603},"countryCode":"NL"},{"uicCode":"8400186","stationCode":"DDRS","name":"Dordrecht Stadspolders","coordinate":{"lat":51.801944732666,"lng":4.71666669845581},"countryCode":"NL"},{"uicCode":"8400497","stationCode":"SDTB","name":"Sliedrecht Baanhoek","coordinate":{"lat":51.829722,"lng":4.743333},"countryCode":"NL"},{"uicCode":"8400565","stationCode":"SDT","name":"Sliedrecht","coordinate":{"lat":51.8297233581543,"lng":4.77833318710327},"countryCode":"NL"},{"uicCode":"8400438","stationCode":"HBZM","name":"Hardinxveld Blauwe Zoom","coordinate":{"lat":51.82944,"lng":4.81556},"countryCode":"NL"},{"uicCode":"8400295","stationCode":"GND","name":"Hardinxveld-Giessendam","coordinate":{"lat":51.8305549621582,"lng":4.83583354949951},"countryCode":"NL"},{"uicCode":"8400236","stationCode":"BHDV","name":"Boven-Hardinxveld","coordinate":{"lat":51.832222,"lng":4.878056},"countryCode":"NL"},{"uicCode":"8400256","stationCode":"GR","name":"Gorinchem","coordinate":{"lat":51.8338890075684,"lng":4.96833324432373},"countryCode":"NL"},{"uicCode":"8400068","stationCode":"AKL","name":"Arkel","coordinate":{"lat":51.8719444274902,"lng":4.99277782440186},"countryCode":"NL"},{"uicCode":"8400386","stationCode":"LDM","name":"Leerdam","coordinate":{"lat":51.8947219848633,"lng":5.09138870239258},"countryCode":"NL"},{"uicCode":"8400097","stationCode":"BSD","name":"Beesd","coordinate":{"lat":51.8994445800781,"lng":5.19444465637207},"countryCode":"NL"},{"uicCode":"8400244","stationCode":"GDM","name":"Geldermalsen","coordinate":{"lat":51.88301,"lng":5.27127},"countryCode":"NL"}],"direction":"ONE_WAY"},"description":"rijden bussen","level":"NO_OR_MUCH_LESS_TRAINS"},"sectionType":"NL"}],"timespans":[{"start":"2022-11-12T00:30:00+0100","end":"2022-11-12T03:15:00+0100","period":"Zaterdag 12-11-2022 00:30 uur t/m zaterdag 12-11-2022 03:15 uur.","situation":{"label":"Door werkzaamheden: tussen Dordrecht en Geldermalsen rijden er bussen."},"cause":{"label":"Werkzaamheden"},"additionalTravelTime":{"label":"De extra reistijd kan oplopen tot 30 minuten.","shortLabel":"Extra reistijd tot 30 min.","maximumDurationInMinutes":30},"alternativeTransport":{"label":"Er rijden bussen.","shortLabel":"er rijden bussen"},"advices":[]}],"alternativeTransportTimespans":[{"start":"2022-11-12T00:30:00+0100","end":"2022-11-12T03:15:00+0100","alternativeTransport":{"location":[{"station":{"uicCode":"8400180","stationCode":"DDR","name":"Dordrecht","coordinate":{"lat":51.8072204589844,"lng":4.66833353042603},"countryCode":"NL"},"description":"vanaf de achterzijde van het station"},{"station":{"uicCode":"8400186","stationCode":"DDRS","name":"Dordrecht Stadspolders","coordinate":{"lat":51.801944732666,"lng":4.71666669845581},"countryCode":"NL"},"description":"vanaf de voorzijde van het station"},{"station":{"uicCode":"8400497","stationCode":"SDTB","name":"Sliedrecht Baanhoek","coordinate":{"lat":51.829722,"lng":4.743333},"countryCode":"NL"},"description":"onder het spoorviaduct"},{"station":{"uicCode":"8400565","stationCode":"SDT","name":"Sliedrecht","coordinate":{"lat":51.8297233581543,"lng":4.77833318710327},"countryCode":"NL"},"description":"vanaf de voorzijde van het station"},{"station":{"uicCode":"8400438","stationCode":"HBZM","name":"Hardinxveld Blauwe Zoom","coordinate":{"lat":51.82944,"lng":4.81556},"countryCode":"NL"},"description":"vanaf de voorzijde van het station"},{"station":{"uicCode":"8400295","stationCode":"GND","name":"Hardinxveld-Giessendam","coordinate":{"lat":51.8305549621582,"lng":4.83583354949951},"countryCode":"NL"},"description":"vanaf de voorzijde van het station"},{"station":{"uicCode":"8400236","stationCode":"BHDV","name":"Boven-Hardinxveld","coordinate":{"lat":51.832222,"lng":4.878056},"countryCode":"NL"},"description":"vanaf de bushalte"}],"label":"Er rijden bussen van Dordrecht, Dordrecht Stadspolders, Sliedrecht Baanhoek, Sliedrecht, Hardinxveld Blauwe Zoom, Hardinxveld-Giessendam, Boven-Hardinxveld naar Gorinchem.","shortLabel":"Er rijden bussen Dordrecht -> Stadspolders -> Baanhoek -> Sliedrecht -> Blauwe Zoom -> Hardinxveld-G. -> Boven-Hardinxv. -> Gorinchem"}},{"start":"2022-11-12T00:30:00+0100","end":"2022-11-12T03:15:00+0100","alternativeTransport":{"location":[{"station":{"uicCode":"8400244","stationCode":"GDM","name":"Geldermalsen","coordinate":{"lat":51.88301,"lng":5.27127},"countryCode":"NL"},"description":"vanaf de bushalte"},{"station":{"uicCode":"8400097","stationCode":"BSD","name":"Beesd","coordinate":{"lat":51.8994445800781,"lng":5.19444465637207},"countryCode":"NL"},"description":"vanaf de Parkweg bij het tankstation"},{"station":{"uicCode":"8400386","stationCode":"LDM","name":"Leerdam","coordinate":{"lat":51.8947219848633,"lng":5.09138870239258},"countryCode":"NL"},"description":"vanaf de bushalte"},{"station":{"uicCode":"8400068","stationCode":"AKL","name":"Arkel","coordinate":{"lat":51.8719444274902,"lng":4.99277782440186},"countryCode":"NL"},"description":"vanaf de bushalte"},{"station":{"uicCode":"8400256","stationCode":"GR","name":"Gorinchem","coordinate":{"lat":51.8338890075684,"lng":4.96833324432373},"countryCode":"NL"},"description":"vanaf de voorzijde van het station"},{"station":{"uicCode":"8400236","stationCode":"BHDV","name":"Boven-Hardinxveld","coordinate":{"lat":51.832222,"lng":4.878056},"countryCode":"NL"},"description":"vanaf de bushalte"},{"station":{"uicCode":"8400295","stationCode":"GND","name":"Hardinxveld-Giessendam","coordinate":{"lat":51.8305549621582,"lng":4.83583354949951},"countryCode":"NL"},"description":"vanaf de voorzijde van het station"},{"station":{"uicCode":"8400438","stationCode":"HBZM","name":"Hardinxveld Blauwe Zoom","coordinate":{"lat":51.82944,"lng":4.81556},"countryCode":"NL"},"description":"vanaf de voorzijde van het station"},{"station":{"uicCode":"8400565","stationCode":"SDT","name":"Sliedrecht","coordinate":{"lat":51.8297233581543,"lng":4.77833318710327},"countryCode":"NL"},"description":"vanaf de voorzijde van het station"},{"station":{"uicCode":"8400497","stationCode":"SDTB","name":"Sliedrecht Baanhoek","coordinate":{"lat":51.829722,"lng":4.743333},"countryCode":"NL"},"description":"onder het spoorviaduct"},{"station":{"uicCode":"8400186","stationCode":"DDRS","name":"Dordrecht Stadspolders","coordinate":{"lat":51.801944732666,"lng":4.71666669845581},"countryCode":"NL"},"description":"vanaf de voorzijde van het station"}],"label":"Er rijden bussen van Geldermalsen, Beesd, Leerdam, Arkel, Gorinchem, Boven-Hardinxveld, Hardinxveld-Giessendam, Hardinxveld Blauwe Zoom, Sliedrecht, Sliedrecht Baanhoek, Dordrecht Stadspolders naar Dordrecht.","shortLabel":"Er rijden bussen Geldermalsen -> Beesd -> Leerdam -> Arkel -> Gorinchem -> Boven-Hardinxv. -> Hardinxveld-G. -> Blauwe Zoom -> Sliedrecht -> Baanhoek -> Stadspolders -> Dordrecht"}}]},{"id":"7002934","type":"MAINTENANCE","registrationTime":"2022-10-20T11:53:02+0200","releaseTime":"2022-10-20T11:53:02+0200","local":false,"title":"Utrecht - Almere","titleSections":[[{"type":"STATION","value":"Utrecht C."},{"type":"STATION","value":"Naarden-Bussum"},{"type":"ICON","value":"MAINTENANCE"},{"type":"STATION","value":"Poort"},{"type":"STATION","value":"Almere C."}]],"isActive":false,"start":"2022-11-13T04:00:00+0100","end":"2022-11-14T02:00:00+0100","period":"Zondag 13-11-2022 04:00 uur t/m maandag 14-11-2022 02:00 uur.","impact":{"value":2},"summaryAdditionalTravelTime":{"label":"U heeft geen langere reistijd.","shortLabel":"Geen extra reistijd"},"publicationSections":[{"section":{"stations":[{"uicCode":"8400621","stationCode":"UT","name":"Utrecht Centraal","coordinate":{"lat":52.0888900756836,"lng":5.11027765274048},"countryCode":"NL"},{"uicCode":"8400620","stationCode":"UTO","name":"Utrecht Overvecht","coordinate":{"lat":52.1100006103516,"lng":5.12472200393677},"countryCode":"NL"},{"uicCode":"8400327","stationCode":"HOR","name":"Hollandsche Rading","coordinate":{"lat":52.1777763366699,"lng":5.17916679382324},"countryCode":"NL"},{"uicCode":"8400570","stationCode":"HVSP","name":"Hilversum Sportpark","coordinate":{"lat":52.2161102294922,"lng":5.18722200393677},"countryCode":"NL"},{"uicCode":"8400322","stationCode":"HVS","name":"Hilversum","coordinate":{"lat":52.2258338928223,"lng":5.18194437026978},"countryCode":"NL"},{"uicCode":"8400324","stationCode":"HVSM","name":"Hilversum Media Park","coordinate":{"lat":52.2380561828613,"lng":5.17388868331909},"countryCode":"NL"},{"uicCode":"8400145","stationCode":"BSMZ","name":"Bussum Zuid","coordinate":{"lat":52.2658348083496,"lng":5.16305541992188},"countryCode":"NL"},{"uicCode":"8400452","stationCode":"NDB","name":"Naarden-Bussum","coordinate":{"lat":52.2802772521973,"lng":5.15694427490234},"countryCode":"NL"},{"uicCode":"8400450","stationCode":"AMPO","name":"Almere Poort","coordinate":{"lat":52.342778,"lng":5.151944},"countryCode":"NL"},{"uicCode":"8400082","stationCode":"ALMM","name":"Almere Muziekwijk","coordinate":{"lat":52.3675003051758,"lng":5.19027757644653},"countryCode":"NL"},{"uicCode":"8400080","stationCode":"ALM","name":"Almere Centrum","coordinate":{"lat":52.37503,"lng":5.21764},"countryCode":"NL"}],"direction":"BOTH"},"consequence":{"section":{"stations":[{"uicCode":"8400452","stationCode":"NDB","name":"Naarden-Bussum","coordinate":{"lat":52.2802772521973,"lng":5.15694427490234},"countryCode":"NL"},{"uicCode":"8400450","stationCode":"AMPO","name":"Almere Poort","coordinate":{"lat":52.342778,"lng":5.151944},"countryCode":"NL"}],"direction":"ONE_WAY"},"description":"dienstregeling aangepast","level":"LESS_TRAINS"},"sectionType":"NL"}],"timespans":[{"start":"2022-11-13T04:00:00+0100","end":"2022-11-14T02:00:00+0100","period":"Zondag 13-11-2022 04:00 uur t/m maandag 14-11-2022 02:00 uur.","situation":{"label":"Door werkzaamheden: tussen Naarden-Bussum en Almere Poort is de dienstregeling aangepast."},"cause":{"label":"Werkzaamheden"},"additionalTravelTime":{"label":"U heeft geen langere reistijd.","shortLabel":"Geen extra reistijd"},"advices":["Tussen Naarden-Bussum en Almere C. reist u via Weesp"]}],"alternativeTransportTimespans":[]},{"id":"7002932","type":"MAINTENANCE","registrationTime":"2022-10-20T12:40:11+0200","releaseTime":"2022-10-20T12:40:11+0200","local":false,"title":"Schiphol Airport","titleSections":[[{"type":"STATION","value":"Schiphol Airport"}]],"isActive":false,"start":"2022-11-13T04:01:00+0100","end":"2022-11-26T08:01:00+0100","period":"Zondag 13-11-2022 04:01 uur t/m zaterdag 26-11-2022 08:01 uur.","impact":{"value":5},"summaryAdditionalTravelTime":{"label":"De extra reistijd kan oplopen tot 45 minuten.","shortLabel":"Extra reistijd tot 45 min.","maximumDurationInMinutes":45},"publicationSections":[{"section":{"stations":[{"uicCode":"8400058","stationCode":"ASD","name":"Amsterdam Centraal","coordinate":{"lat":52.3788871765137,"lng":4.90027761459351},"countryCode":"NL"},{"uicCode":"8400059","stationCode":"ASS","name":"Amsterdam Sloterdijk","coordinate":{"lat":52.3888893127441,"lng":4.83777761459351},"countryCode":"NL"},{"uicCode":"8400079","stationCode":"ASDL","name":"Amsterdam Lelylaan","coordinate":{"lat":52.3577766418457,"lng":4.83388900756836},"countryCode":"NL"},{"uicCode":"8400561","stationCode":"SHL","name":"Schiphol Airport","coordinate":{"lat":52.3094444274902,"lng":4.76194429397583},"countryCode":"NL"},{"uicCode":"8400332","stationCode":"HFD","name":"Hoofddorp","coordinate":{"lat":52.2933349609375,"lng":4.70055532455444},"countryCode":"NL"},{"uicCode":"8400460","stationCode":"NVP","name":"Nieuw Vennep","coordinate":{"lat":52.2588882446289,"lng":4.64555549621582},"countryCode":"NL"},{"uicCode":"8400603","stationCode":"SSH","name":"Sassenheim","coordinate":{"lat":52.215278,"lng":4.517222},"countryCode":"NL"},{"uicCode":"8400390","stationCode":"LEDN","name":"Leiden Centraal","coordinate":{"lat":52.1661109924316,"lng":4.48166656494141},"countryCode":"NL"}],"direction":"BOTH"},"consequence":{"section":{"stations":[{"uicCode":"8400561","stationCode":"SHL","name":"Schiphol Airport","coordinate":{"lat":52.3094444274902,"lng":4.76194429397583},"countryCode":"NL"}],"direction":"ONE_WAY"},"description":"dienstregeling aangepast","level":"LESS_TRAINS"},"sectionType":"NL"},{"section":{"stations":[{"uicCode":"8400061","stationCode":"ASDZ","name":"Amsterdam Zuid","coordinate":{"lat":52.338889,"lng":4.872356},"countryCode":"NL"},{"uicCode":"8400561","stationCode":"SHL","name":"Schiphol Airport","coordinate":{"lat":52.3094444274902,"lng":4.76194429397583},"countryCode":"NL"},{"uicCode":"8400332","stationCode":"HFD","name":"Hoofddorp","coordinate":{"lat":52.2933349609375,"lng":4.70055532455444},"countryCode":"NL"},{"uicCode":"8400460","stationCode":"NVP","name":"Nieuw Vennep","coordinate":{"lat":52.2588882446289,"lng":4.64555549621582},"countryCode":"NL"},{"uicCode":"8400603","stationCode":"SSH","name":"Sassenheim","coordinate":{"lat":52.215278,"lng":4.517222},"countryCode":"NL"},{"uicCode":"8400390","stationCode":"LEDN","name":"Leiden Centraal","coordinate":{"lat":52.1661109924316,"lng":4.48166656494141},"countryCode":"NL"}],"direction":"BOTH"},"consequence":{"section":{"stations":[{"uicCode":"8400561","stationCode":"SHL","name":"Schiphol Airport","coordinate":{"lat":52.3094444274902,"lng":4.76194429397583},"countryCode":"NL"}],"direction":"ONE_WAY"},"description":"dienstregeling aangepast","level":"LESS_TRAINS"},"sectionType":"NL"}],"timespans":[{"start":"2022-11-13T04:01:00+0100","end":"2022-11-26T08:01:00+0100","period":"Zondag 13-11-2022 04:01 uur t/m zaterdag 26-11-2022 08:01 uur.","situation":{"label":"Door werkzaamheden: van, via en naar Schiphol Airport is de dienstregeling aangepast."},"cause":{"label":"Werkzaamheden"},"additionalTravelTime":{"label":"De extra reistijd kan oplopen tot 45 minuten.","shortLabel":"Extra reistijd tot 45 min.","maximumDurationInMinutes":45},"advices":["In metro 50, 51 en 52 is uw NS-vervoerbewijs geldig. Ook werkzaamheden van/naar Amsterdam Zuid.","Tussen Almere C. en Amsterdam Zuid/Schiphol Airport reist u via Amsterdam C.","Tussen Amsterdam Zuid en Utrecht C./Amersfoort C. reist u via RAI","Tussen Schiphol Airport en Utrecht C./Amersfoort C. reist u via Amsterdam C.","Tussen Amsterdam Zuid en Schiphol Airport reist u via Amsterdam C."]}],"alternativeTransportTimespans":[]},{"id":"7002936","type":"MAINTENANCE","registrationTime":"2022-10-21T10:07:51+0200","releaseTime":"2022-10-21T10:07:51+0200","local":false,"title":"Groningen - Delfzijl; Groningen - Eemshaven","titleSections":[[{"type":"STATION","value":"Groningen"},{"type":"ICON","value":"MAINTENANCE"},{"type":"STATION","value":"Delfzijl"}],[{"type":"STATION","value":"Groningen"},{"type":"ICON","value":"MAINTENANCE"},{"type":"STATION","value":"Roodeschool"},{"type":"STATION","value":"Eemshaven"}]],"isActive":false,"start":"2022-11-15T05:00:00+0100","end":"2022-11-15T06:30:00+0100","period":"Dinsdag 15-11-2022 05:00 uur t/m dinsdag 15-11-2022 06:30 uur.","impact":{"value":2},"summaryAdditionalTravelTime":{"label":"U heeft geen langere reistijd.","shortLabel":"Geen extra reistijd"},"publicationSections":[{"section":{"stations":[{"uicCode":"8400263","stationCode":"GN","name":"Groningen","coordinate":{"lat":53.2105560302734,"lng":6.56472206115723},"countryCode":"NL"},{"uicCode":"8400264","stationCode":"GNN","name":"Groningen Noord","coordinate":{"lat":53.2301469,"lng":6.5563172},"countryCode":"NL"},{"uicCode":"8400547","stationCode":"SWD","name":"Sauwerd","coordinate":{"lat":53.29113,"lng":6.5404},"countryCode":"NL"},{"uicCode":"8400094","stationCode":"BDM","name":"Bedum","coordinate":{"lat":53.3068857,"lng":6.593054},"countryCode":"NL"},{"uicCode":"8400576","stationCode":"STM","name":"Stedum","coordinate":{"lat":53.3262092,"lng":6.6875551},"countryCode":"NL"},{"uicCode":"8400403","stationCode":"LP","name":"Loppersum","coordinate":{"lat":53.3347145,"lng":6.7472625},"countryCode":"NL"},{"uicCode":"8400067","stationCode":"APG","name":"Appingedam","coordinate":{"lat":53.3258135,"lng":6.8619577},"countryCode":"NL"},{"uicCode":"8400175","stationCode":"DZW","name":"Delfzijl West","coordinate":{"lat":53.3320834,"lng":6.9069092},"countryCode":"NL"},{"uicCode":"8400171","stationCode":"DZ","name":"Delfzijl","coordinate":{"lat":53.3336625,"lng":6.9240797},"countryCode":"NL"}],"direction":"ONE_WAY"},"consequence":{"section":{"stations":[{"uicCode":"8400263","stationCode":"GN","name":"Groningen","coordinate":{"lat":53.2105560302734,"lng":6.56472206115723},"countryCode":"NL"},{"uicCode":"8400264","stationCode":"GNN","name":"Groningen Noord","coordinate":{"lat":53.2301469,"lng":6.5563172},"countryCode":"NL"},{"uicCode":"8400547","stationCode":"SWD","name":"Sauwerd","coordinate":{"lat":53.29113,"lng":6.5404},"countryCode":"NL"},{"uicCode":"8400094","stationCode":"BDM","name":"Bedum","coordinate":{"lat":53.3068857,"lng":6.593054},"countryCode":"NL"},{"uicCode":"8400576","stationCode":"STM","name":"Stedum","coordinate":{"lat":53.3262092,"lng":6.6875551},"countryCode":"NL"},{"uicCode":"8400403","stationCode":"LP","name":"Loppersum","coordinate":{"lat":53.3347145,"lng":6.7472625},"countryCode":"NL"},{"uicCode":"8400067","stationCode":"APG","name":"Appingedam","coordinate":{"lat":53.3258135,"lng":6.8619577},"countryCode":"NL"},{"uicCode":"8400175","stationCode":"DZW","name":"Delfzijl West","coordinate":{"lat":53.3320834,"lng":6.9069092},"countryCode":"NL"},{"uicCode":"8400171","stationCode":"DZ","name":"Delfzijl","coordinate":{"lat":53.3336625,"lng":6.9240797},"countryCode":"NL"}],"direction":"ONE_WAY"},"description":"dienstregeling aangepast","level":"LESS_TRAINS"},"sectionType":"NL"},{"section":{"stations":[{"uicCode":"8400263","stationCode":"GN","name":"Groningen","coordinate":{"lat":53.2105560302734,"lng":6.56472206115723},"countryCode":"NL"},{"uicCode":"8400264","stationCode":"GNN","name":"Groningen Noord","coordinate":{"lat":53.2301469,"lng":6.5563172},"countryCode":"NL"},{"uicCode":"8400547","stationCode":"SWD","name":"Sauwerd","coordinate":{"lat":53.29113,"lng":6.5404},"countryCode":"NL"},{"uicCode":"8400697","stationCode":"WSM","name":"Winsum","coordinate":{"lat":53.3300994,"lng":6.5202905},"countryCode":"NL"},{"uicCode":"8400089","stationCode":"BF","name":"Baflo","coordinate":{"lat":53.3608969,"lng":6.5185581},"countryCode":"NL"},{"uicCode":"8400679","stationCode":"WFM","name":"Warffum","coordinate":{"lat":53.3908431,"lng":6.5671364},"countryCode":"NL"},{"uicCode":"8400619","stationCode":"UST","name":"Usquert","coordinate":{"lat":53.4014742,"lng":6.6093776},"countryCode":"NL"},{"uicCode":"8400617","stationCode":"UHZ","name":"Uithuizen","coordinate":{"lat":53.4099568,"lng":6.6748869},"countryCode":"NL"},{"uicCode":"8400618","stationCode":"UHM","name":"Uithuizermeeden","coordinate":{"lat":53.4145845,"lng":6.7202975},"countryCode":"NL"},{"uicCode":"8400525","stationCode":"RD","name":"Roodeschool","coordinate":{"lat":53.421262,"lng":6.7587},"countryCode":"NL"},{"uicCode":"8400202","stationCode":"EEM","name":"Eemshaven","coordinate":{"lat":53.458419,"lng":6.832},"countryCode":"NL"}],"direction":"ONE_WAY"},"consequence":{"section":{"stations":[{"uicCode":"8400263","stationCode":"GN","name":"Groningen","coordinate":{"lat":53.2105560302734,"lng":6.56472206115723},"countryCode":"NL"},{"uicCode":"8400264","stationCode":"GNN","name":"Groningen Noord","coordinate":{"lat":53.2301469,"lng":6.5563172},"countryCode":"NL"},{"uicCode":"8400547","stationCode":"SWD","name":"Sauwerd","coordinate":{"lat":53.29113,"lng":6.5404},"countryCode":"NL"},{"uicCode":"8400697","stationCode":"WSM","name":"Winsum","coordinate":{"lat":53.3300994,"lng":6.5202905},"countryCode":"NL"},{"uicCode":"8400089","stationCode":"BF","name":"Baflo","coordinate":{"lat":53.3608969,"lng":6.5185581},"countryCode":"NL"},{"uicCode":"8400679","stationCode":"WFM","name":"Warffum","coordinate":{"lat":53.3908431,"lng":6.5671364},"countryCode":"NL"},{"uicCode":"8400619","stationCode":"UST","name":"Usquert","coordinate":{"lat":53.4014742,"lng":6.6093776},"countryCode":"NL"},{"uicCode":"8400617","stationCode":"UHZ","name":"Uithuizen","coordinate":{"lat":53.4099568,"lng":6.6748869},"countryCode":"NL"},{"uicCode":"8400618","stationCode":"UHM","name":"Uithuizermeeden","coordinate":{"lat":53.4145845,"lng":6.7202975},"countryCode":"NL"},{"uicCode":"8400525","stationCode":"RD","name":"Roodeschool","coordinate":{"lat":53.421262,"lng":6.7587},"countryCode":"NL"}],"direction":"ONE_WAY"},"description":"dienstregeling aangepast","level":"LESS_TRAINS"},"sectionType":"NL"}],"timespans":[{"start":"2022-11-15T05:00:00+0100","end":"2022-11-15T06:30:00+0100","period":"Dinsdag 15-11-2022 05:00 uur t/m dinsdag 15-11-2022 06:30 uur.","situation":{"label":"Door werkzaamheden: van Groningen naar Delfzijl is de dienstregeling aangepast en van Groningen naar Roodeschool is de dienstregeling aangepast."},"cause":{"label":"Werkzaamheden"},"additionalTravelTime":{"label":"U heeft geen langere reistijd.","shortLabel":"Geen extra reistijd"},"advices":[]}],"alternativeTransportTimespans":[]},{"id":"7002930","type":"MAINTENANCE","registrationTime":"2022-10-20T10:08:33+0200","releaseTime":"2022-10-20T10:08:33+0200","local":false,"title":"Sittard - Maastricht; Roermond - Maastricht - Maastricht Randwyck","titleSections":[[{"type":"STATION","value":"Sittard"},{"type":"ICON","value":"MAINTENANCE"},{"type":"STATION","value":"Maastricht"}],[{"type":"STATION","value":"Roermond"},{"type":"STATION","value":"Sittard"},{"type":"ICON","value":"MAINTENANCE"},{"type":"STATION","value":"Maastricht"},{"type":"STATION","value":"Randwyck"}]],"isActive":false,"start":"2022-11-19T04:00:00+0100","end":"2022-11-21T02:00:00+0100","period":"Zaterdag 19-11-2022 04:00 uur t/m maandag 21-11-2022 02:00 uur.","impact":{"value":4},"summaryAdditionalTravelTime":{"label":"De extra reistijd kan oplopen tot 30 minuten.","shortLabel":"Extra reistijd tot 30 min.","maximumDurationInMinutes":30},"publicationSections":[{"section":{"stations":[{"uicCode":"8400564","stationCode":"STD","name":"Sittard","coordinate":{"lat":51.0016670227051,"lng":5.85861110687256},"countryCode":"NL"},{"uicCode":"8400248","stationCode":"LUT","name":"Geleen-Lutterade","coordinate":{"lat":50.9755554199219,"lng":5.82472229003906},"countryCode":"NL"},{"uicCode":"8400096","stationCode":"BK","name":"Beek-Elsloo","coordinate":{"lat":50.9474983215332,"lng":5.78666687011719},"countryCode":"NL"},{"uicCode":"8400140","stationCode":"BDE","name":"Bunde","coordinate":{"lat":50.8969459533691,"lng":5.73666667938232},"countryCode":"NL"},{"uicCode":"8400424","stationCode":"MT","name":"Maastricht","coordinate":{"lat":50.8502769470215,"lng":5.70555543899536},"countryCode":"NL"}],"direction":"BOTH"},"consequence":{"section":{"stations":[{"uicCode":"8400564","stationCode":"STD","name":"Sittard","coordinate":{"lat":51.0016670227051,"lng":5.85861110687256},"countryCode":"NL"},{"uicCode":"8400248","stationCode":"LUT","name":"Geleen-Lutterade","coordinate":{"lat":50.9755554199219,"lng":5.82472229003906},"countryCode":"NL"},{"uicCode":"8400096","stationCode":"BK","name":"Beek-Elsloo","coordinate":{"lat":50.9474983215332,"lng":5.78666687011719},"countryCode":"NL"},{"uicCode":"8400140","stationCode":"BDE","name":"Bunde","coordinate":{"lat":50.8969459533691,"lng":5.73666667938232},"countryCode":"NL"},{"uicCode":"8400424","stationCode":"MT","name":"Maastricht","coordinate":{"lat":50.8502769470215,"lng":5.70555543899536},"countryCode":"NL"}],"direction":"ONE_WAY"},"description":"rijden bussen","level":"NO_OR_MUCH_LESS_TRAINS"},"sectionType":"NL"},{"section":{"stations":[{"uicCode":"8400523","stationCode":"RM","name":"Roermond","coordinate":{"lat":51.1930541992188,"lng":5.9941668510437},"countryCode":"NL"},{"uicCode":"8400195","stationCode":"EC","name":"Echt","coordinate":{"lat":51.1005554199219,"lng":5.87888908386231},"countryCode":"NL"},{"uicCode":"8400582","stationCode":"SRN","name":"Susteren","coordinate":{"lat":51.0613899230957,"lng":5.86305570602417},"countryCode":"NL"},{"uicCode":"8400564","stationCode":"STD","name":"Sittard","coordinate":{"lat":51.0016670227051,"lng":5.85861110687256},"countryCode":"NL"},{"uicCode":"8400248","stationCode":"LUT","name":"Geleen-Lutterade","coordinate":{"lat":50.9755554199219,"lng":5.82472229003906},"countryCode":"NL"},{"uicCode":"8400096","stationCode":"BK","name":"Beek-Elsloo","coordinate":{"lat":50.9474983215332,"lng":5.78666687011719},"countryCode":"NL"},{"uicCode":"8400140","stationCode":"BDE","name":"Bunde","coordinate":{"lat":50.8969459533691,"lng":5.73666667938232},"countryCode":"NL"},{"uicCode":"8400424","stationCode":"MT","name":"Maastricht","coordinate":{"lat":50.8502769470215,"lng":5.70555543899536},"countryCode":"NL"},{"uicCode":"8400426","stationCode":"MTR","name":"Maastricht Randwyck","coordinate":{"lat":50.8386116027832,"lng":5.71722221374512},"countryCode":"NL"}],"direction":"BOTH"},"consequence":{"section":{"stations":[{"uicCode":"8400564","stationCode":"STD","name":"Sittard","coordinate":{"lat":51.0016670227051,"lng":5.85861110687256},"countryCode":"NL"},{"uicCode":"8400248","stationCode":"LUT","name":"Geleen-Lutterade","coordinate":{"lat":50.9755554199219,"lng":5.82472229003906},"countryCode":"NL"},{"uicCode":"8400096","stationCode":"BK","name":"Beek-Elsloo","coordinate":{"lat":50.9474983215332,"lng":5.78666687011719},"countryCode":"NL"},{"uicCode":"8400140","stationCode":"BDE","name":"Bunde","coordinate":{"lat":50.8969459533691,"lng":5.73666667938232},"countryCode":"NL"},{"uicCode":"8400424","stationCode":"MT","name":"Maastricht","coordinate":{"lat":50.8502769470215,"lng":5.70555543899536},"countryCode":"NL"}],"direction":"ONE_WAY"},"description":"rijden bussen","level":"NO_OR_MUCH_LESS_TRAINS"},"sectionType":"NL"}],"timespans":[{"start":"2022-11-19T04:00:00+0100","end":"2022-11-21T02:00:00+0100","period":"Zaterdag 19-11-2022 04:00 uur t/m maandag 21-11-2022 02:00 uur.","situation":{"label":"Door werkzaamheden: tussen Sittard en Maastricht rijden er bussen en tussen Sittard en Maastricht rijden er bussen."},"cause":{"label":"Werkzaamheden"},"additionalTravelTime":{"label":"De extra reistijd kan oplopen tot 30 minuten.","shortLabel":"Extra reistijd tot 30 min.","maximumDurationInMinutes":30},"alternativeTransport":{"label":"Er rijden stop- en snelbussen.","shortLabel":"er rijden stop- en snelbussen"},"advices":[]}],"alternativeTransportTimespans":[{"start":"2022-11-19T04:00:00+0100","end":"2022-11-21T02:00:00+0100","alternativeTransport":{"location":[{"station":{"uicCode":"8400564","stationCode":"STD","name":"Sittard","coordinate":{"lat":51.0016670227051,"lng":5.85861110687256},"countryCode":"NL"},"description":"vanaf de achterzijde van het station"},{"station":{"uicCode":"8400424","stationCode":"MT","name":"Maastricht","coordinate":{"lat":50.8502769470215,"lng":5.70555543899536},"countryCode":"NL"},"description":"vanaf het Stationsplein"}],"label":"Er rijden snelbussen tussen Sittard en Maastricht.","shortLabel":"Er rijden snelbussen Sittard - Maastricht"}},{"start":"2022-11-19T04:00:00+0100","end":"2022-11-19T07:15:00+0100","alternativeTransport":{"location":[{"station":{"uicCode":"8400424","stationCode":"MT","name":"Maastricht","coordinate":{"lat":50.8502769470215,"lng":5.70555543899536},"countryCode":"NL"},"description":"vanaf het Stationsplein"},{"station":{"uicCode":"8400426","stationCode":"MTR","name":"Maastricht Randwyck","coordinate":{"lat":50.8386116027832,"lng":5.71722221374512},"countryCode":"NL"},"description":"vanaf de Universiteitssingel"}],"label":"Er rijden stopbussen tussen Maastricht en Maastricht Randwyck.","shortLabel":"Er rijden stopbussen Maastricht - Randwyck"}},{"start":"2022-11-19T04:00:00+0100","end":"2022-11-21T02:00:00+0100","alternativeTransport":{"location":[{"station":{"uicCode":"8400564","stationCode":"STD","name":"Sittard","coordinate":{"lat":51.0016670227051,"lng":5.85861110687256},"countryCode":"NL"},"description":"vanaf de achterzijde van het station"},{"station":{"uicCode":"8400248","stationCode":"LUT","name":"Geleen-Lutterade","coordinate":{"lat":50.9755554199219,"lng":5.82472229003906},"countryCode":"NL"},"description":"vanaf de achterzijde van het station"},{"station":{"uicCode":"8400096","stationCode":"BK","name":"Beek-Elsloo","coordinate":{"lat":50.9474983215332,"lng":5.78666687011719},"countryCode":"NL"},"description":"vanaf de voorzijde van het station"},{"station":{"uicCode":"8400140","stationCode":"BDE","name":"Bunde","coordinate":{"lat":50.8969459533691,"lng":5.73666667938232},"countryCode":"NL"},"description":"vanaf de voorzijde van het station"},{"station":{"uicCode":"8400424","stationCode":"MT","name":"Maastricht","coordinate":{"lat":50.8502769470215,"lng":5.70555543899536},"countryCode":"NL"},"description":"vanaf het Stationsplein"}],"label":"Er rijden stopbussen tussen Sittard, Geleen-Lutterade, Beek-Elsloo, Bunde en Maastricht.","shortLabel":"Er rijden stopbussen Sittard - Geleen-Lut. - Beek-Elsloo - Bunde - Maastricht"}},{"start":"2022-11-20T00:00:00+0100","end":"2022-11-20T01:30:00+0100","alternativeTransport":{"location":[{"station":{"uicCode":"8400424","stationCode":"MT","name":"Maastricht","coordinate":{"lat":50.8502769470215,"lng":5.70555543899536},"countryCode":"NL"},"description":"vanaf het Stationsplein"},{"station":{"uicCode":"8400426","stationCode":"MTR","name":"Maastricht Randwyck","coordinate":{"lat":50.8386116027832,"lng":5.71722221374512},"countryCode":"NL"},"description":"vanaf de Universiteitssingel"}],"label":"Er rijden stopbussen tussen Maastricht en Maastricht Randwyck.","shortLabel":"Er rijden stopbussen Maastricht - Randwyck"}},{"start":"2022-11-20T05:30:00+0100","end":"2022-11-20T07:15:00+0100","alternativeTransport":{"location":[{"station":{"uicCode":"8400424","stationCode":"MT","name":"Maastricht","coordinate":{"lat":50.8502769470215,"lng":5.70555543899536},"countryCode":"NL"},"description":"vanaf het Stationsplein"},{"station":{"uicCode":"8400426","stationCode":"MTR","name":"Maastricht Randwyck","coordinate":{"lat":50.8386116027832,"lng":5.71722221374512},"countryCode":"NL"},"description":"vanaf de Universiteitssingel"}],"label":"Er rijden stopbussen tussen Maastricht en Maastricht Randwyck.","shortLabel":"Er rijden stopbussen Maastricht - Randwyck"}},{"start":"2022-11-21T00:00:00+0100","end":"2022-11-21T01:30:00+0100","alternativeTransport":{"location":[{"station":{"uicCode":"8400424","stationCode":"MT","name":"Maastricht","coordinate":{"lat":50.8502769470215,"lng":5.70555543899536},"countryCode":"NL"},"description":"vanaf het Stationsplein"},{"station":{"uicCode":"8400426","stationCode":"MTR","name":"Maastricht Randwyck","coordinate":{"lat":50.8386116027832,"lng":5.71722221374512},"countryCode":"NL"},"description":"vanaf de Universiteitssingel"}],"label":"Er rijden stopbussen tussen Maastricht en Maastricht Randwyck.","shortLabel":"Er rijden stopbussen Maastricht - Randwyck"}}]}]