[{"type":"DISRUPTION","id":"6052231","title":"Heerlen - Maastricht Randwyck.","isActive":true,"topic":"disruption_6052231_nl","local":false,"titleSections":[[{"type":"STATION","value":"Heerlen"},{"type":"ICON","value":"DISRUPTION"},{"type":"STATION","value":"Maastricht"},{"type":"STATION","value":"Randwyck"}]],"registrationTime":"2024-12-05T07:53:16+0100","releaseTime":"2024-12-05T07:53:16+0100","start":"2024-12-03T10:13:18+0100","end":"2024-12-07T01:00:00+0100","phase":{"id":"3","label":"Vervangend vervoer"},"impact":{"value":2},"expectedDuration":{"description":"Dit duurt tot ongeveer zaterdag 7 december 1:00 uur.","endTime":"2024-12-07T01:00:00+0100"},"publicationSections":[{"section":{"stations":[{"coordinate":{"lat":50.8908348083496,"lng":5.97499990463257},"countryCode":"NL","name":"Heerlen","stationCode":"HRL","uicCode":"8400307"},{"coordinate":{"lat":50.896667,"lng":5.952222},"countryCode":"NL","name":"Heerlen Woonboulevard","stationCode":"HRLW","uicCode":"8400404"},{"coordinate":{"lat":50.8872222900391,"lng":5.93027782440186},"countryCode":"NL","name":"Voerendaal","stationCode":"VDL","uicCode":"8400656"},{"coordinate":{"lat":50.8663902282715,"lng":5.8905553817749},"countryCode":"NL","name":"Klimmen-Ransdaal","stationCode":"KMR","uicCode":"8400362"},{"coordinate":{"lat":50.856388092041,"lng":5.87222242355347},"countryCode":"NL","name":"Schin op Geul","stationCode":"SOG","uicCode":"8400555"},{"coordinate":{"lat":50.8697204589844,"lng":5.83222198486328},"countryCode":"NL","name":"Valkenburg","stationCode":"VK","uicCode":"8400632"},{"coordinate":{"lat":50.8733329772949,"lng":5.79722213745117},"countryCode":"NL","name":"Houthem-St. Gerlach","stationCode":"SGL","uicCode":"8400341"},{"coordinate":{"lat":50.882879392551,"lng":5.75099945068359},"countryCode":"NL","name":"Meerssen","stationCode":"MES","uicCode":"8400434"},{"coordinate":{"lat":50.87087,"lng":5.71774},"countryCode":"NL","name":"Maastricht Noord","stationCode":"MTN","uicCode":"8400449"},{"coordinate":{"lat":50.8502769470215,"lng":5.70555543899536},"countryCode":"NL","name":"Maastricht","stationCode":"MT","uicCode":"8400424"},{"coordinate":{"lat":50.8386116027832,"lng":5.71722221374512},"countryCode":"NL","name":"Maastricht Randwyck","stationCode":"MTR","uicCode":"8400426"}],"direction":"BOTH"},"consequence":{"section":{"stations":[{"coordinate":{"lat":50.8908348083496,"lng":5.97499990463257},"countryCode":"NL","name":"Heerlen","stationCode":"HRL","uicCode":"8400307"},{"coordinate":{"lat":50.896667,"lng":5.952222},"countryCode":"NL","name":"Heerlen Woonboulevard","stationCode":"HRLW","uicCode":"8400404"},{"coordinate":{"lat":50.8872222900391,"lng":5.93027782440186},"countryCode":"NL","name":"Voerendaal","stationCode":"VDL","uicCode":"8400656"},{"coordinate":{"lat":50.8663902282715,"lng":5.8905553817749},"countryCode":"NL","name":"Klimmen-Ransdaal","stationCode":"KMR","uicCode":"8400362"},{"coordinate":{"lat":50.856388092041,"lng":5.87222242355347},"countryCode":"NL","name":"Schin op Geul","stationCode":"SOG","uicCode":"8400555"},{"coordinate":{"lat":50.8697204589844,"lng":5.83222198486328},"countryCode":"NL","name":"Valkenburg","stationCode":"VK","uicCode":"8400632"},{"coordinate":{"lat":50.8733329772949,"lng":5.79722213745117},"countryCode":"NL","name":"Houthem-St. Gerlach","stationCode":"SGL","uicCode":"8400341"},{"coordinate":{"lat":50.882879392551,"lng":5.75099945068359},"countryCode":"NL","name":"Meerssen","stationCode":"MES","uicCode":"8400434"},{"coordinate":{"lat":50.87087,"lng":5.71774},"countryCode":"NL","name":"Maastricht Noord","stationCode":"MTN","uicCode":"8400449"},{"coordinate":{"lat":50.8502769470215,"lng":5.70555543899536},"countryCode":"NL","name":"Maastricht","stationCode":"MT","uicCode":"8400424"}],"direction":"BOTH"},"description":"minder treinen","level":"LESS_TRAINS"},"sectionType":"NL"}],"timespans":[{"start":"2024-12-03T10:13:18+0100","end":"2024-12-07T01:00:00+0100","period":"Dinsdag 3 december 10:13 uur t/m zaterdag 7 december 1:00 uur.","situation":{"label":"Door beperkingen in de materieelinzet: tussen Heerlen en Maastricht rijden er minder treinen."},"cause":{"label":"beperkingen materieel"},"alternativeTransport":{"label":"er rijden snelbussen","shortLabel":"er rijden snelbussen"},"advices":[]}],"alternativeTransportTimespans":[{"start":"2024-12-03T10:13:18+0100","end":"2024-12-07T01:00:00+0100","alternativeTransport":{"location":[{"station":{"coordinate":{"lat":50.8908348083496,"lng":5.97499990463257},"countryCode":"NL","name":"Heerlen","stationCode":"HRL","uicCode":"8400307"},"description":"vanaf het busstation Perron A"},{"station":{"coordinate":{"lat":50.8502769470215,"lng":5.70555543899536},"countryCode":"NL","name":"Maastricht","stationCode":"MT","uicCode":"8400424"},"description":"vanaf de taxi-standplaats, centrumzijde"}],"label":"Er rijden snelbussen tussen Heerlen en Maastricht.","shortLabel":"Er rijden snelbussen Heerlen - Maastricht."}}]},{"type":"DISRUPTION","id":"6052261","title":"Leiden - Den Haag.","isActive":true,"topic":"disruption_6052261_nl","local":false,"titleSections":[[{"type":"STATION","value":"Leiden C."},{"type":"ICON","value":"DISRUPTION"},{"type":"STATION","value":"Den Haag C."}]],"registrationTime":"2024-12-05T11:11:15+0100","releaseTime":"2024-12-05T11:11:15+0100","start":"2024-12-05T03:25:04+0100","end":"2024-12-06T00:15:00+0100","phase":{"id":"2","label":"Impact bekend"},"impact":{"value":3},"expectedDuration":{"description":"Dit duurt tot ongeveer vrijdag 6 december 0:15 uur.","endTime":"2024-12-06T00:15:00+0100"},"publicationSections":[{"section":{"stations":[{"coordinate":{"lat":52.1661109924316,"lng":4.48166656494141},"countryCode":"NL","name":"Leiden Centraal","stationCode":"LEDN","uicCode":"8400390"},{"coordinate":{"lat":52.1472206115723,"lng":4.4563889503479},"countryCode":"NL","name":"De Vink","stationCode":"DVNK","uicCode":"8400188"},{"coordinate":{"lat":52.1252784729004,"lng":4.43249988555908},"countryCode":"NL","name":"Voorschoten","stationCode":"VST","uicCode":"8400659"},{"coordinate":{"lat":52.0905570983887,"lng":4.36944437026978},"countryCode":"NL","name":"Den Haag Mariahoeve","stationCode":"GVM","uicCode":"8400278"},{"coordinate":{"lat":52.0786094665527,"lng":4.34277772903442},"countryCode":"NL","name":"Den Haag Laan v NOI","stationCode":"LAA","uicCode":"8400380"},{"coordinate":{"lat":52.0802764892578,"lng":4.32499980926514},"countryCode":"NL","name":"Den Haag Centraal","stationCode":"GVC","uicCode":"8400282"}],"direction":"BOTH"},"consequence":{"section":{"stations":[{"coordinate":{"lat":52.1661109924316,"lng":4.48166656494141},"countryCode":"NL","name":"Leiden Centraal","stationCode":"LEDN","uicCode":"8400390"},{"coordinate":{"lat":52.1472206115723,"lng":4.4563889503479},"countryCode":"NL","name":"De Vink","stationCode":"DVNK","uicCode":"8400188"},{"coordinate":{"lat":52.1252784729004,"lng":4.43249988555908},"countryCode":"NL","name":"Voorschoten","stationCode":"VST","uicCode":"8400659"},{"coordinate":{"lat":52.0905570983887,"lng":4.36944437026978},"countryCode":"NL","name":"Den Haag Mariahoeve","stationCode":"GVM","uicCode":"8400278"},{"coordinate":{"lat":52.0786094665527,"lng":4.34277772903442},"countryCode":"NL","name":"Den Haag Laan v NOI","stationCode":"LAA","uicCode":"8400380"},{"coordinate":{"lat":52.0802764892578,"lng":4.32499980926514},"countryCode":"NL","name":"Den Haag Centraal","stationCode":"GVC","uicCode":"8400282"}],"direction":"BOTH"},"description":"veel minder treinen","level":"LESS_TRAINS"},"sectionType":"NL"}],"timespans":[{"start":"2024-12-05T03:25:04+0100","end":"2024-12-06T00:15:00+0100","period":"Donderdag 5 december 3:25 uur t/m vrijdag 6 december 0:15 uur.","situation":{"label":"Door een defect spoor: tussen Leiden Centraal en Den Haag Centraal rijden er veel minder treinen."},"cause":{"label":"defect spoor"},"advices":[]}],"alternativeTransportTimespans":[]},{"type":"DISRUPTION","id":"6052265","title":"Amersfoort - Zwolle.","isActive":true,"topic":"disruption_6052265_nl","local":false,"titleSections":[[{"type":"STATION","value":"Amersfoort C."},{"type":"STATION","value":"Putten"},{"type":"ICON","value":"DISRUPTION"},{"type":"STATION","value":"Nunspeet"},{"type":"STATION","value":"Zwolle"}]],"registrationTime":"2024-12-05T11:17:44+0100","releaseTime":"2024-12-05T11:17:44+0100","start":"2024-12-05T03:59:13+0100","end":"2024-12-05T23:45:00+0100","phase":{"id":"3","label":"Vervangend vervoer"},"impact":{"value":4},"expectedDuration":{"description":"Dit duurt tot ongeveer 23:45 uur.","endTime":"2024-12-05T23:45:00+0100"},"publicationSections":[{"section":{"stations":[{"coordinate":{"lat":52.1538887023926,"lng":5.37055540084839},"countryCode":"NL","name":"Amersfoort Centraal","stationCode":"AMF","uicCode":"8400055"},{"coordinate":{"lat":52.1748221374512,"lng":5.40388870239258},"countryCode":"NL","name":"Amersfoort Schothorst","stationCode":"AMFS","uicCode":"8400054"},{"coordinate":{"lat":52.1927795410156,"lng":5.43388891220093},"countryCode":"NL","name":"Amersfoort Vathorst","stationCode":"AVAT","uicCode":"8400228"},{"coordinate":{"lat":52.2222213745117,"lng":5.49388885498047},"countryCode":"NL","name":"Nijkerk","stationCode":"NKK","uicCode":"8400469"},{"coordinate":{"lat":52.2649993896484,"lng":5.57527780532837},"countryCode":"NL","name":"Putten","stationCode":"PT","uicCode":"8400509"},{"coordinate":{"lat":52.3016662597656,"lng":5.61472225189209},"countryCode":"NL","name":"Ermelo","stationCode":"EML","uicCode":"8400216"},{"coordinate":{"lat":52.3375015258789,"lng":5.61972236633301},"countryCode":"NL","name":"Harderwijk","stationCode":"HD","uicCode":"8400294"},{"coordinate":{"lat":52.3708343505859,"lng":5.78527784347534},"countryCode":"NL","name":"Nunspeet","stationCode":"NS","uicCode":"8400466"},{"coordinate":{"lat":52.4091682,"lng":5.893611},"countryCode":"NL","name":"'t Harde","stationCode":"HDE","uicCode":"8400388"},{"coordinate":{"lat":52.4541664123535,"lng":6.00250005722046},"countryCode":"NL","name":"Wezep","stationCode":"WZ","uicCode":"8400690"},{"coordinate":{"lat":52.5047225952148,"lng":6.09194421768188},"countryCode":"NL","name":"Zwolle","stationCode":"ZL","uicCode":"8400747"}],"direction":"BOTH"},"consequence":{"section":{"stations":[{"coordinate":{"lat":52.2649993896484,"lng":5.57527780532837},"countryCode":"NL","name":"Putten","stationCode":"PT","uicCode":"8400509"},{"coordinate":{"lat":52.3016662597656,"lng":5.61472225189209},"countryCode":"NL","name":"Ermelo","stationCode":"EML","uicCode":"8400216"},{"coordinate":{"lat":52.3375015258789,"lng":5.61972236633301},"countryCode":"NL","name":"Harderwijk","stationCode":"HD","uicCode":"8400294"},{"coordinate":{"lat":52.3708343505859,"lng":5.78527784347534},"countryCode":"NL","name":"Nunspeet","stationCode":"NS","uicCode":"8400466"}],"direction":"BOTH"},"description":"geen Sprinters","level":"LESS_TRAINS"},"sectionType":"NL"}],"timespans":[{"start":"2024-12-05T03:59:13+0100","end":"2024-12-05T23:45:00+0100","period":"Donderdag 5 december 3:59 uur t/m donderdag 5 december 23:45 uur.","situation":{"label":"Door een defect spoor: tussen Putten en Nunspeet rijden er geen Sprinters."},"cause":{"label":"defect spoor"},"alternativeTransport":{"label":"er rijden stopbussen","shortLabel":"er rijden stopbussen"},"advices":[]}],"alternativeTransportTimespans":[{"start":"2024-12-05T03:59:13+0100","end":"2024-12-05T23:45:00+0100","alternativeTransport":{"location":[{"station":{"coordinate":{"lat":52.2649993896484,"lng":5.57527780532837},"countryCode":"NL","name":"Putten","stationCode":"PT","uicCode":"8400509"},"description":"vanaf de bushalte"},{"station":{"coordinate":{"lat":52.3016662597656,"lng":5.61472225189209},"countryCode":"NL","name":"Ermelo","stationCode":"EML","uicCode":"8400216"},"description":"vanaf de bushalte"},{"station":{"coordinate":{"lat":52.3375015258789,"lng":5.61972236633301},"countryCode":"NL","name":"Harderwijk","stationCode":"HD","uicCode":"8400294"},"description":"vanaf het busstation"},{"station":{"coordinate":{"lat":52.3708343505859,"lng":5.78527784347534},"countryCode":"NL","name":"Nunspeet","stationCode":"NS","uicCode":"8400466"},"description":"vanaf het P+R-terrein Nunspeet Natuurtransferium"}],"label":"Er rijden stopbussen tussen Putten, Ermelo, Harderwijk en Nunspeet.","shortLabel":"Er rijden stopbussen Putten - Ermelo - Harderwijk - Nunspeet."}}]},{"type":"DISRUPTION","id":"6052271","title":"Heerlen - Aachen Hbf.","isActive":true,"topic":"disruption_6052271_nl","local":false,"titleSections":[[{"type":"STATION","value":"Heerlen"},{"type":"ICON","value":"DISRUPTION"},{"type":"STATION","value":"Aachen Hbf"}]],"registrationTime":"2024-12-05T12:38:59+0100","releaseTime":"2024-12-05T12:38:59+0100","start":"2024-12-05T07:48:44+0100","end":"2024-12-07T00:30:00+0100","phase":{"id":"3","label":"Vervangend vervoer"},"impact":{"value":2},"expectedDuration":{"description":"Dit duurt tot ongeveer zaterdag 7 december 0:30 uur.","endTime":"2024-12-07T00:30:00+0100"},"publicationSections":[{"section":{"stations":[{"coordinate":{"lat":50.8908348083496,"lng":5.97499990463257},"countryCode":"NL","name":"Heerlen","stationCode":"HRL","uicCode":"8400307"},{"coordinate":{"lat":50.8963890075684,"lng":6.01916646957398},"countryCode":"NL","name":"Landgraaf","stationCode":"LG","uicCode":"8400548"},{"coordinate":{"lat":50.8960498196442,"lng":6.0602474212646396},"countryCode":"NL","name":"Eygelshoven Markt","stationCode":"EGHM","uicCode":"8400234"},{"coordinate":{"lat":50.870916,"lng":6.094486},"countryCode":"D","name":"Herzogenrath","stationCode":"HZ","uicCode":"8015190"},{"coordinate":{"lat":50.7678,"lng":6.091499},"countryCode":"D","name":"Aachen Hbf","stationCode":"AHBF","uicCode":"8015345"}],"direction":"BOTH"},"consequence":{"section":{"stations":[{"coordinate":{"lat":50.8908348083496,"lng":5.97499990463257},"countryCode":"NL","name":"Heerlen","stationCode":"HRL","uicCode":"8400307"},{"coordinate":{"lat":50.8963890075684,"lng":6.01916646957398},"countryCode":"NL","name":"Landgraaf","stationCode":"LG","uicCode":"8400548"},{"coordinate":{"lat":50.8960498196442,"lng":6.0602474212646396},"countryCode":"NL","name":"Eygelshoven Markt","stationCode":"EGHM","uicCode":"8400234"},{"coordinate":{"lat":50.870916,"lng":6.094486},"countryCode":"D","name":"Herzogenrath","stationCode":"HZ","uicCode":"8015190"},{"coordinate":{"lat":50.7678,"lng":6.091499},"countryCode":"D","name":"Aachen Hbf","stationCode":"AHBF","uicCode":"8015345"}],"direction":"BOTH"},"description":"minder treinen","level":"LESS_TRAINS"},"sectionType":"NEIGHBORING_COUNTRY"}],"timespans":[{"start":"2024-12-05T07:48:44+0100","end":"2024-12-07T00:30:00+0100","period":"Donderdag 5 december 7:48 uur t/m zaterdag 7 december 0:30 uur.","situation":{"label":"Door een tekort aan personeel: tussen Heerlen en Aachen Hbf rijden er minder treinen."},"cause":{"label":"tekort personeel"},"alternativeTransport":{"label":"er rijden stopbussen","shortLabel":"er rijden stopbussen"},"advices":[]}],"alternativeTransportTimespans":[{"start":"2024-12-05T07:48:44+0100","end":"2024-12-07T00:30:00+0100","alternativeTransport":{"location":[{"station":{"coordinate":{"lat":50.8908348083496,"lng":5.97499990463257},"countryCode":"NL","name":"Heerlen","stationCode":"HRL","uicCode":"8400307"},"description":"vanaf het busstation Perron A"},{"station":{"coordinate":{"lat":50.8963890075684,"lng":6.01916646957398},"countryCode":"NL","name":"Landgraaf","stationCode":"LG","uicCode":"8400548"},"description":"vanaf de doorgaande weg, voorzijde station"},{"station":{"coordinate":{"lat":50.8960498196442,"lng":6.0602474212646396},"countryCode":"NL","name":"Eygelshoven Markt","stationCode":"EGHM","uicCode":"8400234"},"description":"vanaf de bushalte Centrum"},{"station":{"coordinate":{"lat":50.870916,"lng":6.094486},"countryCode":"D","name":"Herzogenrath","stationCode":"HZ","uicCode":"8015190"},"description":"vanaf de bushalte"}],"label":"Er rijden stopbussen tussen Heerlen, Landgraaf, Eygelshoven Markt en Herzogenrath.","shortLabel":"Er rijden stopbussen Heerlen - Landgraaf - Eygelshoven Mrkt - Herzogenrath."}}]},{"type":"DISRUPTION","id":"6052274","title":"Amsterdam - Haarlem - Den Haag.","isActive":true,"topic":"disruption_6052274_nl","local":false,"titleSections":[[{"type":"STATION","value":"Amsterdam C."},{"type":"ICON","value":"DISRUPTION"},{"type":"STATION","value":"Leiden C."},{"type":"STATION","value":"Den Haag C."}]],"registrationTime":"2024-12-05T10:08:12+0100","releaseTime":"2024-12-05T10:08:12+0100","start":"2024-12-05T10:03:43+0100","end":"2024-12-06T00:15:00+0100","phase":{"id":"2","label":"Impact bekend"},"impact":{"value":2},"expectedDuration":{"description":"Dit duurt tot ongeveer vrijdag 6 december 0:15 uur.","endTime":"2024-12-06T00:15:00+0100"},"publicationSections":[{"section":{"stations":[{"coordinate":{"lat":52.3788871765137,"lng":4.90027761459351},"countryCode":"NL","name":"Amsterdam Centraal","stationCode":"ASD","uicCode":"8400058"},{"coordinate":{"lat":52.3888893127441,"lng":4.83777761459351},"countryCode":"NL","name":"Amsterdam Sloterdijk","stationCode":"ASS","uicCode":"8400059"},{"coordinate":{"lat":52.385935,"lng":4.747165},"countryCode":"NL","name":"Halfweg-Zwanenburg","stationCode":"HWZB","uicCode":"8400400"},{"coordinate":{"lat":52.3827781677246,"lng":4.67305564880371},"countryCode":"NL","name":"Haarlem Spaarnwoude","stationCode":"HLMS","uicCode":"8400270"},{"coordinate":{"lat":52.3877792358398,"lng":4.63833332061768},"countryCode":"NL","name":"Haarlem","stationCode":"HLM","uicCode":"8400285"},{"coordinate":{"lat":52.3591651916504,"lng":4.60666656494141},"countryCode":"NL","name":"Heemstede-Aerdenhout","stationCode":"HAD","uicCode":"8400302"},{"coordinate":{"lat":52.3025016784668,"lng":4.56555557250977},"countryCode":"NL","name":"Hillegom","stationCode":"HIL","uicCode":"8400329"},{"coordinate":{"lat":52.2244453430176,"lng":4.4844446182251},"countryCode":"NL","name":"Voorhout","stationCode":"VH","uicCode":"8400655"},{"coordinate":{"lat":52.1661109924316,"lng":4.48166656494141},"countryCode":"NL","name":"Leiden Centraal","stationCode":"LEDN","uicCode":"8400390"},{"coordinate":{"lat":52.1472206115723,"lng":4.4563889503479},"countryCode":"NL","name":"De Vink","stationCode":"DVNK","uicCode":"8400188"},{"coordinate":{"lat":52.1252784729004,"lng":4.43249988555908},"countryCode":"NL","name":"Voorschoten","stationCode":"VST","uicCode":"8400659"},{"coordinate":{"lat":52.0905570983887,"lng":4.36944437026978},"countryCode":"NL","name":"Den Haag Mariahoeve","stationCode":"GVM","uicCode":"8400278"},{"coordinate":{"lat":52.0786094665527,"lng":4.34277772903442},"countryCode":"NL","name":"Den Haag Laan v NOI","stationCode":"LAA","uicCode":"8400380"},{"coordinate":{"lat":52.0802764892578,"lng":4.32499980926514},"countryCode":"NL","name":"Den Haag Centraal","stationCode":"GVC","uicCode":"8400282"}],"direction":"BOTH"},"consequence":{"section":{"stations":[{"coordinate":{"lat":52.3788871765137,"lng":4.90027761459351},"countryCode":"NL","name":"Amsterdam Centraal","stationCode":"ASD","uicCode":"8400058"},{"coordinate":{"lat":52.3888893127441,"lng":4.83777761459351},"countryCode":"NL","name":"Amsterdam Sloterdijk","stationCode":"ASS","uicCode":"8400059"},{"coordinate":{"lat":52.385935,"lng":4.747165},"countryCode":"NL","name":"Halfweg-Zwanenburg","stationCode":"HWZB","uicCode":"8400400"},{"coordinate":{"lat":52.3827781677246,"lng":4.67305564880371},"countryCode":"NL","name":"Haarlem Spaarnwoude","stationCode":"HLMS","uicCode":"8400270"},{"coordinate":{"lat":52.3877792358398,"lng":4.63833332061768},"countryCode":"NL","name":"Haarlem","stationCode":"HLM","uicCode":"8400285"},{"coordinate":{"lat":52.3591651916504,"lng":4.60666656494141},"countryCode":"NL","name":"Heemstede-Aerdenhout","stationCode":"HAD","uicCode":"8400302"},{"coordinate":{"lat":52.3025016784668,"lng":4.56555557250977},"countryCode":"NL","name":"Hillegom","stationCode":"HIL","uicCode":"8400329"},{"coordinate":{"lat":52.2244453430176,"lng":4.4844446182251},"countryCode":"NL","name":"Voorhout","stationCode":"VH","uicCode":"8400655"},{"coordinate":{"lat":52.1661109924316,"lng":4.48166656494141},"countryCode":"NL","name":"Leiden Centraal","stationCode":"LEDN","uicCode":"8400390"}],"direction":"BOTH"},"description":"minder Intercity's","level":"LESS_TRAINS"},"sectionType":"NL"}],"timespans":[{"start":"2024-12-05T10:03:43+0100","end":"2024-12-06T00:15:00+0100","period":"Donderdag 5 december 10:03 uur t/m vrijdag 6 december 0:15 uur.","situation":{"label":"Door een defect spoor: tussen Amsterdam Centraal en Leiden Centraal rijden er minder Intercity's."},"cause":{"label":"defect spoor"},"advices":[]}],"alternativeTransportTimespans":[]},{"type":"CALAMITY","id":"e966a8c7-4c5c-456a-8c39-baae841f3d54","title":"Werkzaamheden: Leiden Centraal – Alphen aan den Rijn","isActive":true,"topic":"disruption_e966a8c7-4c5c-456a-8c39-baae841f3d54_nl","description":"Door werkzaamheden van vrijdag 6 december t/m maandag 9 december rijden geen treinen tussen Leiden Centraal en Alphen aan den Rijn.","url":"https://www.ns.nl/reisinformatie/calamiteiten/werkzaamheden-leiden-centraal---alphen-aan-den-rijn.html","priority":"PRIO_3","lastUpdated":"2024-12-05T10:42:00+0100","bodyItems":[{"type":"TEXT","content":{"text":"<p>Er worden stopbussen ingezet. Reizigers tussen Leiden Centraal en Utrecht Centraal kunnen omreizen via Schiphol. Plan uw reis voor vertrek.</p>"}}],"buttons":{"position":["BOTTOM"],"items":[{"label":"Plan je reis","accessibilityLabel":"Plan je reis","url":"https://www.ns.nl/reisplanner","type":"PLANNER"}]}},{"type":"MAINTENANCE","id":"7004492","title":"Groningen - Leer.","isActive":true,"local":false,"titleSections":[[{"type":"STATION","value":"Groningen"},{"type":"STATION","value":"Bad Nieuweschans"},{"type":"ICON","value":"MAINTENANCE"},{"type":"STATION","value":"Weener"},{"type":"STATION","value":"Leer (Ostfr.)"}]],"registrationTime":"2024-11-27T12:15:04+0100","start":"2024-02-01T04:00:00+0100","releaseTime":"2024-11-27T12:15:04+0100","end":"2025-08-24T23:59:00+0200","period":"Donderdag 1 februari 4:00 uur t/m zondag 24 augustus 2025 23:59 uur.","impact":{"value":3},"publicationSections":[{"section":{"stations":[{"coordinate":{"lat":53.2105560302734,"lng":6.56472206115723},"countryCode":"NL","name":"Groningen","stationCode":"GN","uicCode":"8400263"},{"coordinate":{"lat":53.20480027,"lng":6.5854178},"countryCode":"NL","name":"Groningen Europapark","stationCode":"GERP","uicCode":"8400238"},{"coordinate":{"lat":53.1617362,"lng":6.7220882},"countryCode":"NL","name":"Kropswolde","stationCode":"KW","uicCode":"8400369"},{"coordinate":{"lat":53.1607232,"lng":6.7402989},"countryCode":"NL","name":"Martenshoek","stationCode":"MTH","uicCode":"8400430"},{"coordinate":{"lat":53.1598181316756,"lng":6.77075386047363},"countryCode":"NL","name":"Hoogezand-Sappemeer","stationCode":"HGZ","uicCode":"8400331"},{"coordinate":{"lat":53.1596122800056,"lng":6.8679141998291},"countryCode":"NL","name":"Zuidbroek","stationCode":"ZB","uicCode":"8400742"},{"coordinate":{"lat":53.1655362,"lng":6.9777775},"countryCode":"NL","name":"Scheemda","stationCode":"SDA","uicCode":"8400551"},{"coordinate":{"lat":53.1392377,"lng":7.035101},"countryCode":"NL","name":"Winschoten","stationCode":"WS","uicCode":"8400696"},{"coordinate":{"lat":53.1844,"lng":7.19937},"countryCode":"NL","name":"Bad Nieuweschans","stationCode":"NSCH","uicCode":"8400457"},{"coordinate":{"lat":53.16311,"lng":7.3442},"countryCode":"D","name":"Weener","stationCode":"WR","uicCode":"8021239"},{"coordinate":{"lat":53.23165,"lng":7.465283},"countryCode":"D","name":"Leer (Ostfriesl)","stationCode":"LEER","uicCode":"8021091"}],"direction":"BOTH"},"consequence":{"section":{"stations":[{"coordinate":{"lat":53.1844,"lng":7.19937},"countryCode":"NL","name":"Bad Nieuweschans","stationCode":"NSCH","uicCode":"8400457"},{"coordinate":{"lat":53.16311,"lng":7.3442},"countryCode":"D","name":"Weener","stationCode":"WR","uicCode":"8021239"}],"direction":"BOTH"},"description":"er rijden bussen","level":"LESS_TRAINS"},"sectionType":"NEIGHBORING_COUNTRY"}],"summaryAdditionalTravelTime":{"label":"De extra reistijd kan oplopen tot 30 minuten.","shortLabel":"Extra reistijd tot 30 min.","maximumDurationInMinutes":30},"timespans":[{"start":"2024-02-01T04:00:00+0100","end":"2025-08-24T23:59:00+0200","period":"Donderdag 1 februari 4:00 uur t/m zondag 24 augustus 2025 23:59 uur.","situation":{"label":"Door een aangepaste dienstregeling: tussen Bad Nieuweschans en Weener rijden er bussen."},"cause":{"label":"aangepaste dienstregeling"},"additionalTravelTime":{"label":"De extra reistijd kan oplopen tot 30 minuten.","shortLabel":"Extra reistijd tot 30 min.","maximumDurationInMinutes":30},"alternativeTransport":{"label":"er rijden stopbussen","shortLabel":"er rijden stopbussen"},"advices":["Op dit moment is er nog geen exacte einddatum bekend."]}],"alternativeTransportTimespans":[{"start":"2024-02-01T04:00:00+0100","end":"2025-08-24T23:59:00+0200","alternativeTransport":{"location":[{"station":{"coordinate":{"lat":53.1844,"lng":7.19937},"countryCode":"NL","name":"Bad Nieuweschans","stationCode":"NSCH","uicCode":"8400457"},"description":"vanaf de voorzijde van het station"},{"station":{"coordinate":{"lat":53.16311,"lng":7.3442},"countryCode":"D","name":"Weener","stationCode":"WR","uicCode":"8021239"},"description":"vanaf de voorzijde van het station"},{"station":{"coordinate":{"lat":53.23165,"lng":7.465283},"countryCode":"D","name":"Leer (Ostfriesl)","stationCode":"LEER","uicCode":"8021091"},"description":"vanaf het busstation"}],"label":"Er rijden stopbussen tussen Bad Nieuweschans, Weener en Leer (Ostfriesl).","shortLabel":"Er rijden stopbussen Bad Nieuweschans - Weener - Leer (Ostfr.)."}}]},{"type":"MAINTENANCE","id":"7005621","title":"Amsterdam - Köln - Frankfurt.","isActive":true,"local":false,"titleSections":[[{"type":"STATION","value":"Amsterdam C."},{"type":"STATION","value":"Emmerich"},{"type":"ICON","value":"MAINTENANCE"},{"type":"STATION","value":"Oberhausen Hbf"},{"type":"STATION","value":"Frankfurt Hbf"}]],"registrationTime":"2024-11-20T13:32:13+0100","start":"2024-12-05T04:00:00+0100","releaseTime":"2024-11-20T13:32:13+0100","end":"2024-12-07T02:00:00+0100","period":"Donderdag 5 december 4:00 uur t/m zaterdag 7 december 2:00 uur.","impact":{"value":2},"publicationSections":[{"section":{"stations":[{"coordinate":{"lat":52.3788871765137,"lng":4.90027761459351},"countryCode":"NL","name":"Amsterdam Centraal","stationCode":"ASD","uicCode":"8400058"},{"coordinate":{"lat":52.3605537414551,"lng":4.93111133575439},"countryCode":"NL","name":"Amsterdam Muiderpoort","stationCode":"ASDM","uicCode":"8400060"},{"coordinate":{"lat":52.3466682434082,"lng":4.91777801513672},"countryCode":"NL","name":"Amsterdam Amstel","stationCode":"ASA","uicCode":"8400057"},{"coordinate":{"lat":52.3233337402344,"lng":4.93638896942139},"countryCode":"NL","name":"Duivendrecht","stationCode":"DVD","uicCode":"8400194"},{"coordinate":{"lat":52.3122215270996,"lng":4.94694423675537},"countryCode":"NL","name":"Amsterdam Bijlmer ArenA","stationCode":"ASB","uicCode":"8400074"},{"coordinate":{"lat":52.29844,"lng":4.95972},"countryCode":"NL","name":"Amsterdam Holendrecht","stationCode":"ASHD","uicCode":"8400231"},{"coordinate":{"lat":52.2785,"lng":4.977},"countryCode":"NL","name":"Abcoude","stationCode":"AC","uicCode":"8400047"},{"coordinate":{"lat":52.17149,"lng":4.9906},"countryCode":"NL","name":"Breukelen","stationCode":"BKL","uicCode":"8400133"},{"coordinate":{"lat":52.1352767944336,"lng":5.03361129760742},"countryCode":"NL","name":"Maarssen","stationCode":"MAS","uicCode":"8400419"},{"coordinate":{"lat":52.103055,"lng":5.09},"countryCode":"NL","name":"Utrecht Zuilen","stationCode":"UTZL","uicCode":"8400613"},{"coordinate":{"lat":52.0888900756836,"lng":5.11027765274048},"countryCode":"NL","name":"Utrecht Centraal","stationCode":"UT","uicCode":"8400621"},{"coordinate":{"lat":52.078889,"lng":5.121667},"countryCode":"NL","name":"Utrecht Vaartsche Rijn","stationCode":"UTVR","uicCode":"8400606"},{"coordinate":{"lat":52.0630569458008,"lng":5.19444465637207},"countryCode":"NL","name":"Bunnik","stationCode":"BNK","uicCode":"8400141"},{"coordinate":{"lat":52.0652770996094,"lng":5.25861120223999},"countryCode":"NL","name":"Driebergen-Zeist","stationCode":"DB","uicCode":"8400182"},{"coordinate":{"lat":52.0641670227051,"lng":5.36999988555908},"countryCode":"NL","name":"Maarn","stationCode":"MRN","uicCode":"8400417"},{"coordinate":{"lat":52.0458335876465,"lng":5.57388877868652},"countryCode":"NL","name":"Veenendaal-De Klomp","stationCode":"KLP","uicCode":"8400637"},{"coordinate":{"lat":52.0277786254883,"lng":5.67305564880371},"countryCode":"NL","name":"Ede-Wageningen","stationCode":"ED","uicCode":"8400200"},{"coordinate":{"lat":52.0055541992188,"lng":5.7936110496521},"countryCode":"NL","name":"Wolfheze","stationCode":"WF","uicCode":"8400704"},{"coordinate":{"lat":51.9949989318848,"lng":5.84000015258789},"countryCode":"NL","name":"Oosterbeek","stationCode":"OTB","uicCode":"8400489"},{"coordinate":{"lat":51.9850006103516,"lng":5.89916658401489},"countryCode":"NL","name":"Arnhem Centraal","stationCode":"AH","uicCode":"8400071"},{"coordinate":{"lat":51.985279083252,"lng":5.91944456100464},"countryCode":"NL","name":"Arnhem Velperpoort","stationCode":"AHP","uicCode":"8400072"},{"coordinate":{"lat":51.96286,"lng":5.9695},"countryCode":"NL","name":"Westervoort","stationCode":"WTV","uicCode":"8400688"},{"coordinate":{"lat":51.9433326721191,"lng":6.01472234725952},"countryCode":"NL","name":"Duiven","stationCode":"DVN","uicCode":"8400193"},{"coordinate":{"lat":51.9230537414551,"lng":6.07194423675537},"countryCode":"NL","name":"Zevenaar","stationCode":"ZV","uicCode":"8400735"},{"coordinate":{"lat":51.8743,"lng":6.15417},"countryCode":"D","name":"Emmerich-Elten","stationCode":"EL","uicCode":"8033415"},{"coordinate":{"lat":51.834283,"lng":6.255718},"countryCode":"D","name":"Emmerich","stationCode":"EM","uicCode":"8010288"},{"coordinate":{"lat":51.47512,"lng":6.852038},"countryCode":"D","name":"Oberhausen Hbf","stationCode":"OBERH","uicCode":"8010263"},{"coordinate":{"lat":51.4297785713316,"lng":6.77590370178222},"countryCode":"D","name":"Duisburg Hbf","stationCode":"DUISB","uicCode":"8010316"},{"coordinate":{"lat":51.220146,"lng":6.793137},"countryCode":"D","name":"Düsseldorf Hbf","stationCode":"DUSSEL","uicCode":"8008094"},{"coordinate":{"lat":50.940874,"lng":6.975001},"countryCode":"D","name":"Köln Messe/Deutz","stationCode":"KKD","uicCode":"8015561"},{"coordinate":{"lat":50.9432158,"lng":6.9589214},"countryCode":"D","name":"Köln Hbf","stationCode":"KOLN","uicCode":"8015458"},{"coordinate":{"lat":50.7939411,"lng":7.2030017},"countryCode":"D","name":"Siegburg/Bonn","stationCode":"KSB","uicCode":"8015588"},{"coordinate":{"lat":50.444834,"lng":7.825333},"countryCode":"D","name":"Montabaur","stationCode":"KMB","uicCode":"8019585"},{"coordinate":{"lat":50.382498,"lng":8.096112},"countryCode":"D","name":"Limburg Süd","stationCode":"FLB","uicCode":"8032572"},{"coordinate":{"lat":50.0531710299286,"lng":8.570237159729},"countryCode":"D","name":"Frankfurt Flughafen Fernb","stationCode":"FNAF","uicCode":"8061676"},{"coordinate":{"lat":50.1071222,"lng":8.6638338},"countryCode":"D","name":"Frankfurt (M) Hbf","stationCode":"FFFM","uicCode":"8011068"}],"direction":"BOTH"},"consequence":{"section":{"stations":[{"coordinate":{"lat":51.834283,"lng":6.255718},"countryCode":"D","name":"Emmerich","stationCode":"EM","uicCode":"8010288"},{"coordinate":{"lat":51.47512,"lng":6.852038},"countryCode":"D","name":"Oberhausen Hbf","stationCode":"OBERH","uicCode":"8010263"}],"direction":"BOTH"},"description":"aangepaste internationale dienstregeling","level":"LESS_TRAINS"},"sectionType":"NEIGHBORING_COUNTRY"}],"summaryAdditionalTravelTime":{"label":"U heeft geen langere reistijd.","shortLabel":"Geen extra reistijd."},"timespans":[{"start":"2024-12-05T04:00:00+0100","end":"2024-12-07T02:00:00+0100","period":"Donderdag 5 december 4:00 uur t/m zaterdag 7 december 2:00 uur.","situation":{"label":"Door werkzaamheden: tussen Oberhausen Hbf en Emmerich is de internationale dienstregeling aangepast."},"cause":{"label":"werkzaamheden"},"additionalTravelTime":{"label":"U heeft geen langere reistijd.","shortLabel":"Geen extra reistijd."},"advices":["ICE International stopt niet in Arnhem Centraal."]}],"alternativeTransportTimespans":[]},{"type":"MAINTENANCE","id":"7005578","title":"Utrecht - Leiden.","isActive":false,"local":false,"titleSections":[[{"type":"STATION","value":"Utrecht C."},{"type":"STATION","value":"Alphen a/d Rijn"},{"type":"ICON","value":"MAINTENANCE"},{"type":"STATION","value":"Leiden C."}],[{"type":"STATION","value":"Utrecht C."},{"type":"STATION","value":"Bodegraven"},{"type":"ICON","value":"MAINTENANCE"},{"type":"STATION","value":"Leiden C."}]],"registrationTime":"2024-12-02T10:55:11+0100","start":"2024-12-06T00:50:00+0100","releaseTime":"2024-12-02T10:55:11+0100","end":"2024-12-10T03:00:00+0100","period":"Vrijdag 6 december 0:50 uur t/m dinsdag 10 december 3:00 uur.","impact":{"value":3},"publicationSections":[{"section":{"stations":[{"coordinate":{"lat":52.0888900756836,"lng":5.11027765274048},"countryCode":"NL","name":"Utrecht Centraal","stationCode":"UT","uicCode":"8400621"},{"coordinate":{"lat":52.09896,"lng":5.06523},"countryCode":"NL","name":"Utrecht Leidsche Rijn","stationCode":"UTLR","uicCode":"8400607"},{"coordinate":{"lat":52.1000753,"lng":5.0439547},"countryCode":"NL","name":"Utrecht Terwijde","stationCode":"UTT","uicCode":"8400614"},{"coordinate":{"lat":52.103056,"lng":5.007404},"countryCode":"NL","name":"Vleuten","stationCode":"VTN","uicCode":"8400651"},{"coordinate":{"lat":52.0849990844727,"lng":4.89361095428467},"countryCode":"NL","name":"Woerden","stationCode":"WD","uicCode":"8400702"},{"coordinate":{"lat":52.0813903808594,"lng":4.7461109161377},"countryCode":"NL","name":"Bodegraven","stationCode":"BDG","uicCode":"8400121"},{"coordinate":{"lat":52.1244430541992,"lng":4.65777778625488},"countryCode":"NL","name":"Alphen a/d Rijn","stationCode":"APN","uicCode":"8400053"},{"coordinate":{"lat":52.1469459533691,"lng":4.49249982833862},"countryCode":"NL","name":"Leiden Lammenschans","stationCode":"LDL","uicCode":"8400384"},{"coordinate":{"lat":52.1661109924316,"lng":4.48166656494141},"countryCode":"NL","name":"Leiden Centraal","stationCode":"LEDN","uicCode":"8400390"}],"direction":"BOTH"},"consequence":{"section":{"stations":[{"coordinate":{"lat":52.1244430541992,"lng":4.65777778625488},"countryCode":"NL","name":"Alphen a/d Rijn","stationCode":"APN","uicCode":"8400053"},{"coordinate":{"lat":52.1469459533691,"lng":4.49249982833862},"countryCode":"NL","name":"Leiden Lammenschans","stationCode":"LDL","uicCode":"8400384"},{"coordinate":{"lat":52.1661109924316,"lng":4.48166656494141},"countryCode":"NL","name":"Leiden Centraal","stationCode":"LEDN","uicCode":"8400390"}],"direction":"BOTH"},"description":"er rijden bussen","level":"LESS_TRAINS"},"sectionType":"NL"},{"section":{"stations":[{"coordinate":{"lat":52.0888900756836,"lng":5.11027765274048},"countryCode":"NL","name":"Utrecht Centraal","stationCode":"UT","uicCode":"8400621"},{"coordinate":{"lat":52.09896,"lng":5.06523},"countryCode":"NL","name":"Utrecht Leidsche Rijn","stationCode":"UTLR","uicCode":"8400607"},{"coordinate":{"lat":52.1000753,"lng":5.0439547},"countryCode":"NL","name":"Utrecht Terwijde","stationCode":"UTT","uicCode":"8400614"},{"coordinate":{"lat":52.103056,"lng":5.007404},"countryCode":"NL","name":"Vleuten","stationCode":"VTN","uicCode":"8400651"},{"coordinate":{"lat":52.0849990844727,"lng":4.89361095428467},"countryCode":"NL","name":"Woerden","stationCode":"WD","uicCode":"8400702"},{"coordinate":{"lat":52.0813903808594,"lng":4.7461109161377},"countryCode":"NL","name":"Bodegraven","stationCode":"BDG","uicCode":"8400121"},{"coordinate":{"lat":52.1244430541992,"lng":4.65777778625488},"countryCode":"NL","name":"Alphen a/d Rijn","stationCode":"APN","uicCode":"8400053"},{"coordinate":{"lat":52.1469459533691,"lng":4.49249982833862},"countryCode":"NL","name":"Leiden Lammenschans","stationCode":"LDL","uicCode":"8400384"},{"coordinate":{"lat":52.1661109924316,"lng":4.48166656494141},"countryCode":"NL","name":"Leiden Centraal","stationCode":"LEDN","uicCode":"8400390"}],"direction":"BOTH"},"consequence":{"section":{"stations":[{"coordinate":{"lat":52.0813903808594,"lng":4.7461109161377},"countryCode":"NL","name":"Bodegraven","stationCode":"BDG","uicCode":"8400121"},{"coordinate":{"lat":52.1244430541992,"lng":4.65777778625488},"countryCode":"NL","name":"Alphen a/d Rijn","stationCode":"APN","uicCode":"8400053"},{"coordinate":{"lat":52.1469459533691,"lng":4.49249982833862},"countryCode":"NL","name":"Leiden Lammenschans","stationCode":"LDL","uicCode":"8400384"},{"coordinate":{"lat":52.1661109924316,"lng":4.48166656494141},"countryCode":"NL","name":"Leiden Centraal","stationCode":"LEDN","uicCode":"8400390"}],"direction":"BOTH"},"description":"er rijden bussen","level":"LESS_TRAINS"},"sectionType":"NL"}],"summaryAdditionalTravelTime":{"label":"De extra reistijd kan oplopen tot 45 minuten.","shortLabel":"Extra reistijd tot 45 min.","minimumDurationInMinutes":45,"maximumDurationInMinutes":45},"timespans":[{"start":"2024-12-06T00:50:00+0100","end":"2024-12-08T06:00:00+0100","period":"Vrijdag 6 december 0:50 uur t/m zondag 8 december 6:00 uur.","situation":{"label":"Door werkzaamheden: tussen Leiden Centraal en Alphen a/d Rijn rijden er bussen."},"cause":{"label":"werkzaamheden"},"additionalTravelTime":{"label":"De extra reistijd is ongeveer 30 minuten.","shortLabel":"Extra reistijd 30 min.","minimumDurationInMinutes":30,"maximumDurationInMinutes":30},"alternativeTransport":{"label":"er rijden stopbussen","shortLabel":"er rijden stopbussen"},"advices":["Let op! Op zondagochtend 8 december zijn er ook werkzaamheden tussen Alphen a/d Rijn en Gouda.","Tussen Leiden C. en Utrecht C. reis via Schiphol Airport.","Tussen Alphen a/d Rijn en Den Haag C. reis via Gouda."]},{"start":"2024-12-08T06:00:00+0100","end":"2024-12-08T11:00:00+0100","period":"Zondag 8 december 6:00 uur t/m zondag 8 december 11:00 uur.","situation":{"label":"Door werkzaamheden: tussen Leiden Centraal en Bodegraven rijden er bussen."},"cause":{"label":"werkzaamheden"},"additionalTravelTime":{"label":"De extra reistijd is ongeveer 45 minuten.","shortLabel":"Extra reistijd 45 min.","minimumDurationInMinutes":45,"maximumDurationInMinutes":45},"alternativeTransport":{"label":"er rijden stopbussen","shortLabel":"er rijden stopbussen"},"advices":["Let op! Op zondagochtend 8 december zijn er ook werkzaamheden tussen Alphen a/d Rijn en Gouda.","Tussen Leiden C. en Utrecht C. reis via Schiphol Airport.","Tussen Leiden C. en Woerden reis via Den Haag C."]},{"start":"2024-12-08T11:00:00+0100","end":"2024-12-10T03:00:00+0100","period":"Zondag 8 december 11:00 uur t/m dinsdag 10 december 3:00 uur.","situation":{"label":"Door werkzaamheden: tussen Leiden Centraal en Alphen a/d Rijn rijden er bussen."},"cause":{"label":"werkzaamheden"},"additionalTravelTime":{"label":"De extra reistijd is ongeveer 30 minuten.","shortLabel":"Extra reistijd 30 min.","minimumDurationInMinutes":30,"maximumDurationInMinutes":30},"alternativeTransport":{"label":"er rijden stopbussen","shortLabel":"er rijden stopbussen"},"advices":["Let op! Op zondagochtend 8 december zijn er ook werkzaamheden tussen Alphen a/d Rijn en Gouda.","Tussen Leiden C. en Utrecht C. reis via Schiphol Airport.","Tussen Alphen a/d Rijn en Den Haag C. reis via Gouda."]}],"alternativeTransportTimespans":[{"start":"2024-12-06T00:50:00+0100","end":"2024-12-08T06:00:00+0100","alternativeTransport":{"location":[{"station":{"coordinate":{"lat":52.1661109924316,"lng":4.48166656494141},"countryCode":"NL","name":"Leiden Centraal","stationCode":"LEDN","uicCode":"8400390"},"description":"vanaf het stadsbusstation"},{"station":{"coordinate":{"lat":52.1469459533691,"lng":4.49249982833862},"countryCode":"NL","name":"Leiden Lammenschans","stationCode":"LDL","uicCode":"8400384"},"description":"vanaf de Lammenschansweg"},{"station":{"coordinate":{"lat":52.1244430541992,"lng":4.65777778625488},"countryCode":"NL","name":"Alphen a/d Rijn","stationCode":"APN","uicCode":"8400053"},"description":"vanaf het busstation, centrumzijde"}],"label":"Er rijden stopbussen tussen Leiden Centraal, Leiden Lammenschans en Alphen a/d Rijn.","shortLabel":"Er rijden stopbussen Leiden C. - Lammenschans - Alphen a/d Rijn."}},{"start":"2024-12-08T06:00:00+0100","end":"2024-12-08T11:00:00+0100","alternativeTransport":{"location":[{"station":{"coordinate":{"lat":52.1661109924316,"lng":4.48166656494141},"countryCode":"NL","name":"Leiden Centraal","stationCode":"LEDN","uicCode":"8400390"},"description":"vanaf het stadsbusstation"},{"station":{"coordinate":{"lat":52.1469459533691,"lng":4.49249982833862},"countryCode":"NL","name":"Leiden Lammenschans","stationCode":"LDL","uicCode":"8400384"},"description":"vanaf de Lammenschansweg"},{"station":{"coordinate":{"lat":52.1244430541992,"lng":4.65777778625488},"countryCode":"NL","name":"Alphen a/d Rijn","stationCode":"APN","uicCode":"8400053"},"description":"vanaf het busstation, centrumzijde"},{"station":{"coordinate":{"lat":52.0813903808594,"lng":4.7461109161377},"countryCode":"NL","name":"Bodegraven","stationCode":"BDG","uicCode":"8400121"},"description":"vanaf het Stationsplein"}],"label":"Er rijden stopbussen tussen Leiden Centraal, Leiden Lammenschans, Alphen a/d Rijn en Bodegraven.","shortLabel":"Er rijden stopbussen Leiden C. - Lammenschans - Alphen a/d Rijn - Bodegraven."}},{"start":"2024-12-08T11:00:00+0100","end":"2024-12-10T03:00:00+0100","alternativeTransport":{"location":[{"station":{"coordinate":{"lat":52.1661109924316,"lng":4.48166656494141},"countryCode":"NL","name":"Leiden Centraal","stationCode":"LEDN","uicCode":"8400390"},"description":"vanaf het stadsbusstation"},{"station":{"coordinate":{"lat":52.1469459533691,"lng":4.49249982833862},"countryCode":"NL","name":"Leiden Lammenschans","stationCode":"LDL","uicCode":"8400384"},"description":"vanaf de Lammenschansweg"},{"station":{"coordinate":{"lat":52.1244430541992,"lng":4.65777778625488},"countryCode":"NL","name":"Alphen a/d Rijn","stationCode":"APN","uicCode":"8400053"},"description":"vanaf het busstation, centrumzijde"}],"label":"Er rijden stopbussen tussen Leiden Centraal, Leiden Lammenschans en Alphen a/d Rijn.","shortLabel":"Er rijden stopbussen Leiden C. - Lammenschans - Alphen a/d Rijn."}}]},{"type":"MAINTENANCE","id":"7005554","title":"Amsterdam - Hannover - Berlin.","isActive":false,"local":false,"titleSections":[[{"type":"STATION","value":"Amsterdam C."},{"type":"ICON","value":"MAINTENANCE"},{"type":"STATION","value":"Amersfoort C."},{"type":"STATION","value":"Berlin Hbf"}]],"registrationTime":"2024-12-03T11:54:35+0100","start":"2024-12-06T15:55:00+0100","releaseTime":"2024-12-03T11:54:35+0100","end":"2024-12-06T19:50:00+0100","period":"Vrijdag 6 december 15:55 uur t/m vrijdag 6 december 19:50 uur.","impact":{"value":2},"publicationSections":[{"section":{"stations":[{"coordinate":{"lat":52.3788871765137,"lng":4.90027761459351},"countryCode":"NL","name":"Amsterdam Centraal","stationCode":"ASD","uicCode":"8400058"},{"coordinate":{"lat":52.3605537414551,"lng":4.93111133575439},"countryCode":"NL","name":"Amsterdam Muiderpoort","stationCode":"ASDM","uicCode":"8400060"},{"coordinate":{"lat":52.35274,"lng":4.94855},"countryCode":"NL","name":"Amsterdam Science Park","stationCode":"ASSP","uicCode":"8400235"},{"coordinate":{"lat":52.34515,"lng":4.967566},"countryCode":"NL","name":"Diemen","stationCode":"DMN","uicCode":"8400165"},{"coordinate":{"lat":52.3127784729004,"lng":5.04305553436279},"countryCode":"NL","name":"Weesp","stationCode":"WP","uicCode":"8400685"},{"coordinate":{"lat":52.2802772521973,"lng":5.15694427490234},"countryCode":"NL","name":"Naarden-Bussum","stationCode":"NDB","uicCode":"8400452"},{"coordinate":{"lat":52.2658348083496,"lng":5.16305541992188},"countryCode":"NL","name":"Bussum Zuid","stationCode":"BSMZ","uicCode":"8400145"},{"coordinate":{"lat":52.2380561828613,"lng":5.17388868331909},"countryCode":"NL","name":"Hilversum Media Park","stationCode":"HVSM","uicCode":"8400324"},{"coordinate":{"lat":52.2258338928223,"lng":5.18194437026978},"countryCode":"NL","name":"Hilversum","stationCode":"HVS","uicCode":"8400322"},{"coordinate":{"lat":52.2083320617676,"lng":5.28083324432373},"countryCode":"NL","name":"Baarn","stationCode":"BRN","uicCode":"8400086"},{"coordinate":{"lat":52.1538887023926,"lng":5.37055540084839},"countryCode":"NL","name":"Amersfoort Centraal","stationCode":"AMF","uicCode":"8400055"},{"coordinate":{"lat":52.16652,"lng":5.45718},"countryCode":"NL","name":"Hoevelaken","stationCode":"HVL","uicCode":"8400490"},{"coordinate":{"lat":52.2091674804687,"lng":5.97027778625488},"countryCode":"NL","name":"Apeldoorn","stationCode":"APD","uicCode":"8400066"},{"coordinate":{"lat":52.2152786254883,"lng":6.00444459915161},"countryCode":"NL","name":"Apeldoorn Osseveld","stationCode":"APDO","uicCode":"8400229"},{"coordinate":{"lat":52.2377777099609,"lng":6.09861087799072},"countryCode":"NL","name":"Twello","stationCode":"TWL","uicCode":"8400599"},{"coordinate":{"lat":52.2574996948242,"lng":6.16055536270142},"countryCode":"NL","name":"Deventer","stationCode":"DV","uicCode":"8400173"},{"coordinate":{"lat":52.2502784729004,"lng":6.21444463729858},"countryCode":"NL","name":"Deventer Colmschate","stationCode":"DVC","uicCode":"8400185"},{"coordinate":{"lat":52.2838897705078,"lng":6.42027759552002},"countryCode":"NL","name":"Holten","stationCode":"HON","uicCode":"8400328"},{"coordinate":{"lat":52.3122215270996,"lng":6.52027797698975},"countryCode":"NL","name":"Rijssen","stationCode":"RSN","uicCode":"8400538"},{"coordinate":{"lat":52.3613891601562,"lng":6.59166669845581},"countryCode":"NL","name":"Wierden","stationCode":"WDN","uicCode":"8400691"},{"coordinate":{"lat":52.3580551147461,"lng":6.65388870239258},"countryCode":"NL","name":"Almelo","stationCode":"AML","uicCode":"8400051"},{"coordinate":{"lat":52.3419456481934,"lng":6.66666650772095},"countryCode":"NL","name":"Almelo de Riet","stationCode":"AMRI","uicCode":"8400520"},{"coordinate":{"lat":52.2988891601562,"lng":6.74805545806885},"countryCode":"NL","name":"Borne","stationCode":"BN","uicCode":"8400124"},{"coordinate":{"lat":52.2616653442383,"lng":6.79388904571533},"countryCode":"NL","name":"Hengelo","stationCode":"HGL","uicCode":"8400316"},{"coordinate":{"lat":52.2688903808594,"lng":6.81944465637207},"countryCode":"NL","name":"Hengelo Oost","stationCode":"HGLO","uicCode":"8400312"},{"coordinate":{"lat":52.3063888549805,"lng":6.93472242355347},"countryCode":"NL","name":"Oldenzaal","stationCode":"ODZ","uicCode":"8400483"},{"coordinate":{"lat":52.309685595156,"lng":7.15853691101074},"countryCode":"D","name":"Bad Bentheim","stationCode":"BH","uicCode":"8021156"},{"coordinate":{"lat":52.276299,"lng":7.434255},"countryCode":"D","name":"Rheine","stationCode":"RHEINE","uicCode":"8021067"},{"coordinate":{"lat":52.272851,"lng":8.061781},"countryCode":"D","name":"Osnabrück Hbf","stationCode":"OSNH","uicCode":"8021025"},{"coordinate":{"lat":52.3770401,"lng":9.7416759},"countryCode":"D","name":"Hannover Hbf","stationCode":"HANN","uicCode":"8013552"},{"coordinate":{"lat":52.52503,"lng":13.36946},"countryCode":"D","name":"Berlin Hbf","stationCode":"BERHBL","uicCode":"8065969"}],"direction":"ONE_WAY"},"consequence":{"section":{"stations":[{"coordinate":{"lat":52.3788871765137,"lng":4.90027761459351},"countryCode":"NL","name":"Amsterdam Centraal","stationCode":"ASD","uicCode":"8400058"},{"coordinate":{"lat":52.3605537414551,"lng":4.93111133575439},"countryCode":"NL","name":"Amsterdam Muiderpoort","stationCode":"ASDM","uicCode":"8400060"},{"coordinate":{"lat":52.35274,"lng":4.94855},"countryCode":"NL","name":"Amsterdam Science Park","stationCode":"ASSP","uicCode":"8400235"},{"coordinate":{"lat":52.34515,"lng":4.967566},"countryCode":"NL","name":"Diemen","stationCode":"DMN","uicCode":"8400165"},{"coordinate":{"lat":52.3127784729004,"lng":5.04305553436279},"countryCode":"NL","name":"Weesp","stationCode":"WP","uicCode":"8400685"},{"coordinate":{"lat":52.2802772521973,"lng":5.15694427490234},"countryCode":"NL","name":"Naarden-Bussum","stationCode":"NDB","uicCode":"8400452"},{"coordinate":{"lat":52.2658348083496,"lng":5.16305541992188},"countryCode":"NL","name":"Bussum Zuid","stationCode":"BSMZ","uicCode":"8400145"},{"coordinate":{"lat":52.2380561828613,"lng":5.17388868331909},"countryCode":"NL","name":"Hilversum Media Park","stationCode":"HVSM","uicCode":"8400324"},{"coordinate":{"lat":52.2258338928223,"lng":5.18194437026978},"countryCode":"NL","name":"Hilversum","stationCode":"HVS","uicCode":"8400322"},{"coordinate":{"lat":52.2083320617676,"lng":5.28083324432373},"countryCode":"NL","name":"Baarn","stationCode":"BRN","uicCode":"8400086"},{"coordinate":{"lat":52.1538887023926,"lng":5.37055540084839},"countryCode":"NL","name":"Amersfoort Centraal","stationCode":"AMF","uicCode":"8400055"}],"direction":"ONE_WAY"},"description":"aangepaste internationale dienstregeling","level":"LESS_TRAINS"},"sectionType":"NEIGHBORING_COUNTRY"}],"summaryAdditionalTravelTime":{"label":"U heeft geen langere reistijd.","shortLabel":"Geen extra reistijd."},"timespans":[{"start":"2024-12-06T15:55:00+0100","end":"2024-12-06T19:50:00+0100","period":"Vrijdag 6 december 15:55 uur t/m vrijdag 6 december 19:50 uur.","situation":{"label":"Door werkzaamheden: van Amersfoort Centraal naar Amsterdam Centraal is de internationale dienstregeling aangepast."},"cause":{"label":"werkzaamheden"},"additionalTravelTime":{"label":"U heeft geen langere reistijd.","shortLabel":"Geen extra reistijd."},"advices":[]}],"alternativeTransportTimespans":[]},{"type":"MAINTENANCE","id":"7005665","title":"Arnhem - Duisburg - Düsseldorf.","isActive":false,"local":false,"titleSections":[[{"type":"STATION","value":"Arnhem C."},{"type":"ICON","value":"MAINTENANCE"},{"type":"STATION","value":"Oberhausen Hbf"},{"type":"STATION","value":"Düsseldorf Hbf"}]],"registrationTime":"2024-11-28T17:45:53+0100","start":"2024-12-06T19:00:00+0100","releaseTime":"2024-11-28T17:45:53+0100","end":"2024-12-09T02:00:00+0100","period":"Vrijdag 6 december 19:00 uur t/m maandag 9 december 2:00 uur.","impact":{"value":2},"publicationSections":[{"section":{"stations":[{"coordinate":{"lat":51.9850006103516,"lng":5.89916658401489},"countryCode":"NL","name":"Arnhem Centraal","stationCode":"AH","uicCode":"8400071"},{"coordinate":{"lat":51.985279083252,"lng":5.91944456100464},"countryCode":"NL","name":"Arnhem Velperpoort","stationCode":"AHP","uicCode":"8400072"},{"coordinate":{"lat":51.96286,"lng":5.9695},"countryCode":"NL","name":"Westervoort","stationCode":"WTV","uicCode":"8400688"},{"coordinate":{"lat":51.9433326721191,"lng":6.01472234725952},"countryCode":"NL","name":"Duiven","stationCode":"DVN","uicCode":"8400193"},{"coordinate":{"lat":51.9230537414551,"lng":6.07194423675537},"countryCode":"NL","name":"Zevenaar","stationCode":"ZV","uicCode":"8400735"},{"coordinate":{"lat":51.8743,"lng":6.15417},"countryCode":"D","name":"Emmerich-Elten","stationCode":"EL","uicCode":"8033415"},{"coordinate":{"lat":51.834283,"lng":6.255718},"countryCode":"D","name":"Emmerich","stationCode":"EM","uicCode":"8010288"},{"coordinate":{"lat":51.655833,"lng":6.627222},"countryCode":"D","name":"Wesel","stationCode":"WESEL","uicCode":"8010275"},{"coordinate":{"lat":51.47512,"lng":6.852038},"countryCode":"D","name":"Oberhausen Hbf","stationCode":"OBERH","uicCode":"8010263"},{"coordinate":{"lat":51.4297785713316,"lng":6.77590370178222},"countryCode":"D","name":"Duisburg Hbf","stationCode":"DUISB","uicCode":"8010316"},{"coordinate":{"lat":51.292009,"lng":6.786836},"countryCode":"D","name":"Düsseldorf Flughafen","stationCode":"KDFFH","uicCode":"8039904"},{"coordinate":{"lat":51.220146,"lng":6.793137},"countryCode":"D","name":"Düsseldorf Hbf","stationCode":"DUSSEL","uicCode":"8008094"}],"direction":"BOTH"},"consequence":{"section":{"stations":[{"coordinate":{"lat":51.9850006103516,"lng":5.89916658401489},"countryCode":"NL","name":"Arnhem Centraal","stationCode":"AH","uicCode":"8400071"},{"coordinate":{"lat":51.985279083252,"lng":5.91944456100464},"countryCode":"NL","name":"Arnhem Velperpoort","stationCode":"AHP","uicCode":"8400072"},{"coordinate":{"lat":51.96286,"lng":5.9695},"countryCode":"NL","name":"Westervoort","stationCode":"WTV","uicCode":"8400688"},{"coordinate":{"lat":51.9433326721191,"lng":6.01472234725952},"countryCode":"NL","name":"Duiven","stationCode":"DVN","uicCode":"8400193"},{"coordinate":{"lat":51.9230537414551,"lng":6.07194423675537},"countryCode":"NL","name":"Zevenaar","stationCode":"ZV","uicCode":"8400735"},{"coordinate":{"lat":51.8743,"lng":6.15417},"countryCode":"D","name":"Emmerich-Elten","stationCode":"EL","uicCode":"8033415"},{"coordinate":{"lat":51.834283,"lng":6.255718},"countryCode":"D","name":"Emmerich","stationCode":"EM","uicCode":"8010288"},{"coordinate":{"lat":51.655833,"lng":6.627222},"countryCode":"D","name":"Wesel","stationCode":"WESEL","uicCode":"8010275"},{"coordinate":{"lat":51.47512,"lng":6.852038},"countryCode":"D","name":"Oberhausen Hbf","stationCode":"OBERH","uicCode":"8010263"}],"direction":"BOTH"},"description":"er rijden bussen","level":"LESS_TRAINS"},"sectionType":"NEIGHBORING_COUNTRY"}],"summaryAdditionalTravelTime":{"label":"De extra reistijd is ongeveer 30 minuten.","shortLabel":"Extra reistijd 30 min.","minimumDurationInMinutes":30,"maximumDurationInMinutes":30},"timespans":[{"start":"2024-12-06T19:00:00+0100","end":"2024-12-09T02:00:00+0100","period":"Vrijdag 6 december 19:00 uur t/m maandag 9 december 2:00 uur.","situation":{"label":"Door werkzaamheden: tussen Arnhem Centraal en Oberhausen Hbf rijden er bussen."},"cause":{"label":"werkzaamheden"},"additionalTravelTime":{"label":"De extra reistijd is ongeveer 30 minuten.","shortLabel":"Extra reistijd 30 min.","minimumDurationInMinutes":30,"maximumDurationInMinutes":30},"alternativeTransport":{"label":"er rijden snelbussen","shortLabel":"er rijden snelbussen"},"advices":["In Emmerich kunt u overstappen op een stopbus naar Wesel en Oberhausen Hbf voor de tussengelegen Duitse stations."]}],"alternativeTransportTimespans":[{"start":"2024-12-06T19:00:00+0100","end":"2024-12-09T02:00:00+0100","alternativeTransport":{"location":[{"station":{"coordinate":{"lat":51.9850006103516,"lng":5.89916658401489},"countryCode":"NL","name":"Arnhem Centraal","stationCode":"AH","uicCode":"8400071"},"description":"vanaf de bus-terminal"},{"station":{"coordinate":{"lat":51.9230537414551,"lng":6.07194423675537},"countryCode":"NL","name":"Zevenaar","stationCode":"ZV","uicCode":"8400735"},"description":"vanaf het stationsplein bij de Kiss & Ride plaatsen, aan beide zijden van de weg"},{"station":{"coordinate":{"lat":51.8743,"lng":6.15417},"countryCode":"D","name":"Emmerich-Elten","stationCode":"EL","uicCode":"8033415"},"description":"volg de aanwijzingen op het station"},{"station":{"coordinate":{"lat":51.834283,"lng":6.255718},"countryCode":"D","name":"Emmerich","stationCode":"EM","uicCode":"8010288"},"description":"volg de aanwijzingen op het station"},{"station":{"coordinate":{"lat":51.655833,"lng":6.627222},"countryCode":"D","name":"Wesel","stationCode":"WESEL","uicCode":"8010275"},"description":"volg de aanwijzingen op het station"},{"station":{"coordinate":{"lat":51.47512,"lng":6.852038},"countryCode":"D","name":"Oberhausen Hbf","stationCode":"OBERH","uicCode":"8010263"},"description":"volg de aanwijzingen op het station"}],"label":"Er rijden snelbussen tussen Arnhem Centraal, Zevenaar, Emmerich-Elten, Emmerich, Wesel en Oberhausen Hbf.","shortLabel":"Er rijden snelbussen Arnhem C. - Zevenaar - Emmerich-Elten - Emmerich - Wesel - Oberhausen Hbf."}}]},{"type":"MAINTENANCE","id":"7005690","title":"Sittard - Heerlen - Kerkrade.","isActive":false,"local":false,"titleSections":[[{"type":"STATION","value":"Sittard"},{"type":"ICON","value":"MAINTENANCE"},{"type":"STATION","value":"Heerlen"},{"type":"STATION","value":"Kerkrade C."}]],"registrationTime":"2024-12-05T12:33:11+0100","start":"2024-12-06T23:00:00+0100","releaseTime":"2024-12-05T12:33:11+0100","end":"2024-12-07T00:30:00+0100","period":"Vrijdag 6 december 23:00 uur t/m zaterdag 7 december 0:30 uur.","impact":{"value":2},"publicationSections":[{"section":{"stations":[{"coordinate":{"lat":51.0016670227051,"lng":5.85861110687256},"countryCode":"NL","name":"Sittard","stationCode":"STD","uicCode":"8400564"},{"coordinate":{"lat":50.9669456481934,"lng":5.84305572509766},"countryCode":"NL","name":"Geleen Oost","stationCode":"GLN","uicCode":"8400246"},{"coordinate":{"lat":50.94327,"lng":5.850529},"countryCode":"NL","name":"Spaubeek","stationCode":"SBK","uicCode":"8400572"},{"coordinate":{"lat":50.9391670227051,"lng":5.87444448471069},"countryCode":"NL","name":"Schinnen","stationCode":"SN","uicCode":"8400554"},{"coordinate":{"lat":50.9194450378418,"lng":5.89277791976929},"countryCode":"NL","name":"Nuth","stationCode":"NH","uicCode":"8400467"},{"coordinate":{"lat":50.9055557250977,"lng":5.93055534362793},"countryCode":"NL","name":"Hoensbroek","stationCode":"HB","uicCode":"8400326"},{"coordinate":{"lat":50.8908348083496,"lng":5.97499990463257},"countryCode":"NL","name":"Heerlen","stationCode":"HRL","uicCode":"8400307"},{"coordinate":{"lat":50.8963890075684,"lng":6.01916646957398},"countryCode":"NL","name":"Landgraaf","stationCode":"LG","uicCode":"8400548"},{"coordinate":{"lat":50.8905563354492,"lng":6.04500007629395},"countryCode":"NL","name":"Eygelshoven","stationCode":"EGH","uicCode":"8400338"},{"coordinate":{"lat":50.8761100769043,"lng":6.05972242355347},"countryCode":"NL","name":"Chevremont","stationCode":"CVM","uicCode":"8400152"},{"coordinate":{"lat":50.8616676330566,"lng":6.05749988555908},"countryCode":"NL","name":"Kerkrade Centrum","stationCode":"KRD","uicCode":"8400355"}],"direction":"BOTH"},"consequence":{"section":{"stations":[{"coordinate":{"lat":51.0016670227051,"lng":5.85861110687256},"countryCode":"NL","name":"Sittard","stationCode":"STD","uicCode":"8400564"},{"coordinate":{"lat":50.9669456481934,"lng":5.84305572509766},"countryCode":"NL","name":"Geleen Oost","stationCode":"GLN","uicCode":"8400246"},{"coordinate":{"lat":50.94327,"lng":5.850529},"countryCode":"NL","name":"Spaubeek","stationCode":"SBK","uicCode":"8400572"},{"coordinate":{"lat":50.9391670227051,"lng":5.87444448471069},"countryCode":"NL","name":"Schinnen","stationCode":"SN","uicCode":"8400554"},{"coordinate":{"lat":50.9194450378418,"lng":5.89277791976929},"countryCode":"NL","name":"Nuth","stationCode":"NH","uicCode":"8400467"},{"coordinate":{"lat":50.9055557250977,"lng":5.93055534362793},"countryCode":"NL","name":"Hoensbroek","stationCode":"HB","uicCode":"8400326"},{"coordinate":{"lat":50.8908348083496,"lng":5.97499990463257},"countryCode":"NL","name":"Heerlen","stationCode":"HRL","uicCode":"8400307"}],"direction":"BOTH"},"description":"minder stoptreinen","level":"LESS_TRAINS"},"sectionType":"NL"}],"timespans":[{"start":"2024-12-06T23:00:00+0100","end":"2024-12-07T00:30:00+0100","period":"Vrijdag 6 december 23:00 uur t/m zaterdag 7 december 0:30 uur.","situation":{"label":"Door beperkingen in de materieelinzet: tussen Sittard en Heerlen rijden er minder stoptreinen."},"cause":{"label":"beperkingen materieel"},"advices":[]}],"alternativeTransportTimespans":[]},{"type":"MAINTENANCE","id":"7005602","title":"Amsterdam - Zaandam - Alkmaar; Amsterdam - Enkhuizen.","isActive":false,"local":false,"titleSections":[[{"type":"STATION","value":"Amsterdam C."},{"type":"ICON","value":"MAINTENANCE"},{"type":"STATION","value":"Sloterdijk"},{"type":"STATION","value":"Alkmaar"}],[{"type":"STATION","value":"Amsterdam C."},{"type":"ICON","value":"MAINTENANCE"},{"type":"STATION","value":"Sloterdijk"},{"type":"STATION","value":"Enkhuizen"}]],"registrationTime":"2024-11-11T13:54:21+0100","start":"2024-12-06T23:30:00+0100","releaseTime":"2024-11-11T13:54:21+0100","end":"2024-12-09T02:00:00+0100","period":"Vrijdag 6 december 23:30 uur t/m maandag 9 december 2:00 uur.","impact":{"value":2},"publicationSections":[{"section":{"stations":[{"coordinate":{"lat":52.3788871765137,"lng":4.90027761459351},"countryCode":"NL","name":"Amsterdam Centraal","stationCode":"ASD","uicCode":"8400058"},{"coordinate":{"lat":52.3888893127441,"lng":4.83777761459351},"countryCode":"NL","name":"Amsterdam Sloterdijk","stationCode":"ASS","uicCode":"8400059"},{"coordinate":{"lat":52.4388885498047,"lng":4.81361103057861},"countryCode":"NL","name":"Zaandam","stationCode":"ZD","uicCode":"8400731"},{"coordinate":{"lat":52.458610534668,"lng":4.80555534362793},"countryCode":"NL","name":"Koog aan de Zaan","stationCode":"KZ","uicCode":"8400363"},{"coordinate":{"lat":52.469165802002,"lng":4.80499982833862},"countryCode":"NL","name":"Zaandijk Zaanse Schans","stationCode":"ZZS","uicCode":"8400364"},{"coordinate":{"lat":52.4891662597656,"lng":4.79222202301025},"countryCode":"NL","name":"Wormerveer","stationCode":"WM","uicCode":"8400707"},{"coordinate":{"lat":52.49511,"lng":4.75417},"countryCode":"NL","name":"Krommenie-Assendelft","stationCode":"KMA","uicCode":"8400368"},{"coordinate":{"lat":52.5216674804687,"lng":4.70166683197022},"countryCode":"NL","name":"Uitgeest","stationCode":"UTG","uicCode":"8400615"},{"coordinate":{"lat":52.5458335876465,"lng":4.65861129760742},"countryCode":"NL","name":"Castricum","stationCode":"CAS","uicCode":"8400151"},{"coordinate":{"lat":52.5994453430176,"lng":4.70055532455444},"countryCode":"NL","name":"Heiloo","stationCode":"HLO","uicCode":"8400309"},{"coordinate":{"lat":52.6377792358398,"lng":4.73972225189209},"countryCode":"NL","name":"Alkmaar","stationCode":"AMR","uicCode":"8400050"}],"direction":"BOTH"},"consequence":{"section":{"stations":[{"coordinate":{"lat":52.3788871765137,"lng":4.90027761459351},"countryCode":"NL","name":"Amsterdam Centraal","stationCode":"ASD","uicCode":"8400058"},{"coordinate":{"lat":52.3888893127441,"lng":4.83777761459351},"countryCode":"NL","name":"Amsterdam Sloterdijk","stationCode":"ASS","uicCode":"8400059"}],"direction":"BOTH"},"description":"minder treinen","level":"LESS_TRAINS"},"sectionType":"NL"},{"section":{"stations":[{"coordinate":{"lat":52.3788871765137,"lng":4.90027761459351},"countryCode":"NL","name":"Amsterdam Centraal","stationCode":"ASD","uicCode":"8400058"},{"coordinate":{"lat":52.3888893127441,"lng":4.83777761459351},"countryCode":"NL","name":"Amsterdam Sloterdijk","stationCode":"ASS","uicCode":"8400059"},{"coordinate":{"lat":52.4388885498047,"lng":4.81361103057861},"countryCode":"NL","name":"Zaandam","stationCode":"ZD","uicCode":"8400731"},{"coordinate":{"lat":52.4566650390625,"lng":4.82027769088745},"countryCode":"NL","name":"Zaandam Kogerveld","stationCode":"ZDK","uicCode":"8400728"},{"coordinate":{"lat":52.4965906325416,"lng":4.93562936782836},"countryCode":"NL","name":"Purmerend Weidevenne","stationCode":"PMW","uicCode":"8400499"},{"coordinate":{"lat":52.5030555725098,"lng":4.95361089706421},"countryCode":"NL","name":"Purmerend","stationCode":"PMR","uicCode":"8400508"},{"coordinate":{"lat":52.5113906860352,"lng":4.96833324432373},"countryCode":"NL","name":"Purmerend Overwhere","stationCode":"PMO","uicCode":"8400506"},{"coordinate":{"lat":52.6447219848633,"lng":5.05555534362793},"countryCode":"NL","name":"Hoorn","stationCode":"HN","uicCode":"8400337"},{"coordinate":{"lat":52.6536102294922,"lng":5.08555555343628},"countryCode":"NL","name":"Hoorn Kersenboogerd","stationCode":"HNK","uicCode":"8400336"},{"coordinate":{"lat":52.6905555725098,"lng":5.18388891220093},"countryCode":"NL","name":"Hoogkarspel","stationCode":"HKS","uicCode":"8400334"},{"coordinate":{"lat":52.6949996948242,"lng":5.23777770996094},"countryCode":"NL","name":"Bovenkarspel-Grootebroek","stationCode":"BKG","uicCode":"8400127"},{"coordinate":{"lat":52.6961097717285,"lng":5.25277757644653},"countryCode":"NL","name":"Bovenkarspel Flora","stationCode":"BKF","uicCode":"8400230"},{"coordinate":{"lat":52.6991653442383,"lng":5.28638887405396},"countryCode":"NL","name":"Enkhuizen","stationCode":"EKZ","uicCode":"8400210"}],"direction":"BOTH"},"consequence":{"section":{"stations":[{"coordinate":{"lat":52.3788871765137,"lng":4.90027761459351},"countryCode":"NL","name":"Amsterdam Centraal","stationCode":"ASD","uicCode":"8400058"},{"coordinate":{"lat":52.3888893127441,"lng":4.83777761459351},"countryCode":"NL","name":"Amsterdam Sloterdijk","stationCode":"ASS","uicCode":"8400059"}],"direction":"BOTH"},"description":"minder treinen","level":"LESS_TRAINS"},"sectionType":"NL"}],"summaryAdditionalTravelTime":{"label":"De extra reistijd is ongeveer 15 minuten.","shortLabel":"Extra reistijd 15 min.","minimumDurationInMinutes":15,"maximumDurationInMinutes":15},"timespans":[{"start":"2024-12-06T23:30:00+0100","end":"2024-12-09T02:00:00+0100","period":"Vrijdag 6 december 23:30 uur t/m maandag 9 december 2:00 uur.","situation":{"label":"Door werkzaamheden: tussen Amsterdam Centraal en Amsterdam Sloterdijk rijden er minder treinen."},"cause":{"label":"werkzaamheden"},"additionalTravelTime":{"label":"De extra reistijd is ongeveer 15 minuten.","shortLabel":"Extra reistijd 15 min.","minimumDurationInMinutes":15,"maximumDurationInMinutes":15},"advices":["Houd rekening met een extra overstap in Amsterdam Sloterdijk."]}],"alternativeTransportTimespans":[]},{"type":"MAINTENANCE","id":"7005555","title":"Amsterdam - Hannover - Berlin.","isActive":false,"local":false,"titleSections":[[{"type":"STATION","value":"Amsterdam C."},{"type":"ICON","value":"MAINTENANCE"},{"type":"STATION","value":"Amersfoort C."},{"type":"STATION","value":"Berlin Hbf"}]],"registrationTime":"2024-11-20T13:24:18+0100","start":"2024-12-07T04:00:00+0100","releaseTime":"2024-11-20T13:24:18+0100","end":"2024-12-09T02:00:00+0100","period":"Zaterdag 7 december 4:00 uur t/m maandag 9 december 2:00 uur.","impact":{"value":2},"publicationSections":[{"section":{"stations":[{"coordinate":{"lat":52.3788871765137,"lng":4.90027761459351},"countryCode":"NL","name":"Amsterdam Centraal","stationCode":"ASD","uicCode":"8400058"},{"coordinate":{"lat":52.3605537414551,"lng":4.93111133575439},"countryCode":"NL","name":"Amsterdam Muiderpoort","stationCode":"ASDM","uicCode":"8400060"},{"coordinate":{"lat":52.35274,"lng":4.94855},"countryCode":"NL","name":"Amsterdam Science Park","stationCode":"ASSP","uicCode":"8400235"},{"coordinate":{"lat":52.34515,"lng":4.967566},"countryCode":"NL","name":"Diemen","stationCode":"DMN","uicCode":"8400165"},{"coordinate":{"lat":52.3127784729004,"lng":5.04305553436279},"countryCode":"NL","name":"Weesp","stationCode":"WP","uicCode":"8400685"},{"coordinate":{"lat":52.2802772521973,"lng":5.15694427490234},"countryCode":"NL","name":"Naarden-Bussum","stationCode":"NDB","uicCode":"8400452"},{"coordinate":{"lat":52.2658348083496,"lng":5.16305541992188},"countryCode":"NL","name":"Bussum Zuid","stationCode":"BSMZ","uicCode":"8400145"},{"coordinate":{"lat":52.2380561828613,"lng":5.17388868331909},"countryCode":"NL","name":"Hilversum Media Park","stationCode":"HVSM","uicCode":"8400324"},{"coordinate":{"lat":52.2258338928223,"lng":5.18194437026978},"countryCode":"NL","name":"Hilversum","stationCode":"HVS","uicCode":"8400322"},{"coordinate":{"lat":52.2083320617676,"lng":5.28083324432373},"countryCode":"NL","name":"Baarn","stationCode":"BRN","uicCode":"8400086"},{"coordinate":{"lat":52.1538887023926,"lng":5.37055540084839},"countryCode":"NL","name":"Amersfoort Centraal","stationCode":"AMF","uicCode":"8400055"},{"coordinate":{"lat":52.16652,"lng":5.45718},"countryCode":"NL","name":"Hoevelaken","stationCode":"HVL","uicCode":"8400490"},{"coordinate":{"lat":52.2091674804687,"lng":5.97027778625488},"countryCode":"NL","name":"Apeldoorn","stationCode":"APD","uicCode":"8400066"},{"coordinate":{"lat":52.2152786254883,"lng":6.00444459915161},"countryCode":"NL","name":"Apeldoorn Osseveld","stationCode":"APDO","uicCode":"8400229"},{"coordinate":{"lat":52.2377777099609,"lng":6.09861087799072},"countryCode":"NL","name":"Twello","stationCode":"TWL","uicCode":"8400599"},{"coordinate":{"lat":52.2574996948242,"lng":6.16055536270142},"countryCode":"NL","name":"Deventer","stationCode":"DV","uicCode":"8400173"},{"coordinate":{"lat":52.2502784729004,"lng":6.21444463729858},"countryCode":"NL","name":"Deventer Colmschate","stationCode":"DVC","uicCode":"8400185"},{"coordinate":{"lat":52.2838897705078,"lng":6.42027759552002},"countryCode":"NL","name":"Holten","stationCode":"HON","uicCode":"8400328"},{"coordinate":{"lat":52.3122215270996,"lng":6.52027797698975},"countryCode":"NL","name":"Rijssen","stationCode":"RSN","uicCode":"8400538"},{"coordinate":{"lat":52.3613891601562,"lng":6.59166669845581},"countryCode":"NL","name":"Wierden","stationCode":"WDN","uicCode":"8400691"},{"coordinate":{"lat":52.3580551147461,"lng":6.65388870239258},"countryCode":"NL","name":"Almelo","stationCode":"AML","uicCode":"8400051"},{"coordinate":{"lat":52.3419456481934,"lng":6.66666650772095},"countryCode":"NL","name":"Almelo de Riet","stationCode":"AMRI","uicCode":"8400520"},{"coordinate":{"lat":52.2988891601562,"lng":6.74805545806885},"countryCode":"NL","name":"Borne","stationCode":"BN","uicCode":"8400124"},{"coordinate":{"lat":52.2616653442383,"lng":6.79388904571533},"countryCode":"NL","name":"Hengelo","stationCode":"HGL","uicCode":"8400316"},{"coordinate":{"lat":52.2688903808594,"lng":6.81944465637207},"countryCode":"NL","name":"Hengelo Oost","stationCode":"HGLO","uicCode":"8400312"},{"coordinate":{"lat":52.3063888549805,"lng":6.93472242355347},"countryCode":"NL","name":"Oldenzaal","stationCode":"ODZ","uicCode":"8400483"},{"coordinate":{"lat":52.309685595156,"lng":7.15853691101074},"countryCode":"D","name":"Bad Bentheim","stationCode":"BH","uicCode":"8021156"},{"coordinate":{"lat":52.276299,"lng":7.434255},"countryCode":"D","name":"Rheine","stationCode":"RHEINE","uicCode":"8021067"},{"coordinate":{"lat":52.272851,"lng":8.061781},"countryCode":"D","name":"Osnabrück Hbf","stationCode":"OSNH","uicCode":"8021025"},{"coordinate":{"lat":52.3770401,"lng":9.7416759},"countryCode":"D","name":"Hannover Hbf","stationCode":"HANN","uicCode":"8013552"},{"coordinate":{"lat":52.52503,"lng":13.36946},"countryCode":"D","name":"Berlin Hbf","stationCode":"BERHBL","uicCode":"8065969"}],"direction":"BOTH"},"consequence":{"section":{"stations":[{"coordinate":{"lat":52.3788871765137,"lng":4.90027761459351},"countryCode":"NL","name":"Amsterdam Centraal","stationCode":"ASD","uicCode":"8400058"},{"coordinate":{"lat":52.3605537414551,"lng":4.93111133575439},"countryCode":"NL","name":"Amsterdam Muiderpoort","stationCode":"ASDM","uicCode":"8400060"},{"coordinate":{"lat":52.35274,"lng":4.94855},"countryCode":"NL","name":"Amsterdam Science Park","stationCode":"ASSP","uicCode":"8400235"},{"coordinate":{"lat":52.34515,"lng":4.967566},"countryCode":"NL","name":"Diemen","stationCode":"DMN","uicCode":"8400165"},{"coordinate":{"lat":52.3127784729004,"lng":5.04305553436279},"countryCode":"NL","name":"Weesp","stationCode":"WP","uicCode":"8400685"},{"coordinate":{"lat":52.2802772521973,"lng":5.15694427490234},"countryCode":"NL","name":"Naarden-Bussum","stationCode":"NDB","uicCode":"8400452"},{"coordinate":{"lat":52.2658348083496,"lng":5.16305541992188},"countryCode":"NL","name":"Bussum Zuid","stationCode":"BSMZ","uicCode":"8400145"},{"coordinate":{"lat":52.2380561828613,"lng":5.17388868331909},"countryCode":"NL","name":"Hilversum Media Park","stationCode":"HVSM","uicCode":"8400324"},{"coordinate":{"lat":52.2258338928223,"lng":5.18194437026978},"countryCode":"NL","name":"Hilversum","stationCode":"HVS","uicCode":"8400322"},{"coordinate":{"lat":52.2083320617676,"lng":5.28083324432373},"countryCode":"NL","name":"Baarn","stationCode":"BRN","uicCode":"8400086"},{"coordinate":{"lat":52.1538887023926,"lng":5.37055540084839},"countryCode":"NL","name":"Amersfoort Centraal","stationCode":"AMF","uicCode":"8400055"}],"direction":"BOTH"},"description":"aangepaste internationale dienstregeling","level":"LESS_TRAINS"},"sectionType":"NEIGHBORING_COUNTRY"}],"summaryAdditionalTravelTime":{"label":"U heeft geen langere reistijd.","shortLabel":"Geen extra reistijd."},"timespans":[{"start":"2024-12-07T04:00:00+0100","end":"2024-12-09T02:00:00+0100","period":"Zaterdag 7 december 4:00 uur t/m maandag 9 december 2:00 uur.","situation":{"label":"Door werkzaamheden: tussen Amsterdam Centraal en Amersfoort Centraal is de internationale dienstregeling aangepast."},"cause":{"label":"werkzaamheden"},"additionalTravelTime":{"label":"U heeft geen langere reistijd.","shortLabel":"Geen extra reistijd."},"advices":["Intercity Berlin rijdt niet tussen Amsterdam Centraal en Amersfoort Centraal."]}],"alternativeTransportTimespans":[]},{"type":"MAINTENANCE","id":"7005627","title":"Schiphol - Rotterdam.","isActive":false,"local":false,"titleSections":[[{"type":"STATION","value":"Schiphol Airport"},{"type":"STATION","value":"Hoofddorp"},{"type":"ICON","value":"MAINTENANCE"},{"type":"STATION","value":"Rotterdam C."}]],"registrationTime":"2024-11-20T12:07:55+0100","start":"2024-12-07T04:00:00+0100","releaseTime":"2024-11-20T12:07:55+0100","end":"2024-12-09T02:00:00+0100","period":"Zaterdag 7 december 4:00 uur t/m maandag 9 december 2:00 uur.","impact":{"value":2},"publicationSections":[{"section":{"stations":[{"coordinate":{"lat":52.3094444274902,"lng":4.76194429397583},"countryCode":"NL","name":"Schiphol Airport","stationCode":"SHL","uicCode":"8400561"},{"coordinate":{"lat":52.2933349609375,"lng":4.70055532455444},"countryCode":"NL","name":"Hoofddorp","stationCode":"HFD","uicCode":"8400332"},{"coordinate":{"lat":51.9249992370605,"lng":4.46888875961304},"countryCode":"NL","name":"Rotterdam Centraal","stationCode":"RTD","uicCode":"8400530"}],"direction":"BOTH"},"consequence":{"section":{"stations":[{"coordinate":{"lat":52.2933349609375,"lng":4.70055532455444},"countryCode":"NL","name":"Hoofddorp","stationCode":"HFD","uicCode":"8400332"},{"coordinate":{"lat":51.9249992370605,"lng":4.46888875961304},"countryCode":"NL","name":"Rotterdam Centraal","stationCode":"RTD","uicCode":"8400530"}],"direction":"BOTH"},"description":"geen treinen op de HSL","level":"LESS_TRAINS"},"sectionType":"HSL"}],"summaryAdditionalTravelTime":{"label":"De extra reistijd is ongeveer 30 minuten.","shortLabel":"Extra reistijd 30 min.","minimumDurationInMinutes":30,"maximumDurationInMinutes":30},"timespans":[{"start":"2024-12-07T04:00:00+0100","end":"2024-12-09T02:00:00+0100","period":"Zaterdag 7 december 4:00 uur t/m maandag 9 december 2:00 uur.","situation":{"label":"Door werkzaamheden aan de Hogesnelheidslijn: tussen Hoofddorp en Rotterdam Centraal rijden er op de hogesnelheidslijn geen treinen."},"cause":{"label":"werkzaamheden HSL"},"additionalTravelTime":{"label":"De extra reistijd is ongeveer 30 minuten.","shortLabel":"Extra reistijd 30 min.","minimumDurationInMinutes":30,"maximumDurationInMinutes":30},"advices":["Maak gebruik van de extra Intercity Amsterdam C-Rotterdam C via Schiphol, Leiden C en Den Haag HS.","Tussen Schiphol Airport en Rotterdam C. reis via Den Haag HS."]}],"alternativeTransportTimespans":[]},{"type":"MAINTENANCE","id":"7005651","title":"Groningen - Bad Nieuweschans; Groningen - Veendam.","isActive":false,"local":false,"titleSections":[[{"type":"STATION","value":"Groningen"},{"type":"ICON","value":"MAINTENANCE"},{"type":"STATION","value":"Bad Nieuweschans"}],[{"type":"STATION","value":"Groningen"},{"type":"ICON","value":"MAINTENANCE"},{"type":"STATION","value":"Veendam"}]],"registrationTime":"2024-12-03T09:22:07+0100","start":"2024-12-07T04:00:00+0100","releaseTime":"2024-12-03T09:22:07+0100","end":"2024-12-09T02:00:00+0100","period":"Zaterdag 7 december 4:00 uur t/m maandag 9 december 2:00 uur.","impact":{"value":4},"publicationSections":[{"section":{"stations":[{"coordinate":{"lat":53.2105560302734,"lng":6.56472206115723},"countryCode":"NL","name":"Groningen","stationCode":"GN","uicCode":"8400263"},{"coordinate":{"lat":53.20480027,"lng":6.5854178},"countryCode":"NL","name":"Groningen Europapark","stationCode":"GERP","uicCode":"8400238"},{"coordinate":{"lat":53.1617362,"lng":6.7220882},"countryCode":"NL","name":"Kropswolde","stationCode":"KW","uicCode":"8400369"},{"coordinate":{"lat":53.1607232,"lng":6.7402989},"countryCode":"NL","name":"Martenshoek","stationCode":"MTH","uicCode":"8400430"},{"coordinate":{"lat":53.1598181316756,"lng":6.77075386047363},"countryCode":"NL","name":"Hoogezand-Sappemeer","stationCode":"HGZ","uicCode":"8400331"},{"coordinate":{"lat":53.1596122800056,"lng":6.8679141998291},"countryCode":"NL","name":"Zuidbroek","stationCode":"ZB","uicCode":"8400742"},{"coordinate":{"lat":53.1655362,"lng":6.9777775},"countryCode":"NL","name":"Scheemda","stationCode":"SDA","uicCode":"8400551"},{"coordinate":{"lat":53.1392377,"lng":7.035101},"countryCode":"NL","name":"Winschoten","stationCode":"WS","uicCode":"8400696"},{"coordinate":{"lat":53.1844,"lng":7.19937},"countryCode":"NL","name":"Bad Nieuweschans","stationCode":"NSCH","uicCode":"8400457"}],"direction":"BOTH"},"consequence":{"section":{"stations":[{"coordinate":{"lat":53.2105560302734,"lng":6.56472206115723},"countryCode":"NL","name":"Groningen","stationCode":"GN","uicCode":"8400263"},{"coordinate":{"lat":53.20480027,"lng":6.5854178},"countryCode":"NL","name":"Groningen Europapark","stationCode":"GERP","uicCode":"8400238"},{"coordinate":{"lat":53.1617362,"lng":6.7220882},"countryCode":"NL","name":"Kropswolde","stationCode":"KW","uicCode":"8400369"},{"coordinate":{"lat":53.1607232,"lng":6.7402989},"countryCode":"NL","name":"Martenshoek","stationCode":"MTH","uicCode":"8400430"},{"coordinate":{"lat":53.1598181316756,"lng":6.77075386047363},"countryCode":"NL","name":"Hoogezand-Sappemeer","stationCode":"HGZ","uicCode":"8400331"},{"coordinate":{"lat":53.1596122800056,"lng":6.8679141998291},"countryCode":"NL","name":"Zuidbroek","stationCode":"ZB","uicCode":"8400742"},{"coordinate":{"lat":53.1655362,"lng":6.9777775},"countryCode":"NL","name":"Scheemda","stationCode":"SDA","uicCode":"8400551"},{"coordinate":{"lat":53.1392377,"lng":7.035101},"countryCode":"NL","name":"Winschoten","stationCode":"WS","uicCode":"8400696"},{"coordinate":{"lat":53.1844,"lng":7.19937},"countryCode":"NL","name":"Bad Nieuweschans","stationCode":"NSCH","uicCode":"8400457"}],"direction":"BOTH"},"description":"er rijden bussen","level":"LESS_TRAINS"},"sectionType":"NL"},{"section":{"stations":[{"coordinate":{"lat":53.2105560302734,"lng":6.56472206115723},"countryCode":"NL","name":"Groningen","stationCode":"GN","uicCode":"8400263"},{"coordinate":{"lat":53.20480027,"lng":6.5854178},"countryCode":"NL","name":"Groningen Europapark","stationCode":"GERP","uicCode":"8400238"},{"coordinate":{"lat":53.1617362,"lng":6.7220882},"countryCode":"NL","name":"Kropswolde","stationCode":"KW","uicCode":"8400369"},{"coordinate":{"lat":53.1607232,"lng":6.7402989},"countryCode":"NL","name":"Martenshoek","stationCode":"MTH","uicCode":"8400430"},{"coordinate":{"lat":53.1598181316756,"lng":6.77075386047363},"countryCode":"NL","name":"Hoogezand-Sappemeer","stationCode":"HGZ","uicCode":"8400331"},{"coordinate":{"lat":53.1596122800056,"lng":6.8679141998291},"countryCode":"NL","name":"Zuidbroek","stationCode":"ZB","uicCode":"8400742"},{"coordinate":{"lat":53.10324,"lng":6.88475},"countryCode":"NL","name":"Veendam","stationCode":"VDM","uicCode":"8400636"}],"direction":"BOTH"},"consequence":{"section":{"stations":[{"coordinate":{"lat":53.2105560302734,"lng":6.56472206115723},"countryCode":"NL","name":"Groningen","stationCode":"GN","uicCode":"8400263"},{"coordinate":{"lat":53.20480027,"lng":6.5854178},"countryCode":"NL","name":"Groningen Europapark","stationCode":"GERP","uicCode":"8400238"},{"coordinate":{"lat":53.1617362,"lng":6.7220882},"countryCode":"NL","name":"Kropswolde","stationCode":"KW","uicCode":"8400369"},{"coordinate":{"lat":53.1607232,"lng":6.7402989},"countryCode":"NL","name":"Martenshoek","stationCode":"MTH","uicCode":"8400430"},{"coordinate":{"lat":53.1598181316756,"lng":6.77075386047363},"countryCode":"NL","name":"Hoogezand-Sappemeer","stationCode":"HGZ","uicCode":"8400331"},{"coordinate":{"lat":53.1596122800056,"lng":6.8679141998291},"countryCode":"NL","name":"Zuidbroek","stationCode":"ZB","uicCode":"8400742"},{"coordinate":{"lat":53.10324,"lng":6.88475},"countryCode":"NL","name":"Veendam","stationCode":"VDM","uicCode":"8400636"}],"direction":"BOTH"},"description":"er rijden bussen","level":"LESS_TRAINS"},"sectionType":"NL"}],"summaryAdditionalTravelTime":{"label":"De extra reistijd kan oplopen tot 45 minuten.","shortLabel":"Extra reistijd tot 45 min.","maximumDurationInMinutes":45},"timespans":[{"start":"2024-12-07T04:00:00+0100","end":"2024-12-09T02:00:00+0100","period":"Zaterdag 7 december 4:00 uur t/m maandag 9 december 2:00 uur.","situation":{"label":"Door werkzaamheden: tussen Groningen en Bad Nieuweschans rijden er bussen en tussen Groningen en Veendam rijden er bussen."},"cause":{"label":"werkzaamheden"},"additionalTravelTime":{"label":"De extra reistijd kan oplopen tot 45 minuten.","shortLabel":"Extra reistijd tot 45 min.","maximumDurationInMinutes":45},"alternativeTransport":{"label":"er rijden stopbussen","shortLabel":"er rijden stopbussen"},"advices":[]}],"alternativeTransportTimespans":[{"start":"2024-12-07T04:00:00+0100","end":"2024-12-09T02:00:00+0100","alternativeTransport":{"location":[{"station":{"coordinate":{"lat":53.2105560302734,"lng":6.56472206115723},"countryCode":"NL","name":"Groningen","stationCode":"GN","uicCode":"8400263"},"description":"vanaf het busstation halte AB"},{"station":{"coordinate":{"lat":53.20480027,"lng":6.5854178},"countryCode":"NL","name":"Groningen Europapark","stationCode":"GERP","uicCode":"8400238"},"description":"vanaf de bushalte"},{"station":{"coordinate":{"lat":53.1617362,"lng":6.7220882},"countryCode":"NL","name":"Kropswolde","stationCode":"KW","uicCode":"8400369"},"description":"volg de aanwijzingen op het station"},{"station":{"coordinate":{"lat":53.1607232,"lng":6.7402989},"countryCode":"NL","name":"Martenshoek","stationCode":"MTH","uicCode":"8400430"},"description":"vanaf de bushalte"},{"station":{"coordinate":{"lat":53.1598181316756,"lng":6.77075386047363},"countryCode":"NL","name":"Hoogezand-Sappemeer","stationCode":"HGZ","uicCode":"8400331"},"description":"vanaf de voorzijde van het station"},{"station":{"coordinate":{"lat":53.1596122800056,"lng":6.8679141998291},"countryCode":"NL","name":"Zuidbroek","stationCode":"ZB","uicCode":"8400742"},"description":"vanaf de bushalte"},{"station":{"coordinate":{"lat":53.10324,"lng":6.88475},"countryCode":"NL","name":"Veendam","stationCode":"VDM","uicCode":"8400636"},"description":"vanaf de voorzijde van het station"}],"label":"Er rijden stopbussen tussen Groningen, Groningen Europapark, Kropswolde, Martenshoek, Hoogezand-Sappemeer, Zuidbroek en Veendam.","shortLabel":"Er rijden stopbussen Groningen - Europapark - Kropswolde - Martenshoek - Hoogezand-Sap. - Zuidbroek - Veendam."}},{"start":"2024-12-07T04:00:00+0100","end":"2024-12-09T02:00:00+0100","alternativeTransport":{"location":[{"station":{"coordinate":{"lat":53.2105560302734,"lng":6.56472206115723},"countryCode":"NL","name":"Groningen","stationCode":"GN","uicCode":"8400263"},"description":"vanaf het busstation halte AB"},{"station":{"coordinate":{"lat":53.20480027,"lng":6.5854178},"countryCode":"NL","name":"Groningen Europapark","stationCode":"GERP","uicCode":"8400238"},"description":"vanaf de bushalte"},{"station":{"coordinate":{"lat":53.1617362,"lng":6.7220882},"countryCode":"NL","name":"Kropswolde","stationCode":"KW","uicCode":"8400369"},"description":"vanaf de provinciale weg"},{"station":{"coordinate":{"lat":53.1607232,"lng":6.7402989},"countryCode":"NL","name":"Martenshoek","stationCode":"MTH","uicCode":"8400430"},"description":"vanaf de bushalte"},{"station":{"coordinate":{"lat":53.1598181316756,"lng":6.77075386047363},"countryCode":"NL","name":"Hoogezand-Sappemeer","stationCode":"HGZ","uicCode":"8400331"},"description":"vanaf de voorzijde van het station"},{"station":{"coordinate":{"lat":53.1596122800056,"lng":6.8679141998291},"countryCode":"NL","name":"Zuidbroek","stationCode":"ZB","uicCode":"8400742"},"description":"vanaf de bushalte"},{"station":{"coordinate":{"lat":53.10324,"lng":6.88475},"countryCode":"NL","name":"Veendam","stationCode":"VDM","uicCode":"8400636"},"description":"vanaf de voorzijde van het station"},{"station":{"coordinate":{"lat":53.1655362,"lng":6.9777775},"countryCode":"NL","name":"Scheemda","stationCode":"SDA","uicCode":"8400551"},"description":"vanaf de bushalte"},{"station":{"coordinate":{"lat":53.1392377,"lng":7.035101},"countryCode":"NL","name":"Winschoten","stationCode":"WS","uicCode":"8400696"},"description":"vanaf het busstation"},{"station":{"coordinate":{"lat":53.1844,"lng":7.19937},"countryCode":"NL","name":"Bad Nieuweschans","stationCode":"NSCH","uicCode":"8400457"},"description":"vanaf de voorzijde van het station"}],"label":"Er rijden stopbussen tussen Groningen, Groningen Europapark, Kropswolde, Martenshoek, Hoogezand-Sappemeer, Zuidbroek, Veendam, Scheemda, Winschoten en Bad Nieuweschans.","shortLabel":"Er rijden stopbussen Groningen - Europapark - Kropswolde - Martenshoek - Hoogezand-Sap. - Zuidbroek - Veendam - Scheemda - Winschoten - Bad Nieuweschans."}}]},{"type":"MAINTENANCE","id":"7005579","title":"Alphen a/d Rijn - Gouda.","isActive":false,"local":false,"titleSections":[[{"type":"STATION","value":"Alphen a/d Rijn"},{"type":"ICON","value":"MAINTENANCE"},{"type":"STATION","value":"Gouda"}]],"registrationTime":"2024-11-21T11:51:28+0100","start":"2024-12-08T00:30:00+0100","releaseTime":"2024-11-21T11:51:28+0100","end":"2024-12-08T12:00:00+0100","period":"Zondag 8 december 0:30 uur t/m zondag 8 december 12:00 uur.","impact":{"value":3},"publicationSections":[{"section":{"stations":[{"coordinate":{"lat":52.1244430541992,"lng":4.65777778625488},"countryCode":"NL","name":"Alphen a/d Rijn","stationCode":"APN","uicCode":"8400053"},{"coordinate":{"lat":52.0777778625488,"lng":4.64694452285767},"countryCode":"NL","name":"Boskoop","stationCode":"BSK","uicCode":"8400125"},{"coordinate":{"lat":52.067658,"lng":4.646186},"countryCode":"NL","name":"Boskoop Snijdelwijk","stationCode":"BSKS","uicCode":"8400126"},{"coordinate":{"lat":52.0550003051758,"lng":4.64833354949951},"countryCode":"NL","name":"Waddinxveen Noord","stationCode":"WADN","uicCode":"8400674"},{"coordinate":{"lat":52.0441665649414,"lng":4.6497220993042},"countryCode":"NL","name":"Waddinxveen","stationCode":"WAD","uicCode":"8400675"},{"coordinate":{"lat":52.02725,"lng":4.6491},"countryCode":"NL","name":"Waddinxveen Triangel","stationCode":"WADT","uicCode":"8400677"},{"coordinate":{"lat":52.0175018310547,"lng":4.70444440841675},"countryCode":"NL","name":"Gouda","stationCode":"GD","uicCode":"8400258"}],"direction":"BOTH"},"consequence":{"section":{"stations":[{"coordinate":{"lat":52.1244430541992,"lng":4.65777778625488},"countryCode":"NL","name":"Alphen a/d Rijn","stationCode":"APN","uicCode":"8400053"},{"coordinate":{"lat":52.0777778625488,"lng":4.64694452285767},"countryCode":"NL","name":"Boskoop","stationCode":"BSK","uicCode":"8400125"},{"coordinate":{"lat":52.067658,"lng":4.646186},"countryCode":"NL","name":"Boskoop Snijdelwijk","stationCode":"BSKS","uicCode":"8400126"},{"coordinate":{"lat":52.0550003051758,"lng":4.64833354949951},"countryCode":"NL","name":"Waddinxveen Noord","stationCode":"WADN","uicCode":"8400674"},{"coordinate":{"lat":52.0441665649414,"lng":4.6497220993042},"countryCode":"NL","name":"Waddinxveen","stationCode":"WAD","uicCode":"8400675"},{"coordinate":{"lat":52.02725,"lng":4.6491},"countryCode":"NL","name":"Waddinxveen Triangel","stationCode":"WADT","uicCode":"8400677"},{"coordinate":{"lat":52.0175018310547,"lng":4.70444440841675},"countryCode":"NL","name":"Gouda","stationCode":"GD","uicCode":"8400258"}],"direction":"BOTH"},"description":"er rijden bussen","level":"LESS_TRAINS"},"sectionType":"NL"}],"summaryAdditionalTravelTime":{"label":"De extra reistijd is ongeveer 30 minuten.","shortLabel":"Extra reistijd 30 min.","minimumDurationInMinutes":30,"maximumDurationInMinutes":30},"timespans":[{"start":"2024-12-08T00:30:00+0100","end":"2024-12-08T12:00:00+0100","period":"Zondag 8 december 0:30 uur t/m zondag 8 december 12:00 uur.","situation":{"label":"Door werkzaamheden: tussen Alphen a/d Rijn en Gouda rijden er bussen."},"cause":{"label":"werkzaamheden"},"additionalTravelTime":{"label":"De extra reistijd is ongeveer 30 minuten.","shortLabel":"Extra reistijd 30 min.","minimumDurationInMinutes":30,"maximumDurationInMinutes":30},"alternativeTransport":{"label":"er rijden stopbussen","shortLabel":"er rijden stopbussen"},"advices":["Let op! Op zondagochtend 8 december zijn er ook werkzaamheden tussen Alphen a/d Rijn en Leiden Centraal."]}],"alternativeTransportTimespans":[{"start":"2024-12-08T00:30:00+0100","end":"2024-12-08T12:00:00+0100","alternativeTransport":{"location":[{"station":{"coordinate":{"lat":52.1244430541992,"lng":4.65777778625488},"countryCode":"NL","name":"Alphen a/d Rijn","stationCode":"APN","uicCode":"8400053"},"description":"vanaf het busstation, centrumzijde"},{"station":{"coordinate":{"lat":52.0777778625488,"lng":4.64694452285767},"countryCode":"NL","name":"Boskoop","stationCode":"BSK","uicCode":"8400125"},"description":"vanaf de NS Bushalte"},{"station":{"coordinate":{"lat":52.067658,"lng":4.646186},"countryCode":"NL","name":"Boskoop Snijdelwijk","stationCode":"BSKS","uicCode":"8400126"},"description":"vanaf de NS Bushalte"},{"station":{"coordinate":{"lat":52.0550003051758,"lng":4.64833354949951},"countryCode":"NL","name":"Waddinxveen Noord","stationCode":"WADN","uicCode":"8400674"},"description":"vanaf het Stationsplein"},{"station":{"coordinate":{"lat":52.0441665649414,"lng":4.6497220993042},"countryCode":"NL","name":"Waddinxveen","stationCode":"WAD","uicCode":"8400675"},"description":"vanaf de NS Bushalte"},{"station":{"coordinate":{"lat":52.02725,"lng":4.6491},"countryCode":"NL","name":"Waddinxveen Triangel","stationCode":"WADT","uicCode":"8400677"},"description":"vanaf de Coenecoop"},{"station":{"coordinate":{"lat":52.0175018310547,"lng":4.70444440841675},"countryCode":"NL","name":"Gouda","stationCode":"GD","uicCode":"8400258"},"description":"vanaf de Bloemendaalzijde"}],"label":"Er rijden stopbussen tussen Alphen a/d Rijn, Boskoop, Boskoop Snijdelwijk, Waddinxveen Noord, Waddinxveen, Waddinxveen Triangel en Gouda.","shortLabel":"Er rijden stopbussen Alphen a/d Rijn - Boskoop - Snijdelwijk - Waddinxveen N. - Waddinxveen - Triangel - Gouda."}}]},{"type":"MAINTENANCE","id":"7005671","title":"Zwolle - Groningen.","isActive":false,"local":false,"titleSections":[[{"type":"STATION","value":"Zwolle"},{"type":"STATION","value":"Hoogeveen"},{"type":"ICON","value":"MAINTENANCE"},{"type":"STATION","value":"Groningen"}]],"registrationTime":"2024-11-29T15:43:24+0100","start":"2024-12-08T00:35:00+0100","releaseTime":"2024-11-29T15:43:24+0100","end":"2024-12-08T01:30:00+0100","period":"Zondag 8 december 0:35 uur t/m zondag 8 december 1:30 uur.","impact":{"value":3},"publicationSections":[{"section":{"stations":[{"coordinate":{"lat":52.5047225952148,"lng":6.09194421768188},"countryCode":"NL","name":"Zwolle","stationCode":"ZL","uicCode":"8400747"},{"coordinate":{"lat":52.6908340454102,"lng":6.19750022888184},"countryCode":"NL","name":"Meppel","stationCode":"MP","uicCode":"8400435"},{"coordinate":{"lat":52.7338905334473,"lng":6.47361087799072},"countryCode":"NL","name":"Hoogeveen","stationCode":"HGV","uicCode":"8400330"},{"coordinate":{"lat":52.8547210693359,"lng":6.52111101150513},"countryCode":"NL","name":"Beilen","stationCode":"BL","uicCode":"8400100"},{"coordinate":{"lat":52.9916648864746,"lng":6.57083320617676},"countryCode":"NL","name":"Assen","stationCode":"ASN","uicCode":"8400073"},{"coordinate":{"lat":53.1761093139648,"lng":6.61722230911255},"countryCode":"NL","name":"Haren","stationCode":"HRN","uicCode":"8400297"},{"coordinate":{"lat":53.20480027,"lng":6.5854178},"countryCode":"NL","name":"Groningen Europapark","stationCode":"GERP","uicCode":"8400238"},{"coordinate":{"lat":53.2105560302734,"lng":6.56472206115723},"countryCode":"NL","name":"Groningen","stationCode":"GN","uicCode":"8400263"}],"direction":"BOTH"},"consequence":{"section":{"stations":[{"coordinate":{"lat":52.7338905334473,"lng":6.47361087799072},"countryCode":"NL","name":"Hoogeveen","stationCode":"HGV","uicCode":"8400330"},{"coordinate":{"lat":52.8547210693359,"lng":6.52111101150513},"countryCode":"NL","name":"Beilen","stationCode":"BL","uicCode":"8400100"},{"coordinate":{"lat":52.9916648864746,"lng":6.57083320617676},"countryCode":"NL","name":"Assen","stationCode":"ASN","uicCode":"8400073"},{"coordinate":{"lat":53.1761093139648,"lng":6.61722230911255},"countryCode":"NL","name":"Haren","stationCode":"HRN","uicCode":"8400297"},{"coordinate":{"lat":53.20480027,"lng":6.5854178},"countryCode":"NL","name":"Groningen Europapark","stationCode":"GERP","uicCode":"8400238"},{"coordinate":{"lat":53.2105560302734,"lng":6.56472206115723},"countryCode":"NL","name":"Groningen","stationCode":"GN","uicCode":"8400263"}],"direction":"BOTH"},"description":"er rijden bussen","level":"LESS_TRAINS"},"sectionType":"NL"}],"summaryAdditionalTravelTime":{"label":"De extra reistijd is ongeveer 30 minuten.","shortLabel":"Extra reistijd 30 min.","minimumDurationInMinutes":30,"maximumDurationInMinutes":30},"timespans":[{"start":"2024-12-08T00:35:00+0100","end":"2024-12-08T01:30:00+0100","period":"Zondag 8 december 0:35 uur t/m zondag 8 december 1:30 uur.","situation":{"label":"Door werkzaamheden: tussen Hoogeveen en Groningen rijden er bussen."},"cause":{"label":"werkzaamheden"},"additionalTravelTime":{"label":"De extra reistijd is ongeveer 30 minuten.","shortLabel":"Extra reistijd 30 min.","minimumDurationInMinutes":30,"maximumDurationInMinutes":30},"alternativeTransport":{"label":"er rijden snelbussen","shortLabel":"er rijden snelbussen"},"advices":[]}],"alternativeTransportTimespans":[{"start":"2024-12-08T00:35:00+0100","end":"2024-12-08T01:30:00+0100","alternativeTransport":{"location":[{"station":{"coordinate":{"lat":52.7338905334473,"lng":6.47361087799072},"countryCode":"NL","name":"Hoogeveen","stationCode":"HGV","uicCode":"8400330"},"description":"vanaf de voorzijde van het station"},{"station":{"coordinate":{"lat":52.9916648864746,"lng":6.57083320617676},"countryCode":"NL","name":"Assen","stationCode":"ASN","uicCode":"8400073"},"description":"vanaf het busstation"}],"label":"Er rijden snelbussen van Hoogeveen naar Assen.","shortLabel":"Er rijden snelbussen Hoogeveen -> Assen."}}]},{"type":"MAINTENANCE","id":"7005687","title":"Hengelo - Bielefeld.","isActive":false,"local":false,"titleSections":[[{"type":"STATION","value":"Hengelo"},{"type":"STATION","value":"Rheine"},{"type":"ICON","value":"MAINTENANCE"},{"type":"STATION","value":"Osnabrück Hbf"},{"type":"STATION","value":"Bielefeld Hbf"}]],"registrationTime":"2024-12-03T17:31:26+0100","start":"2024-12-09T05:00:00+0100","releaseTime":"2024-12-03T17:31:26+0100","end":"2024-12-11T23:00:00+0100","period":"Maandag 9 december 5:00 uur t/m woensdag 11 december 23:00 uur.","impact":{"value":2},"publicationSections":[{"section":{"stations":[{"coordinate":{"lat":52.2616653442383,"lng":6.79388904571533},"countryCode":"NL","name":"Hengelo","stationCode":"HGL","uicCode":"8400316"},{"coordinate":{"lat":52.2688903808594,"lng":6.81944465637207},"countryCode":"NL","name":"Hengelo Oost","stationCode":"HGLO","uicCode":"8400312"},{"coordinate":{"lat":52.3063888549805,"lng":6.93472242355347},"countryCode":"NL","name":"Oldenzaal","stationCode":"ODZ","uicCode":"8400483"},{"coordinate":{"lat":52.309685595156,"lng":7.15853691101074},"countryCode":"D","name":"Bad Bentheim","stationCode":"BH","uicCode":"8021156"},{"coordinate":{"lat":52.276299,"lng":7.434255},"countryCode":"D","name":"Rheine","stationCode":"RHEINE","uicCode":"8021067"},{"coordinate":{"lat":52.272851,"lng":8.061781},"countryCode":"D","name":"Osnabrück Hbf","stationCode":"OSNH","uicCode":"8021025"},{"coordinate":{"lat":52.202075,"lng":8.573876},"countryCode":"D","name":"Bünde (Westf)","stationCode":"BUENDE","uicCode":"8021173"},{"coordinate":{"lat":52.029261,"lng":8.532722},"countryCode":"D","name":"Bielefeld Hbf","stationCode":"BIELEF","uicCode":"8013597"}],"direction":"BOTH"},"consequence":{"section":{"stations":[{"coordinate":{"lat":52.276299,"lng":7.434255},"countryCode":"D","name":"Rheine","stationCode":"RHEINE","uicCode":"8021067"},{"coordinate":{"lat":52.272851,"lng":8.061781},"countryCode":"D","name":"Osnabrück Hbf","stationCode":"OSNH","uicCode":"8021025"}],"direction":"BOTH"},"description":"geen stoptreinen","level":"LESS_TRAINS"},"sectionType":"NEIGHBORING_COUNTRY"}],"timespans":[{"start":"2024-12-09T05:00:00+0100","end":"2024-12-11T23:00:00+0100","period":"Maandag 9 december 5:00 uur t/m woensdag 11 december 23:00 uur.","situation":{"label":"Door werkzaamheden: tussen Rheine en Osnabrück Hbf rijden er geen stoptreinen."},"cause":{"label":"werkzaamheden"},"alternativeTransport":{"label":"er rijden stopbussen","shortLabel":"er rijden stopbussen"},"advices":["Plan uw reis via bahn.de. Houd rekening met extra reistijd door grenscontroles."]}],"alternativeTransportTimespans":[{"start":"2024-12-09T05:00:00+0100","end":"2024-12-11T23:00:00+0100","alternativeTransport":{"location":[{"station":{"coordinate":{"lat":52.276299,"lng":7.434255},"countryCode":"D","name":"Rheine","stationCode":"RHEINE","uicCode":"8021067"},"description":"volg de aanwijzingen op het station"},{"station":{"coordinate":{"lat":52.272851,"lng":8.061781},"countryCode":"D","name":"Osnabrück Hbf","stationCode":"OSNH","uicCode":"8021025"},"description":"volg de aanwijzingen op het station"}],"label":"Er rijden stopbussen tussen Rheine en Osnabrück Hbf.","shortLabel":"Er rijden stopbussen Rheine - Osnabrück Hbf."}}]},{"type":"MAINTENANCE","id":"7005556","title":"Amsterdam - Hannover - Berlin.","isActive":false,"local":false,"titleSections":[[{"type":"STATION","value":"Amsterdam C."},{"type":"ICON","value":"MAINTENANCE"},{"type":"STATION","value":"Amersfoort C."},{"type":"STATION","value":"Berlin Hbf"}]],"registrationTime":"2024-11-20T13:28:03+0100","start":"2024-12-09T05:50:00+0100","releaseTime":"2024-11-20T13:28:03+0100","end":"2024-12-09T10:20:00+0100","period":"Maandag 9 december 5:50 uur t/m maandag 9 december 10:20 uur.","impact":{"value":2},"publicationSections":[{"section":{"stations":[{"coordinate":{"lat":52.3788871765137,"lng":4.90027761459351},"countryCode":"NL","name":"Amsterdam Centraal","stationCode":"ASD","uicCode":"8400058"},{"coordinate":{"lat":52.3605537414551,"lng":4.93111133575439},"countryCode":"NL","name":"Amsterdam Muiderpoort","stationCode":"ASDM","uicCode":"8400060"},{"coordinate":{"lat":52.35274,"lng":4.94855},"countryCode":"NL","name":"Amsterdam Science Park","stationCode":"ASSP","uicCode":"8400235"},{"coordinate":{"lat":52.34515,"lng":4.967566},"countryCode":"NL","name":"Diemen","stationCode":"DMN","uicCode":"8400165"},{"coordinate":{"lat":52.3127784729004,"lng":5.04305553436279},"countryCode":"NL","name":"Weesp","stationCode":"WP","uicCode":"8400685"},{"coordinate":{"lat":52.2802772521973,"lng":5.15694427490234},"countryCode":"NL","name":"Naarden-Bussum","stationCode":"NDB","uicCode":"8400452"},{"coordinate":{"lat":52.2658348083496,"lng":5.16305541992188},"countryCode":"NL","name":"Bussum Zuid","stationCode":"BSMZ","uicCode":"8400145"},{"coordinate":{"lat":52.2380561828613,"lng":5.17388868331909},"countryCode":"NL","name":"Hilversum Media Park","stationCode":"HVSM","uicCode":"8400324"},{"coordinate":{"lat":52.2258338928223,"lng":5.18194437026978},"countryCode":"NL","name":"Hilversum","stationCode":"HVS","uicCode":"8400322"},{"coordinate":{"lat":52.2083320617676,"lng":5.28083324432373},"countryCode":"NL","name":"Baarn","stationCode":"BRN","uicCode":"8400086"},{"coordinate":{"lat":52.1538887023926,"lng":5.37055540084839},