[{"type":"DISRUPTION","id":"6064833","title":"Maastricht - Heerlen - Aachen.","isActive":true,"topic":"disruption_6064833_nl","local":false,"titleSections":[[{"type":"STATION","value":"Maastricht"},{"type":"ICON","value":"DISRUPTION"},{"type":"STATION","value":"Heerlen"},{"type":"STATION","value":"Aachen Hbf"}]],"registrationTime":"2026-05-28T20:37:38+0200","releaseTime":"2026-05-28T20:37:38+0200","start":"2026-05-27T04:03:00+0200","end":"2026-05-29T23:00:00+0200","phase":{"id":"2","label":"Impact bekend"},"impact":{"value":3},"expectedDuration":{"description":"Dit duurt tot ongeveer vrijdag 29 mei 23:00 uur.","endTime":"2026-05-29T23:00:00+0200"},"publicationSections":[{"section":{"stations":[{"coordinate":{"lat":50.8502769470215,"lng":5.70555543899536},"countryCode":"NL","name":"Maastricht","stationCode":"MT","uicCode":"8400424"},{"coordinate":{"lat":50.87087,"lng":5.71774},"countryCode":"NL","name":"Maastricht Noord","stationCode":"MTN","uicCode":"8400449"},{"coordinate":{"lat":50.882879392551,"lng":5.75099945068359},"countryCode":"NL","name":"Meerssen","stationCode":"MES","uicCode":"8400434"},{"coordinate":{"lat":50.8733329772949,"lng":5.79722213745117},"countryCode":"NL","name":"Houthem-St. Gerlach","stationCode":"SGL","uicCode":"8400341"},{"coordinate":{"lat":50.8697204589844,"lng":5.83222198486328},"countryCode":"NL","name":"Valkenburg","stationCode":"VK","uicCode":"8400632"},{"coordinate":{"lat":50.856388092041,"lng":5.87222242355347},"countryCode":"NL","name":"Schin op Geul","stationCode":"SOG","uicCode":"8400555"},{"coordinate":{"lat":50.8663902282715,"lng":5.8905553817749},"countryCode":"NL","name":"Klimmen-Ransdaal","stationCode":"KMR","uicCode":"8400362"},{"coordinate":{"lat":50.8872222900391,"lng":5.93027782440186},"countryCode":"NL","name":"Voerendaal","stationCode":"VDL","uicCode":"8400656"},{"coordinate":{"lat":50.896667,"lng":5.952222},"countryCode":"NL","name":"Heerlen Woonboulevard","stationCode":"HRLW","uicCode":"8400404"},{"coordinate":{"lat":50.8908348083496,"lng":5.97499990463257},"countryCode":"NL","name":"Heerlen","stationCode":"HRL","uicCode":"8400307"},{"coordinate":{"lat":50.8963890075684,"lng":6.01916646957398},"countryCode":"NL","name":"Landgraaf","stationCode":"LG","uicCode":"8400548"},{"coordinate":{"lat":50.8960498196442,"lng":6.0602474212646396},"countryCode":"NL","name":"Eygelshoven Markt","stationCode":"EGHM","uicCode":"8400234"},{"coordinate":{"lat":50.870916,"lng":6.094486},"countryCode":"D","name":"Herzogenrath","stationCode":"HZ","uicCode":"8015190"},{"coordinate":{"lat":50.7678,"lng":6.091499},"countryCode":"D","name":"Aachen Hbf","stationCode":"AHBF","uicCode":"8015345"}],"direction":"BOTH","operators":["Arriva"]},"consequence":{"section":{"stations":[{"coordinate":{"lat":50.8502769470215,"lng":5.70555543899536},"countryCode":"NL","name":"Maastricht","stationCode":"MT","uicCode":"8400424"},{"coordinate":{"lat":50.87087,"lng":5.71774},"countryCode":"NL","name":"Maastricht Noord","stationCode":"MTN","uicCode":"8400449"},{"coordinate":{"lat":50.882879392551,"lng":5.75099945068359},"countryCode":"NL","name":"Meerssen","stationCode":"MES","uicCode":"8400434"},{"coordinate":{"lat":50.8733329772949,"lng":5.79722213745117},"countryCode":"NL","name":"Houthem-St. Gerlach","stationCode":"SGL","uicCode":"8400341"},{"coordinate":{"lat":50.8697204589844,"lng":5.83222198486328},"countryCode":"NL","name":"Valkenburg","stationCode":"VK","uicCode":"8400632"},{"coordinate":{"lat":50.856388092041,"lng":5.87222242355347},"countryCode":"NL","name":"Schin op Geul","stationCode":"SOG","uicCode":"8400555"},{"coordinate":{"lat":50.8663902282715,"lng":5.8905553817749},"countryCode":"NL","name":"Klimmen-Ransdaal","stationCode":"KMR","uicCode":"8400362"},{"coordinate":{"lat":50.8872222900391,"lng":5.93027782440186},"countryCode":"NL","name":"Voerendaal","stationCode":"VDL","uicCode":"8400656"},{"coordinate":{"lat":50.896667,"lng":5.952222},"countryCode":"NL","name":"Heerlen Woonboulevard","stationCode":"HRLW","uicCode":"8400404"},{"coordinate":{"lat":50.8908348083496,"lng":5.97499990463257},"countryCode":"NL","name":"Heerlen","stationCode":"HRL","uicCode":"8400307"}],"direction":"BOTH","operators":["Arriva"]},"description":"geen Sneltreinen","level":"LESS_TRAINS"},"sectionType":"NEIGHBORING_COUNTRY"}],"timespans":[{"start":"2026-05-27T04:03:00+0200","end":"2026-05-29T23:00:00+0200","period":"Woensdag 27 mei 4:03 uur t/m vrijdag 29 mei 23:00 uur.","situation":{"label":"Door beperkingen in de materieelinzet: tussen Maastricht en Heerlen rijden er geen Sneltreinen."},"cause":{"label":"beperkingen materieel","type":"OTHER"},"advices":[]}],"alternativeTransportTimespans":[]},{"type":"MAINTENANCE","id":"7004492","title":"Groningen - Leer.","isActive":true,"local":false,"titleSections":[[{"type":"STATION","value":"Groningen"},{"type":"STATION","value":"Bad Nieuweschans"},{"type":"ICON","value":"MAINTENANCE"},{"type":"STATION","value":"Weener"},{"type":"STATION","value":"Leer (Ostfr.)"}]],"registrationTime":"2026-05-23T13:53:01+0200","start":"2024-02-01T04:00:00+0100","releaseTime":"2026-05-23T13:53:01+0200","end":"2026-09-30T23:58:00+0200","period":"Donderdag 1 februari 2024 4:00 uur t/m woensdag 30 september 23:58 uur.","impact":{"value":3},"publicationSections":[{"section":{"stations":[{"coordinate":{"lat":53.2105560302734,"lng":6.56472206115723},"countryCode":"NL","name":"Groningen","stationCode":"GN","uicCode":"8400263"},{"coordinate":{"lat":53.20480027,"lng":6.5854178},"countryCode":"NL","name":"Groningen Europapark","stationCode":"GERP","uicCode":"8400238"},{"coordinate":{"lat":53.1617362,"lng":6.7220882},"countryCode":"NL","name":"Kropswolde","stationCode":"KW","uicCode":"8400369"},{"coordinate":{"lat":53.1607232,"lng":6.7402989},"countryCode":"NL","name":"Martenshoek","stationCode":"MTH","uicCode":"8400430"},{"coordinate":{"lat":53.1598181316756,"lng":6.77075386047363},"countryCode":"NL","name":"Hoogezand-Sappemeer","stationCode":"HGZ","uicCode":"8400331"},{"coordinate":{"lat":53.1596122800056,"lng":6.8679141998291},"countryCode":"NL","name":"Zuidbroek","stationCode":"ZB","uicCode":"8400742"},{"coordinate":{"lat":53.1655362,"lng":6.9777775},"countryCode":"NL","name":"Scheemda","stationCode":"SDA","uicCode":"8400551"},{"coordinate":{"lat":53.1392377,"lng":7.035101},"countryCode":"NL","name":"Winschoten","stationCode":"WS","uicCode":"8400696"},{"coordinate":{"lat":53.1844,"lng":7.19937},"countryCode":"NL","name":"Bad Nieuweschans","stationCode":"NSCH","uicCode":"8400457"},{"coordinate":{"lat":53.16311,"lng":7.3442},"countryCode":"D","name":"Weener","stationCode":"WR","uicCode":"8021239"},{"coordinate":{"lat":53.23165,"lng":7.465283},"countryCode":"D","name":"Leer (Ostfriesl)","stationCode":"LEER","uicCode":"8021091"}],"direction":"BOTH","operators":["Arriva"]},"consequence":{"section":{"stations":[{"coordinate":{"lat":53.1844,"lng":7.19937},"countryCode":"NL","name":"Bad Nieuweschans","stationCode":"NSCH","uicCode":"8400457"},{"coordinate":{"lat":53.16311,"lng":7.3442},"countryCode":"D","name":"Weener","stationCode":"WR","uicCode":"8021239"}],"direction":"BOTH","operators":["Arriva"]},"description":"er rijden bussen","level":"LESS_TRAINS"},"sectionType":"NEIGHBORING_COUNTRY"}],"timespans":[{"start":"2024-02-01T04:00:00+0100","end":"2026-09-30T23:58:00+0200","period":"Donderdag 1 februari 2024 4:00 uur t/m woensdag 30 september 23:58 uur.","situation":{"label":"Door een aangepaste dienstregeling: tussen Bad Nieuweschans en Weener rijden er bussen."},"cause":{"label":"aangepaste dienstregeling","type":"OTHER"},"alternativeTransport":{"label":"er rijden stop- en snelbussen","shortLabel":"er rijden stop- en snelbussen"},"advices":[]}],"alternativeTransportTimespans":[{"start":"2024-02-01T04:00:00+0100","end":"2026-09-30T23:58:00+0200","alternativeTransport":{"location":[{"station":{"coordinate":{"lat":53.1844,"lng":7.19937},"countryCode":"NL","name":"Bad Nieuweschans","stationCode":"NSCH","uicCode":"8400457"},"description":"vanaf de voorzijde van het station"},{"station":{"coordinate":{"lat":53.16311,"lng":7.3442},"countryCode":"D","name":"Weener","stationCode":"WR","uicCode":"8021239"},"description":"vanaf de voorzijde van het station"},{"station":{"coordinate":{"lat":53.23165,"lng":7.465283},"countryCode":"D","name":"Leer (Ostfriesl)","stationCode":"LEER","uicCode":"8021091"},"description":"vanaf het busstation"}],"label":"Er rijden stopbussen tussen Bad Nieuweschans, Weener en Leer.","shortLabel":"Er rijden stopbussen Bad Nieuweschans - Weener - Leer."}},{"start":"2025-12-14T04:00:00+0100","end":"2026-06-30T23:58:00+0200","alternativeTransport":{"location":[{"station":{"coordinate":{"lat":53.2105560302734,"lng":6.56472206115723},"countryCode":"NL","name":"Groningen","stationCode":"GN","uicCode":"8400263"},"description":"vanaf het busstation"},{"station":{"coordinate":{"lat":53.23165,"lng":7.465283},"countryCode":"D","name":"Leer (Ostfriesl)","stationCode":"LEER","uicCode":"8021091"},"description":"vanaf het busstation"}],"label":"Er rijden snelbussen tussen Groningen en Leer.","shortLabel":"Er rijden snelbussen Groningen - Leer."}},{"start":"2025-12-14T04:00:00+0100","end":"2026-06-30T23:58:00+0200","alternativeTransport":{"location":[{"station":{"coordinate":{"lat":53.1844,"lng":7.19937},"countryCode":"NL","name":"Bad Nieuweschans","stationCode":"NSCH","uicCode":"8400457"},"description":"vanaf de voorzijde van het station"},{"station":{"coordinate":{"lat":53.16311,"lng":7.3442},"countryCode":"D","name":"Weener","stationCode":"WR","uicCode":"8021239"},"description":"vanaf de voorzijde van het station"}],"label":"Er rijden stopbussen tussen Bad Nieuweschans en Weener.","shortLabel":"Er rijden stopbussen Bad Nieuweschans - Weener."}}]},{"type":"MAINTENANCE","id":"7006819","title":"Arnhem - Nijmegen; Nijmegen - 's-Hertogenbosch; Nijmegen - Venlo.; Nijmegen - 's-Hertogenbosch.","isActive":true,"local":false,"titleSections":[[{"type":"STATION","value":"Nijmegen"},{"type":"ICON","value":"MAINTENANCE"},{"type":"STATION","value":"Oss"},{"type":"STATION","value":"'s-Hertogenbosch"}],[{"type":"STATION","value":"Arnhem C."},{"type":"ICON","value":"MAINTENANCE"},{"type":"STATION","value":"Nijmegen"}],[{"type":"STATION","value":"Nijmegen"},{"type":"ICON","value":"MAINTENANCE"},{"type":"STATION","value":"Molenhoek"},{"type":"STATION","value":"Venlo"}],[{"type":"STATION","value":"Nijmegen"},{"type":"ICON","value":"MAINTENANCE"},{"type":"STATION","value":"'s-Hertogenbosch"}],[{"type":"STATION","value":"Arnhem C."},{"type":"STATION","value":"Elst"},{"type":"ICON","value":"MAINTENANCE"},{"type":"STATION","value":"Nijmegen"}]],"registrationTime":"2026-05-25T09:51:57+0200","start":"2026-05-14T04:00:00+0200","releaseTime":"2026-05-25T09:51:57+0200","end":"2026-05-30T02:00:00+0200","period":"Donderdag 14 mei 4:00 uur t/m zaterdag 30 mei 2:00 uur.","impact":{"value":5},"publicationSections":[{"section":{"stations":[{"coordinate":{"lat":51.8436126708984,"lng":5.85222244262695},"countryCode":"NL","name":"Nijmegen","stationCode":"NM","uicCode":"8400470"},{"coordinate":{"lat":51.8273,"lng":5.822722},"countryCode":"NL","name":"Nijmegen Goffert","stationCode":"NMGO","uicCode":"8400477"},{"coordinate":{"lat":51.8241653442383,"lng":5.79555559158325},"countryCode":"NL","name":"Nijmegen Dukenburg","stationCode":"NMD","uicCode":"8400475"},{"coordinate":{"lat":51.8116683959961,"lng":5.73083353042603},"countryCode":"NL","name":"Wijchen","stationCode":"WC","uicCode":"8400710"},{"coordinate":{"lat":51.7941665649414,"lng":5.63583326339722},"countryCode":"NL","name":"Ravenstein","stationCode":"RVS","uicCode":"8400515"},{"coordinate":{"lat":51.7655563354492,"lng":5.53222227096558},"countryCode":"NL","name":"Oss","stationCode":"O","uicCode":"8400495"},{"coordinate":{"lat":51.758056640625,"lng":5.50555562973022},"countryCode":"NL","name":"Oss West","stationCode":"OW","uicCode":"8400496"},{"coordinate":{"lat":51.7147216796875,"lng":5.36805534362793},"countryCode":"NL","name":"Rosmalen","stationCode":"RS","uicCode":"8400524"},{"coordinate":{"lat":51.700553894043,"lng":5.3183331489563},"countryCode":"NL","name":"'s-Hertogenbosch Oost","stationCode":"HTO","uicCode":"8400320"},{"coordinate":{"lat":51.69048,"lng":5.29362},"countryCode":"NL","name":"'s-Hertogenbosch","stationCode":"HT","uicCode":"8400319"}],"direction":"BOTH","operators":["NS"]},"consequence":{"section":{"stations":[{"coordinate":{"lat":51.8436126708984,"lng":5.85222244262695},"countryCode":"NL","name":"Nijmegen","stationCode":"NM","uicCode":"8400470"},{"coordinate":{"lat":51.8273,"lng":5.822722},"countryCode":"NL","name":"Nijmegen Goffert","stationCode":"NMGO","uicCode":"8400477"},{"coordinate":{"lat":51.8241653442383,"lng":5.79555559158325},"countryCode":"NL","name":"Nijmegen Dukenburg","stationCode":"NMD","uicCode":"8400475"},{"coordinate":{"lat":51.8116683959961,"lng":5.73083353042603},"countryCode":"NL","name":"Wijchen","stationCode":"WC","uicCode":"8400710"},{"coordinate":{"lat":51.7941665649414,"lng":5.63583326339722},"countryCode":"NL","name":"Ravenstein","stationCode":"RVS","uicCode":"8400515"},{"coordinate":{"lat":51.7655563354492,"lng":5.53222227096558},"countryCode":"NL","name":"Oss","stationCode":"O","uicCode":"8400495"}],"direction":"BOTH","operators":["NS"]},"description":"er rijden bussen","level":"LESS_TRAINS"},"sectionType":"NL"},{"section":{"stations":[{"coordinate":{"lat":51.9850006103516,"lng":5.89916658401489},"countryCode":"NL","name":"Arnhem Centraal","stationCode":"AH","uicCode":"8400071"},{"coordinate":{"lat":51.9550018310547,"lng":5.85194444656372},"countryCode":"NL","name":"Arnhem Zuid","stationCode":"AHZ","uicCode":"8400227"},{"coordinate":{"lat":51.9169425964355,"lng":5.85500001907349},"countryCode":"NL","name":"Elst","stationCode":"EST","uicCode":"8400207"},{"coordinate":{"lat":51.863154,"lng":5.859625},"countryCode":"NL","name":"Nijmegen Lent","stationCode":"NML","uicCode":"8400451"},{"coordinate":{"lat":51.8436126708984,"lng":5.85222244262695},"countryCode":"NL","name":"Nijmegen","stationCode":"NM","uicCode":"8400470"}],"direction":"BOTH","operators":["NS"]},"consequence":{"section":{"stations":[{"coordinate":{"lat":51.9850006103516,"lng":5.89916658401489},"countryCode":"NL","name":"Arnhem Centraal","stationCode":"AH","uicCode":"8400071"},{"coordinate":{"lat":51.9550018310547,"lng":5.85194444656372},"countryCode":"NL","name":"Arnhem Zuid","stationCode":"AHZ","uicCode":"8400227"},{"coordinate":{"lat":51.9169425964355,"lng":5.85500001907349},"countryCode":"NL","name":"Elst","stationCode":"EST","uicCode":"8400207"},{"coordinate":{"lat":51.863154,"lng":5.859625},"countryCode":"NL","name":"Nijmegen Lent","stationCode":"NML","uicCode":"8400451"},{"coordinate":{"lat":51.8436126708984,"lng":5.85222244262695},"countryCode":"NL","name":"Nijmegen","stationCode":"NM","uicCode":"8400470"}],"direction":"BOTH","operators":["NS"]},"description":"er rijden bussen","level":"LESS_TRAINS"},"sectionType":"NL"},{"section":{"stations":[{"coordinate":{"lat":51.8436126708984,"lng":5.85222244262695},"countryCode":"NL","name":"Nijmegen","stationCode":"NM","uicCode":"8400470"},{"coordinate":{"lat":51.8269462585449,"lng":5.86749982833862},"countryCode":"NL","name":"Nijmegen Heyendaal","stationCode":"NMH","uicCode":"8400468"},{"coordinate":{"lat":51.766262,"lng":5.879133},"countryCode":"NL","name":"Mook-Molenhoek","stationCode":"MMLH","uicCode":"8400446"},{"coordinate":{"lat":51.7266825879048,"lng":5.87429523468017},"countryCode":"NL","name":"Cuijk","stationCode":"CK","uicCode":"8400155"},{"coordinate":{"lat":51.6445217676531,"lng":5.93903303146362},"countryCode":"NL","name":"Boxmeer","stationCode":"BMR","uicCode":"8400128"},{"coordinate":{"lat":51.59193,"lng":5.99714},"countryCode":"NL","name":"Vierlingsbeek","stationCode":"VLB","uicCode":"8400647"},{"coordinate":{"lat":51.526568099007,"lng":6.01417779922485},"countryCode":"NL","name":"Venray","stationCode":"VRY","uicCode":"8400646"},{"coordinate":{"lat":51.372501373291,"lng":6.15500020980835},"countryCode":"NL","name":"Blerick","stationCode":"BR","uicCode":"8400117"},{"coordinate":{"lat":51.3636093139648,"lng":6.17277765274048},"countryCode":"NL","name":"Venlo","stationCode":"VL","uicCode":"8400644"}],"direction":"BOTH","operators":["Arriva"]},"consequence":{"section":{"stations":[{"coordinate":{"lat":51.8436126708984,"lng":5.85222244262695},"countryCode":"NL","name":"Nijmegen","stationCode":"NM","uicCode":"8400470"},{"coordinate":{"lat":51.8269462585449,"lng":5.86749982833862},"countryCode":"NL","name":"Nijmegen Heyendaal","stationCode":"NMH","uicCode":"8400468"},{"coordinate":{"lat":51.766262,"lng":5.879133},"countryCode":"NL","name":"Mook-Molenhoek","stationCode":"MMLH","uicCode":"8400446"}],"direction":"BOTH","operators":["Arriva"]},"description":"er rijden bussen","level":"LESS_TRAINS"},"sectionType":"NL"},{"section":{"stations":[{"coordinate":{"lat":51.8436126708984,"lng":5.85222244262695},"countryCode":"NL","name":"Nijmegen","stationCode":"NM","uicCode":"8400470"},{"coordinate":{"lat":51.8273,"lng":5.822722},"countryCode":"NL","name":"Nijmegen Goffert","stationCode":"NMGO","uicCode":"8400477"},{"coordinate":{"lat":51.8241653442383,"lng":5.79555559158325},"countryCode":"NL","name":"Nijmegen Dukenburg","stationCode":"NMD","uicCode":"8400475"},{"coordinate":{"lat":51.8116683959961,"lng":5.73083353042603},"countryCode":"NL","name":"Wijchen","stationCode":"WC","uicCode":"8400710"},{"coordinate":{"lat":51.7941665649414,"lng":5.63583326339722},"countryCode":"NL","name":"Ravenstein","stationCode":"RVS","uicCode":"8400515"},{"coordinate":{"lat":51.7655563354492,"lng":5.53222227096558},"countryCode":"NL","name":"Oss","stationCode":"O","uicCode":"8400495"},{"coordinate":{"lat":51.758056640625,"lng":5.50555562973022},"countryCode":"NL","name":"Oss West","stationCode":"OW","uicCode":"8400496"},{"coordinate":{"lat":51.7147216796875,"lng":5.36805534362793},"countryCode":"NL","name":"Rosmalen","stationCode":"RS","uicCode":"8400524"},{"coordinate":{"lat":51.700553894043,"lng":5.3183331489563},"countryCode":"NL","name":"'s-Hertogenbosch Oost","stationCode":"HTO","uicCode":"8400320"},{"coordinate":{"lat":51.69048,"lng":5.29362},"countryCode":"NL","name":"'s-Hertogenbosch","stationCode":"HT","uicCode":"8400319"}],"direction":"BOTH","operators":["NS"]},"consequence":{"section":{"stations":[{"coordinate":{"lat":51.8436126708984,"lng":5.85222244262695},"countryCode":"NL","name":"Nijmegen","stationCode":"NM","uicCode":"8400470"},{"coordinate":{"lat":51.8273,"lng":5.822722},"countryCode":"NL","name":"Nijmegen Goffert","stationCode":"NMGO","uicCode":"8400477"},{"coordinate":{"lat":51.8241653442383,"lng":5.79555559158325},"countryCode":"NL","name":"Nijmegen Dukenburg","stationCode":"NMD","uicCode":"8400475"},{"coordinate":{"lat":51.8116683959961,"lng":5.73083353042603},"countryCode":"NL","name":"Wijchen","stationCode":"WC","uicCode":"8400710"},{"coordinate":{"lat":51.7941665649414,"lng":5.63583326339722},"countryCode":"NL","name":"Ravenstein","stationCode":"RVS","uicCode":"8400515"},{"coordinate":{"lat":51.7655563354492,"lng":5.53222227096558},"countryCode":"NL","name":"Oss","stationCode":"O","uicCode":"8400495"},{"coordinate":{"lat":51.758056640625,"lng":5.50555562973022},"countryCode":"NL","name":"Oss West","stationCode":"OW","uicCode":"8400496"},{"coordinate":{"lat":51.7147216796875,"lng":5.36805534362793},"countryCode":"NL","name":"Rosmalen","stationCode":"RS","uicCode":"8400524"},{"coordinate":{"lat":51.700553894043,"lng":5.3183331489563},"countryCode":"NL","name":"'s-Hertogenbosch Oost","stationCode":"HTO","uicCode":"8400320"},{"coordinate":{"lat":51.69048,"lng":5.29362},"countryCode":"NL","name":"'s-Hertogenbosch","stationCode":"HT","uicCode":"8400319"}],"direction":"BOTH","operators":["NS"]},"description":"er rijden bussen","level":"LESS_TRAINS"},"sectionType":"NL"},{"section":{"stations":[{"coordinate":{"lat":51.9850006103516,"lng":5.89916658401489},"countryCode":"NL","name":"Arnhem Centraal","stationCode":"AH","uicCode":"8400071"},{"coordinate":{"lat":51.9550018310547,"lng":5.85194444656372},"countryCode":"NL","name":"Arnhem Zuid","stationCode":"AHZ","uicCode":"8400227"},{"coordinate":{"lat":51.9169425964355,"lng":5.85500001907349},"countryCode":"NL","name":"Elst","stationCode":"EST","uicCode":"8400207"},{"coordinate":{"lat":51.863154,"lng":5.859625},"countryCode":"NL","name":"Nijmegen Lent","stationCode":"NML","uicCode":"8400451"},{"coordinate":{"lat":51.8436126708984,"lng":5.85222244262695},"countryCode":"NL","name":"Nijmegen","stationCode":"NM","uicCode":"8400470"}],"direction":"BOTH","operators":["NS"]},"consequence":{"section":{"stations":[{"coordinate":{"lat":51.9169425964355,"lng":5.85500001907349},"countryCode":"NL","name":"Elst","stationCode":"EST","uicCode":"8400207"},{"coordinate":{"lat":51.863154,"lng":5.859625},"countryCode":"NL","name":"Nijmegen Lent","stationCode":"NML","uicCode":"8400451"},{"coordinate":{"lat":51.8436126708984,"lng":5.85222244262695},"countryCode":"NL","name":"Nijmegen","stationCode":"NM","uicCode":"8400470"}],"direction":"BOTH","operators":["NS"]},"description":"er rijden bussen","level":"LESS_TRAINS"},"sectionType":"NL"}],"summaryAdditionalTravelTime":{"label":"De extra reistijd kan oplopen tot 30 minuten.","shortLabel":"Extra reistijd tot 30 min.","minimumDurationInMinutes":15,"maximumDurationInMinutes":30},"timespans":[{"start":"2026-05-29T04:00:00+0200","end":"2026-05-30T02:00:00+0200","period":"Vrijdag 29 mei 4:00 uur t/m zaterdag 30 mei 2:00 uur.","situation":{"label":"Door werkzaamheden: tussen Nijmegen en Oss rijden er bussen en tussen Elst en Nijmegen rijden er bussen en tussen Nijmegen en Mook-Molenhoek rijden er bussen."},"cause":{"label":"werkzaamheden","type":"OTHER"},"additionalTravelTime":{"label":"De extra reistijd is ongeveer 30 minuten.","shortLabel":"Extra reistijd 30 min.","minimumDurationInMinutes":30,"maximumDurationInMinutes":30},"alternativeTransport":{"label":"er rijden stop- en snelbussen","shortLabel":"er rijden stop- en snelbussen"},"advices":["Tussen Arnhem C. en 's-Hertogenbosch reis via Utrecht C."]}],"alternativeTransportTimespans":[{"start":"2026-05-14T04:00:00+0200","end":"2026-05-16T02:00:00+0200","alternativeTransport":{"location":[{"station":{"coordinate":{"lat":51.8436126708984,"lng":5.85222244262695},"countryCode":"NL","name":"Nijmegen","stationCode":"NM","uicCode":"8400470"},"description":"vanaf de voorzijde van het station"},{"station":{"coordinate":{"lat":51.8273,"lng":5.822722},"countryCode":"NL","name":"Nijmegen Goffert","stationCode":"NMGO","uicCode":"8400477"},"description":"vanaf de OV-halte Graafseweg zuidzijde"},{"station":{"coordinate":{"lat":51.8241653442383,"lng":5.79555559158325},"countryCode":"NL","name":"Nijmegen Dukenburg","stationCode":"NMD","uicCode":"8400475"},"description":"vanaf het busstation"},{"station":{"coordinate":{"lat":51.8116683959961,"lng":5.73083353042603},"countryCode":"NL","name":"Wijchen","stationCode":"WC","uicCode":"8400710"},"description":"vanaf de NS Bushalte"},{"station":{"coordinate":{"lat":51.7941665649414,"lng":5.63583326339722},"countryCode":"NL","name":"Ravenstein","stationCode":"RVS","uicCode":"8400515"},"description":"vanaf de voorzijde van het station"},{"station":{"coordinate":{"lat":51.7655563354492,"lng":5.53222227096558},"countryCode":"NL","name":"Oss","stationCode":"O","uicCode":"8400495"},"description":"vanaf de voorzijde van het station"}],"label":"Er rijden stopbussen tussen Nijmegen, Nijmegen Goffert, Nijmegen Dukenburg, Wijchen, Ravenstein en Oss.","shortLabel":"Er rijden stopbussen Nijmegen - Goffert - Dukenburg - Wijchen - Ravenstein - Oss."}},{"start":"2026-05-14T04:00:00+0200","end":"2026-05-16T02:00:00+0200","alternativeTransport":{"location":[{"station":{"coordinate":{"lat":51.8436126708984,"lng":5.85222244262695},"countryCode":"NL","name":"Nijmegen","stationCode":"NM","uicCode":"8400470"},"description":"vanaf de voorzijde van het station"},{"station":{"coordinate":{"lat":51.7655563354492,"lng":5.53222227096558},"countryCode":"NL","name":"Oss","stationCode":"O","uicCode":"8400495"},"description":"vanaf de voorzijde van het station"}],"label":"Er rijden snelbussen tussen Nijmegen en Oss.","shortLabel":"Er rijden snelbussen Nijmegen - Oss."}},{"start":"2026-05-14T04:00:00+0200","end":"2026-05-16T02:00:00+0200","alternativeTransport":{"location":[{"station":{"coordinate":{"lat":51.9850006103516,"lng":5.89916658401489},"countryCode":"NL","name":"Arnhem Centraal","stationCode":"AH","uicCode":"8400071"},"description":"vanaf de Sonsbeekzijde (Nachtnet busterminal)"},{"station":{"coordinate":{"lat":51.8436126708984,"lng":5.85222244262695},"countryCode":"NL","name":"Nijmegen","stationCode":"NM","uicCode":"8400470"},"description":"vanaf de voorzijde van het station"}],"label":"Er rijden snelbussen tussen Arnhem Centraal en Nijmegen.","shortLabel":"Er rijden snelbussen Arnhem C. - Nijmegen."}},{"start":"2026-05-14T04:00:00+0200","end":"2026-05-16T02:00:00+0200","alternativeTransport":{"location":[{"station":{"coordinate":{"lat":51.9850006103516,"lng":5.89916658401489},"countryCode":"NL","name":"Arnhem Centraal","stationCode":"AH","uicCode":"8400071"},"description":"vanaf de Sonsbeekzijde (Nachtnet busterminal)"},{"station":{"coordinate":{"lat":51.9550018310547,"lng":5.85194444656372},"countryCode":"NL","name":"Arnhem Zuid","stationCode":"AHZ","uicCode":"8400227"},"description":"vanaf de bushalte"},{"station":{"coordinate":{"lat":51.9169425964355,"lng":5.85500001907349},"countryCode":"NL","name":"Elst","stationCode":"EST","uicCode":"8400207"},"description":"vanaf de bushalte"},{"station":{"coordinate":{"lat":51.863154,"lng":5.859625},"countryCode":"NL","name":"Nijmegen Lent","stationCode":"NML","uicCode":"8400451"},"description":"vanaf het Hertog Eduardplein"},{"station":{"coordinate":{"lat":51.8436126708984,"lng":5.85222244262695},"countryCode":"NL","name":"Nijmegen","stationCode":"NM","uicCode":"8400470"},"description":"vanaf de voorzijde van het station"}],"label":"Er rijden stopbussen tussen Arnhem Centraal, Arnhem Zuid, Elst, Nijmegen Lent en Nijmegen.","shortLabel":"Er rijden stopbussen Arnhem C. - Arnhem Zuid - Elst - Lent - Nijmegen."}},{"start":"2026-05-14T04:00:00+0200","end":"2026-05-16T02:00:00+0200","alternativeTransport":{"location":[{"station":{"coordinate":{"lat":51.8436126708984,"lng":5.85222244262695},"countryCode":"NL","name":"Nijmegen","stationCode":"NM","uicCode":"8400470"},"description":"vanaf de voorzijde van het station"},{"station":{"coordinate":{"lat":51.8269462585449,"lng":5.86749982833862},"countryCode":"NL","name":"Nijmegen Heyendaal","stationCode":"NMH","uicCode":"8400468"},"description":"vanaf de bushalte"},{"station":{"coordinate":{"lat":51.766262,"lng":5.879133},"countryCode":"NL","name":"Mook-Molenhoek","stationCode":"MMLH","uicCode":"8400446"},"description":"vanaf het P+R-terrein"}],"label":"Er rijden stopbussen tussen Nijmegen, Nijmegen Heyendaal en Mook-Molenhoek.","shortLabel":"Er rijden stopbussen Nijmegen - Heyendaal - Molenhoek."}},{"start":"2026-05-16T04:00:00+0200","end":"2026-05-17T02:00:00+0200","alternativeTransport":{"location":[{"station":{"coordinate":{"lat":51.8436126708984,"lng":5.85222244262695},"countryCode":"NL","name":"Nijmegen","stationCode":"NM","uicCode":"8400470"},"description":"vanaf de voorzijde van het station"},{"station":{"coordinate":{"lat":51.8273,"lng":5.822722},"countryCode":"NL","name":"Nijmegen Goffert","stationCode":"NMGO","uicCode":"8400477"},"description":"vanaf de OV-halte Graafseweg zuidzijde"},{"station":{"coordinate":{"lat":51.8241653442383,"lng":5.79555559158325},"countryCode":"NL","name":"Nijmegen Dukenburg","stationCode":"NMD","uicCode":"8400475"},"description":"vanaf het busstation"},{"station":{"coordinate":{"lat":51.8116683959961,"lng":5.73083353042603},"countryCode":"NL","name":"Wijchen","stationCode":"WC","uicCode":"8400710"},"description":"vanaf de NS Bushalte"},{"station":{"coordinate":{"lat":51.7941665649414,"lng":5.63583326339722},"countryCode":"NL","name":"Ravenstein","stationCode":"RVS","uicCode":"8400515"},"description":"vanaf de voorzijde van het station"},{"station":{"coordinate":{"lat":51.7655563354492,"lng":5.53222227096558},"countryCode":"NL","name":"Oss","stationCode":"O","uicCode":"8400495"},"description":"vanaf de voorzijde van het station"},{"station":{"coordinate":{"lat":51.758056640625,"lng":5.50555562973022},"countryCode":"NL","name":"Oss West","stationCode":"OW","uicCode":"8400496"},"description":"vanaf de voorzijde van het station"},{"station":{"coordinate":{"lat":51.7147216796875,"lng":5.36805534362793},"countryCode":"NL","name":"Rosmalen","stationCode":"RS","uicCode":"8400524"},"description":"vanaf de OV halte aan de Deken van Roestellaan"},{"station":{"coordinate":{"lat":51.700553894043,"lng":5.3183331489563},"countryCode":"NL","name":"'s-Hertogenbosch Oost","stationCode":"HTO","uicCode":"8400320"},"description":"vanaf het P+R terrein van het station"},{"station":{"coordinate":{"lat":51.69048,"lng":5.29362},"countryCode":"NL","name":"'s-Hertogenbosch","stationCode":"HT","uicCode":"8400319"},"description":"vanaf de Magistratenlaan aan de achterzijde van het station"}],"label":"Er rijden stopbussen tussen Nijmegen, Nijmegen Goffert, Nijmegen Dukenburg, Wijchen, Ravenstein, Oss, Oss West, Rosmalen, s-Hertogenbosch Oost en 's-Hertogenbosch.","shortLabel":"Er rijden stopbussen Nijmegen - Goffert - Dukenburg - Wijchen - Ravenstein - Oss - Oss West - Rosmalen - s-Hertogenb. O - 's-Hertogenbosch."}},{"start":"2026-05-16T04:00:00+0200","end":"2026-05-17T02:00:00+0200","alternativeTransport":{"location":[{"station":{"coordinate":{"lat":51.8436126708984,"lng":5.85222244262695},"countryCode":"NL","name":"Nijmegen","stationCode":"NM","uicCode":"8400470"},"description":"vanaf de voorzijde van het station"},{"station":{"coordinate":{"lat":51.7655563354492,"lng":5.53222227096558},"countryCode":"NL","name":"Oss","stationCode":"O","uicCode":"8400495"},"description":"vanaf de voorzijde van het station"},{"station":{"coordinate":{"lat":51.69048,"lng":5.29362},"countryCode":"NL","name":"'s-Hertogenbosch","stationCode":"HT","uicCode":"8400319"},"description":"vanaf de Magistratenlaan aan de achterzijde van het station"}],"label":"Er rijden snelbussen tussen Nijmegen, Oss en 's-Hertogenbosch.","shortLabel":"Er rijden snelbussen Nijmegen - Oss - 's-Hertogenbosch."}},{"start":"2026-05-16T04:00:00+0200","end":"2026-05-17T02:00:00+0200","alternativeTransport":{"location":[{"station":{"coordinate":{"lat":51.9169425964355,"lng":5.85500001907349},"countryCode":"NL","name":"Elst","stationCode":"EST","uicCode":"8400207"},"description":"vanaf de bushalte"},{"station":{"coordinate":{"lat":51.8436126708984,"lng":5.85222244262695},"countryCode":"NL","name":"Nijmegen","stationCode":"NM","uicCode":"8400470"},"description":"vanaf de voorzijde van het station"}],"label":"Er rijden snelbussen tussen Elst en Nijmegen.","shortLabel":"Er rijden snelbussen Elst - Nijmegen."}},{"start":"2026-05-16T04:00:00+0200","end":"2026-05-17T02:00:00+0200","alternativeTransport":{"location":[{"station":{"coordinate":{"lat":51.9169425964355,"lng":5.85500001907349},"countryCode":"NL","name":"Elst","stationCode":"EST","uicCode":"8400207"},"description":"vanaf de bushalte"},{"station":{"coordinate":{"lat":51.863154,"lng":5.859625},"countryCode":"NL","name":"Nijmegen Lent","stationCode":"NML","uicCode":"8400451"},"description":"vanaf het Hertog Eduardplein"},{"station":{"coordinate":{"lat":51.8436126708984,"lng":5.85222244262695},"countryCode":"NL","name":"Nijmegen","stationCode":"NM","uicCode":"8400470"},"description":"vanaf de voorzijde van het station"}],"label":"Er rijden stopbussen tussen Elst, Nijmegen Lent en Nijmegen.","shortLabel":"Er rijden stopbussen Elst - Lent - Nijmegen."}},{"start":"2026-05-17T04:00:00+0200","end":"2026-05-18T02:00:00+0200","alternativeTransport":{"location":[{"station":{"coordinate":{"lat":51.8436126708984,"lng":5.85222244262695},"countryCode":"NL","name":"Nijmegen","stationCode":"NM","uicCode":"8400470"},"description":"vanaf de voorzijde van het station"},{"station":{"coordinate":{"lat":51.8273,"lng":5.822722},"countryCode":"NL","name":"Nijmegen Goffert","stationCode":"NMGO","uicCode":"8400477"},"description":"vanaf de OV-halte Graafseweg zuidzijde"},{"station":{"coordinate":{"lat":51.8241653442383,"lng":5.79555559158325},"countryCode":"NL","name":"Nijmegen Dukenburg","stationCode":"NMD","uicCode":"8400475"},"description":"vanaf het busstation"},{"station":{"coordinate":{"lat":51.8116683959961,"lng":5.73083353042603},"countryCode":"NL","name":"Wijchen","stationCode":"WC","uicCode":"8400710"},"description":"vanaf de NS Bushalte"},{"station":{"coordinate":{"lat":51.7941665649414,"lng":5.63583326339722},"countryCode":"NL","name":"Ravenstein","stationCode":"RVS","uicCode":"8400515"},"description":"vanaf de voorzijde van het station"},{"station":{"coordinate":{"lat":51.7655563354492,"lng":5.53222227096558},"countryCode":"NL","name":"Oss","stationCode":"O","uicCode":"8400495"},"description":"vanaf de voorzijde van het station"},{"station":{"coordinate":{"lat":51.758056640625,"lng":5.50555562973022},"countryCode":"NL","name":"Oss West","stationCode":"OW","uicCode":"8400496"},"description":"vanaf de voorzijde van het station"},{"station":{"coordinate":{"lat":51.7147216796875,"lng":5.36805534362793},"countryCode":"NL","name":"Rosmalen","stationCode":"RS","uicCode":"8400524"},"description":"vanaf de OV halte aan de Deken van Roestellaan"},{"station":{"coordinate":{"lat":51.700553894043,"lng":5.3183331489563},"countryCode":"NL","name":"'s-Hertogenbosch Oost","stationCode":"HTO","uicCode":"8400320"},"description":"vanaf het P+R terrein van het station"},{"station":{"coordinate":{"lat":51.69048,"lng":5.29362},"countryCode":"NL","name":"'s-Hertogenbosch","stationCode":"HT","uicCode":"8400319"},"description":"vanaf de Magistratenlaan aan de achterzijde van het station"}],"label":"Er rijden stopbussen tussen Nijmegen, Nijmegen Goffert, Nijmegen Dukenburg, Wijchen, Ravenstein, Oss, Oss West, Rosmalen, s-Hertogenbosch Oost en 's-Hertogenbosch.","shortLabel":"Er rijden stopbussen Nijmegen - Goffert - Dukenburg - Wijchen - Ravenstein - Oss - Oss West - Rosmalen - s-Hertogenb. O - 's-Hertogenbosch."}},{"start":"2026-05-17T04:00:00+0200","end":"2026-05-18T02:00:00+0200","alternativeTransport":{"location":[{"station":{"coordinate":{"lat":51.8436126708984,"lng":5.85222244262695},"countryCode":"NL","name":"Nijmegen","stationCode":"NM","uicCode":"8400470"},"description":"vanaf de voorzijde van het station"},{"station":{"coordinate":{"lat":51.7655563354492,"lng":5.53222227096558},"countryCode":"NL","name":"Oss","stationCode":"O","uicCode":"8400495"},"description":"vanaf de voorzijde van het station"},{"station":{"coordinate":{"lat":51.69048,"lng":5.29362},"countryCode":"NL","name":"'s-Hertogenbosch","stationCode":"HT","uicCode":"8400319"},"description":"vanaf de Magistratenlaan aan de achterzijde van het station"}],"label":"Er rijden snelbussen tussen Nijmegen, Oss en 's-Hertogenbosch.","shortLabel":"Er rijden snelbussen Nijmegen - Oss - 's-Hertogenbosch."}},{"start":"2026-05-17T04:00:00+0200","end":"2026-05-18T02:00:00+0200","alternativeTransport":{"location":[{"station":{"coordinate":{"lat":51.8436126708984,"lng":5.85222244262695},"countryCode":"NL","name":"Nijmegen","stationCode":"NM","uicCode":"8400470"},"description":"vanaf de voorzijde van het station"},{"station":{"coordinate":{"lat":51.69048,"lng":5.29362},"countryCode":"NL","name":"'s-Hertogenbosch","stationCode":"HT","uicCode":"8400319"},"description":"vanaf de Magistratenlaan aan de achterzijde van het station"}],"label":"Er rijden snelbussen tussen Nijmegen en 's-Hertogenbosch.","shortLabel":"Er rijden snelbussen Nijmegen - 's-Hertogenbosch."}},{"start":"2026-05-18T04:00:00+0200","end":"2026-05-22T21:00:00+0200","alternativeTransport":{"location":[{"station":{"coordinate":{"lat":51.8436126708984,"lng":5.85222244262695},"countryCode":"NL","name":"Nijmegen","stationCode":"NM","uicCode":"8400470"},"description":"vanaf de voorzijde van het station"},{"station":{"coordinate":{"lat":51.8273,"lng":5.822722},"countryCode":"NL","name":"Nijmegen Goffert","stationCode":"NMGO","uicCode":"8400477"},"description":"vanaf de OV-halte Graafseweg zuidzijde"},{"station":{"coordinate":{"lat":51.8241653442383,"lng":5.79555559158325},"countryCode":"NL","name":"Nijmegen Dukenburg","stationCode":"NMD","uicCode":"8400475"},"description":"vanaf het busstation"},{"station":{"coordinate":{"lat":51.8116683959961,"lng":5.73083353042603},"countryCode":"NL","name":"Wijchen","stationCode":"WC","uicCode":"8400710"},"description":"vanaf de NS Bushalte"},{"station":{"coordinate":{"lat":51.7941665649414,"lng":5.63583326339722},"countryCode":"NL","name":"Ravenstein","stationCode":"RVS","uicCode":"8400515"},"description":"vanaf de voorzijde van het station"},{"station":{"coordinate":{"lat":51.7655563354492,"lng":5.53222227096558},"countryCode":"NL","name":"Oss","stationCode":"O","uicCode":"8400495"},"description":"vanaf de voorzijde van het station"}],"label":"Er rijden stopbussen tussen Nijmegen, Nijmegen Goffert, Nijmegen Dukenburg, Wijchen, Ravenstein en Oss.","shortLabel":"Er rijden stopbussen Nijmegen - Goffert - Dukenburg - Wijchen - Ravenstein - Oss."}},{"start":"2026-05-18T04:00:00+0200","end":"2026-05-22T21:00:00+0200","alternativeTransport":{"location":[{"station":{"coordinate":{"lat":51.8436126708984,"lng":5.85222244262695},"countryCode":"NL","name":"Nijmegen","stationCode":"NM","uicCode":"8400470"},"description":"vanaf de voorzijde van het station"},{"station":{"coordinate":{"lat":51.7655563354492,"lng":5.53222227096558},"countryCode":"NL","name":"Oss","stationCode":"O","uicCode":"8400495"},"description":"vanaf de voorzijde van het station"}],"label":"Er rijden snelbussen tussen Nijmegen en Oss.","shortLabel":"Er rijden snelbussen Nijmegen - Oss."}},{"start":"2026-05-22T21:01:00+0200","end":"2026-05-26T02:00:00+0200","alternativeTransport":{"location":[{"station":{"coordinate":{"lat":51.8436126708984,"lng":5.85222244262695},"countryCode":"NL","name":"Nijmegen","stationCode":"NM","uicCode":"8400470"},"description":"vanaf de voorzijde van het station"},{"station":{"coordinate":{"lat":51.8273,"lng":5.822722},"countryCode":"NL","name":"Nijmegen Goffert","stationCode":"NMGO","uicCode":"8400477"},"description":"vanaf de OV-halte Graafseweg zuidzijde"},{"station":{"coordinate":{"lat":51.8241653442383,"lng":5.79555559158325},"countryCode":"NL","name":"Nijmegen Dukenburg","stationCode":"NMD","uicCode":"8400475"},"description":"vanaf het busstation"},{"station":{"coordinate":{"lat":51.8116683959961,"lng":5.73083353042603},"countryCode":"NL","name":"Wijchen","stationCode":"WC","uicCode":"8400710"},"description":"vanaf de NS Bushalte"},{"station":{"coordinate":{"lat":51.7941665649414,"lng":5.63583326339722},"countryCode":"NL","name":"Ravenstein","stationCode":"RVS","uicCode":"8400515"},"description":"vanaf de voorzijde van het station"},{"station":{"coordinate":{"lat":51.7655563354492,"lng":5.53222227096558},"countryCode":"NL","name":"Oss","stationCode":"O","uicCode":"8400495"},"description":"vanaf de voorzijde van het station"}],"label":"Er rijden stopbussen tussen Nijmegen, Nijmegen Goffert, Nijmegen Dukenburg, Wijchen, Ravenstein en Oss.","shortLabel":"Er rijden stopbussen Nijmegen - Goffert - Dukenburg - Wijchen - Ravenstein - Oss."}},{"start":"2026-05-22T21:01:00+0200","end":"2026-05-26T02:00:00+0200","alternativeTransport":{"location":[{"station":{"coordinate":{"lat":51.8436126708984,"lng":5.85222244262695},"countryCode":"NL","name":"Nijmegen","stationCode":"NM","uicCode":"8400470"},"description":"vanaf de voorzijde van het station"},{"station":{"coordinate":{"lat":51.7655563354492,"lng":5.53222227096558},"countryCode":"NL","name":"Oss","stationCode":"O","uicCode":"8400495"},"description":"vanaf de voorzijde van het station"}],"label":"Er rijden snelbussen tussen Nijmegen en Oss.","shortLabel":"Er rijden snelbussen Nijmegen - Oss."}},{"start":"2026-05-26T04:00:00+0200","end":"2026-05-28T02:00:00+0200","alternativeTransport":{"location":[{"station":{"coordinate":{"lat":51.8436126708984,"lng":5.85222244262695},"countryCode":"NL","name":"Nijmegen","stationCode":"NM","uicCode":"8400470"},"description":"vanaf de voorzijde van het station"},{"station":{"coordinate":{"lat":51.8273,"lng":5.822722},"countryCode":"NL","name":"Nijmegen Goffert","stationCode":"NMGO","uicCode":"8400477"},"description":"vanaf de OV-halte Graafseweg zuidzijde"},{"station":{"coordinate":{"lat":51.8241653442383,"lng":5.79555559158325},"countryCode":"NL","name":"Nijmegen Dukenburg","stationCode":"NMD","uicCode":"8400475"},"description":"vanaf het busstation"},{"station":{"coordinate":{"lat":51.8116683959961,"lng":5.73083353042603},"countryCode":"NL","name":"Wijchen","stationCode":"WC","uicCode":"8400710"},"description":"vanaf de NS Bushalte"},{"station":{"coordinate":{"lat":51.7941665649414,"lng":5.63583326339722},"countryCode":"NL","name":"Ravenstein","stationCode":"RVS","uicCode":"8400515"},"description":"vanaf de voorzijde van het station"},{"station":{"coordinate":{"lat":51.7655563354492,"lng":5.53222227096558},"countryCode":"NL","name":"Oss","stationCode":"O","uicCode":"8400495"},"description":"vanaf de voorzijde van het station"}],"label":"Er rijden stopbussen tussen Nijmegen, Nijmegen Goffert, Nijmegen Dukenburg, Wijchen, Ravenstein en Oss.","shortLabel":"Er rijden stopbussen Nijmegen - Goffert - Dukenburg - Wijchen - Ravenstein - Oss."}},{"start":"2026-05-26T04:00:00+0200","end":"2026-05-28T02:00:00+0200","alternativeTransport":{"location":[{"station":{"coordinate":{"lat":51.8436126708984,"lng":5.85222244262695},"countryCode":"NL","name":"Nijmegen","stationCode":"NM","uicCode":"8400470"},"description":"vanaf de voorzijde van het station"},{"station":{"coordinate":{"lat":51.7655563354492,"lng":5.53222227096558},"countryCode":"NL","name":"Oss","stationCode":"O","uicCode":"8400495"},"description":"vanaf de voorzijde van het station"}],"label":"Er rijden snelbussen tussen Nijmegen en Oss.","shortLabel":"Er rijden snelbussen Nijmegen - Oss."}},{"start":"2026-05-28T04:00:00+0200","end":"2026-05-29T02:00:00+0200","alternativeTransport":{"location":[{"station":{"coordinate":{"lat":51.8436126708984,"lng":5.85222244262695},"countryCode":"NL","name":"Nijmegen","stationCode":"NM","uicCode":"8400470"},"description":"vanaf de voorzijde van het station"},{"station":{"coordinate":{"lat":51.8273,"lng":5.822722},"countryCode":"NL","name":"Nijmegen Goffert","stationCode":"NMGO","uicCode":"8400477"},"description":"vanaf de OV-halte Graafseweg zuidzijde"},{"station":{"coordinate":{"lat":51.8241653442383,"lng":5.79555559158325},"countryCode":"NL","name":"Nijmegen Dukenburg","stationCode":"NMD","uicCode":"8400475"},"description":"vanaf het busstation"},{"station":{"coordinate":{"lat":51.8116683959961,"lng":5.73083353042603},"countryCode":"NL","name":"Wijchen","stationCode":"WC","uicCode":"8400710"},"description":"vanaf de NS Bushalte"},{"station":{"coordinate":{"lat":51.7941665649414,"lng":5.63583326339722},"countryCode":"NL","name":"Ravenstein","stationCode":"RVS","uicCode":"8400515"},"description":"vanaf de voorzijde van het station"},{"station":{"coordinate":{"lat":51.7655563354492,"lng":5.53222227096558},"countryCode":"NL","name":"Oss","stationCode":"O","uicCode":"8400495"},"description":"vanaf de voorzijde van het station"}],"label":"Er rijden stopbussen tussen Nijmegen, Nijmegen Goffert, Nijmegen Dukenburg, Wijchen, Ravenstein en Oss.","shortLabel":"Er rijden stopbussen Nijmegen - Goffert - Dukenburg - Wijchen - Ravenstein - Oss."}},{"start":"2026-05-28T04:00:00+0200","end":"2026-05-29T02:00:00+0200","alternativeTransport":{"location":[{"station":{"coordinate":{"lat":51.8436126708984,"lng":5.85222244262695},"countryCode":"NL","name":"Nijmegen","stationCode":"NM","uicCode":"8400470"},"description":"vanaf de voorzijde van het station"},{"station":{"coordinate":{"lat":51.7655563354492,"lng":5.53222227096558},"countryCode":"NL","name":"Oss","stationCode":"O","uicCode":"8400495"},"description":"vanaf de voorzijde van het station"}],"label":"Er rijden snelbussen tussen Nijmegen en Oss.","shortLabel":"Er rijden snelbussen Nijmegen - Oss."}},{"start":"2026-05-28T04:00:00+0200","end":"2026-05-29T02:00:00+0200","alternativeTransport":{"location":[{"station":{"coordinate":{"lat":51.9169425964355,"lng":5.85500001907349},"countryCode":"NL","name":"Elst","stationCode":"EST","uicCode":"8400207"},"description":"vanaf de bushalte"},{"station":{"coordinate":{"lat":51.863154,"lng":5.859625},"countryCode":"NL","name":"Nijmegen Lent","stationCode":"NML","uicCode":"8400451"},"description":"vanaf het Hertog Eduardplein"},{"station":{"coordinate":{"lat":51.8436126708984,"lng":5.85222244262695},"countryCode":"NL","name":"Nijmegen","stationCode":"NM","uicCode":"8400470"},"description":"vanaf de voorzijde van het station"}],"label":"Er rijden stopbussen tussen Elst, Nijmegen Lent en Nijmegen.","shortLabel":"Er rijden stopbussen Elst - Lent - Nijmegen."}},{"start":"2026-05-29T04:00:00+0200","end":"2026-05-30T02:00:00+0200","alternativeTransport":{"location":[{"station":{"coordinate":{"lat":51.8436126708984,"lng":5.85222244262695},"countryCode":"NL","name":"Nijmegen","stationCode":"NM","uicCode":"8400470"},"description":"vanaf de voorzijde van het station"},{"station":{"coordinate":{"lat":51.8273,"lng":5.822722},"countryCode":"NL","name":"Nijmegen Goffert","stationCode":"NMGO","uicCode":"8400477"},"description":"vanaf de OV-halte Graafseweg zuidzijde"},{"station":{"coordinate":{"lat":51.8241653442383,"lng":5.79555559158325},"countryCode":"NL","name":"Nijmegen Dukenburg","stationCode":"NMD","uicCode":"8400475"},"description":"vanaf het busstation"},{"station":{"coordinate":{"lat":51.8116683959961,"lng":5.73083353042603},"countryCode":"NL","name":"Wijchen","stationCode":"WC","uicCode":"8400710"},"description":"vanaf de NS Bushalte"},{"station":{"coordinate":{"lat":51.7941665649414,"lng":5.63583326339722},"countryCode":"NL","name":"Ravenstein","stationCode":"RVS","uicCode":"8400515"},"description":"vanaf de voorzijde van het station"},{"station":{"coordinate":{"lat":51.7655563354492,"lng":5.53222227096558},"countryCode":"NL","name":"Oss","stationCode":"O","uicCode":"8400495"},"description":"vanaf de voorzijde van het station"}],"label":"Er rijden stopbussen tussen Nijmegen, Nijmegen Goffert, Nijmegen Dukenburg, Wijchen, Ravenstein en Oss.","shortLabel":"Er rijden stopbussen Nijmegen - Goffert - Dukenburg - Wijchen - Ravenstein - Oss."}},{"start":"2026-05-29T04:00:00+0200","end":"2026-05-30T02:00:00+0200","alternativeTransport":{"location":[{"station":{"coordinate":{"lat":51.8436126708984,"lng":5.85222244262695},"countryCode":"NL","name":"Nijmegen","stationCode":"NM","uicCode":"8400470"},"description":"vanaf de voorzijde van het station"},{"station":{"coordinate":{"lat":51.7655563354492,"lng":5.53222227096558},"countryCode":"NL","name":"Oss","stationCode":"O","uicCode":"8400495"},"description":"vanaf de voorzijde van het station"}],"label":"Er rijden snelbussen tussen Nijmegen en Oss.","shortLabel":"Er rijden snelbussen Nijmegen - Oss."}},{"start":"2026-05-29T04:00:00+0200","end":"2026-05-30T02:00:00+0200","alternativeTransport":{"location":[{"station":{"coordinate":{"lat":51.9850006103516,"lng":5.89916658401489},"countryCode":"NL","name":"Arnhem Centraal","stationCode":"AH","uicCode":"8400071"},"description":"vanaf de Sonsbeekzijde (Nachtnet busterminal)"},{"station":{"coordinate":{"lat":51.8436126708984,"lng":5.85222244262695},"countryCode":"NL","name":"Nijmegen","stationCode":"NM","uicCode":"8400470"},"description":"vanaf de voorzijde van het station"}],"label":"Er rijden snelbussen tussen Arnhem Centraal en Nijmegen.","shortLabel":"Er rijden snelbussen Arnhem C. - Nijmegen."}},{"start":"2026-05-29T04:00:00+0200","end":"2026-05-30T02:00:00+0200","alternativeTransport":{"location":[{"station":{"coordinate":{"lat":51.9850006103516,"lng":5.89916658401489},"countryCode":"NL","name":"Arnhem Centraal","stationCode":"AH","uicCode":"8400071"},"description":"vanaf de Sonsbeekzijde (Nachtnet busterminal)"},{"station":{"coordinate":{"lat":51.9550018310547,"lng":5.85194444656372},"countryCode":"NL","name":"Arnhem Zuid","stationCode":"AHZ","uicCode":"8400227"},"description":"vanaf de bushalte"},{"station":{"coordinate":{"lat":51.9169425964355,"lng":5.85500001907349},"countryCode":"NL","name":"Elst","stationCode":"EST","uicCode":"8400207"},"description":"vanaf de bushalte"},{"station":{"coordinate":{"lat":51.863154,"lng":5.859625},"countryCode":"NL","name":"Nijmegen Lent","stationCode":"NML","uicCode":"8400451"},"description":"vanaf het Hertog Eduardplein"},{"station":{"coordinate":{"lat":51.8436126708984,"lng":5.85222244262695},"countryCode":"NL","name":"Nijmegen","stationCode":"NM","uicCode":"8400470"},"description":"vanaf de voorzijde van het station"}],"label":"Er rijden stopbussen tussen Arnhem Centraal, Arnhem Zuid, Elst, Nijmegen Lent en Nijmegen.","shortLabel":"Er rijden stopbussen Arnhem C. - Arnhem Zuid - Elst - Lent - Nijmegen."}},{"start":"2026-05-29T04:00:00+0200","end":"2026-05-30T02:00:00+0200","alternativeTransport":{"location":[{"station":{"coordinate":{"lat":51.8436126708984,"lng":5.85222244262695},"countryCode":"NL","name":"Nijmegen","stationCode":"NM","uicCode":"8400470"},"description":"vanaf de voorzijde van het station"},{"station":{"coordinate":{"lat":51.8269462585449,"lng":5.86749982833862},"countryCode":"NL","name":"Nijmegen Heyendaal","stationCode":"NMH","uicCode":"8400468"},"description":"vanaf de bushalte"},{"station":{"coordinate":{"lat":51.766262,"lng":5.879133},"countryCode":"NL","name":"Mook-Molenhoek","stationCode":"MMLH","uicCode":"8400446"},"description":"vanaf het P+R-terrein"}],"label":"Er rijden stopbussen tussen Nijmegen, Nijmegen Heyendaal en Mook-Molenhoek.","shortLabel":"Er rijden stopbussen Nijmegen - Heyendaal - Molenhoek."}}]},{"type":"MAINTENANCE","id":"7006821","title":"Alkmaar - Den Helder; Alkmaar - Hoorn.; Haarlem - Alkmaar; Alkmaar - Den Helder.","isActive":true,"local":false,"titleSections":[[{"type":"STATION","value":"Alkmaar"},{"type":"ICON","value":"MAINTENANCE"},{"type":"STATION","value":"Den Helder"}],[{"type":"STATION","value":"Alkmaar"},{"type":"ICON","value":"MAINTENANCE"},{"type":"STATION","value":"Hoorn"}],[{"type":"STATION","value":"Haarlem"},{"type":"STATION","value":"Uitgeest"},{"type":"ICON","value":"MAINTENANCE"},{"type":"STATION","value":"Alkmaar"}],[{"type":"STATION","value":"Alkmaar"},{"type":"ICON","value":"MAINTENANCE"},{"type":"STATION","value":"Heerhugowaard"},{"type":"STATION","value":"Den Helder"}]],"registrationTime":"2026-05-29T08:58:32+0200","start":"2026-05-27T04:00:00+0200","releaseTime":"2026-05-29T08:58:32+0200","end":"2026-06-01T02:00:00+0200","period":"Woensdag 27 mei 4:00 uur t/m maandag 1 juni 2:00 uur.","impact":{"value":5},"publicationSections":[{"section":{"stations":[{"coordinate":{"lat":52.6377792358398,"lng":4.73972225189209},"countryCode":"NL","name":"Alkmaar","stationCode":"AMR","uicCode":"8400050"},{"coordinate":{"lat":52.6438903808594,"lng":4.76416683197022},"countryCode":"NL","name":"Alkmaar Noord","stationCode":"AMRN","uicCode":"8400052"},{"coordinate":{"lat":52.6697235107422,"lng":4.82277774810791},"countryCode":"NL","name":"Heerhugowaard","stationCode":"HWD","uicCode":"8400306"},{"coordinate":{"lat":52.7844429016113,"lng":4.80527782440186},"countryCode":"NL","name":"Schagen","stationCode":"SGN","uicCode":"8400549"},{"coordinate":{"lat":52.8672218322754,"lng":4.81111097335815},"countryCode":"NL","name":"Anna Paulowna","stationCode":"ANA","uicCode":"8400065"},{"coordinate":{"lat":52.9324989318848,"lng":4.76416683197022},"countryCode":"NL","name":"Den Helder Zuid","stationCode":"HDRZ","uicCode":"8400303"},{"coordinate":{"lat":52.9552764892578,"lng":4.76111125946045},"countryCode":"NL","name":"Den Helder","stationCode":"HDR","uicCode":"8400311"}],"direction":"BOTH","operators":["NS"]},"consequence":{"section":{"stations":[{"coordinate":{"lat":52.6377792358398,"lng":4.73972225189209},"countryCode":"NL","name":"Alkmaar","stationCode":"AMR","uicCode":"8400050"},{"coordinate":{"lat":52.6438903808594,"lng":4.76416683197022},"countryCode":"NL","name":"Alkmaar Noord","stationCode":"AMRN","uicCode":"8400052"},{"coordinate":{"lat":52.6697235107422,"lng":4.82277774810791},"countryCode":"NL","name":"Heerhugowaard","stationCode":"HWD","uicCode":"8400306"},{"coordinate":{"lat":52.7844429016113,"lng":4.80527782440186},"countryCode":"NL","name":"Schagen","stationCode":"SGN","uicCode":"8400549"},{"coordinate":{"lat":52.8672218322754,"lng":4.81111097335815},"countryCode":"NL","name":"Anna Paulowna","stationCode":"ANA","uicCode":"8400065"},{"coordinate":{"lat":52.9324989318848,"lng":4.76416683197022},"countryCode":"NL","name":"Den Helder Zuid","stationCode":"HDRZ","uicCode":"8400303"},{"coordinate":{"lat":52.9552764892578,"lng":4.76111125946045},"countryCode":"NL","name":"Den Helder","stationCode":"HDR","uicCode":"8400311"}],"direction":"BOTH","operators":["NS"]},"description":"dienstregeling aangepast","level":"LESS_TRAINS"},"sectionType":"NL"},{"section":{"stations":[{"coordinate":{"lat":52.6377792358398,"lng":4.73972225189209},"countryCode":"NL","name":"Alkmaar","stationCode":"AMR","uicCode":"8400050"},{"coordinate":{"lat":52.6438903808594,"lng":4.76416683197022},"countryCode":"NL","name":"Alkmaar Noord","stationCode":"AMRN","uicCode":"8400052"},{"coordinate":{"lat":52.6697235107422,"lng":4.82277774810791},"countryCode":"NL","name":"Heerhugowaard","stationCode":"HWD","uicCode":"8400306"},{"coordinate":{"lat":52.6780548095703,"lng":4.90722227096558},"countryCode":"NL","name":"Obdam","stationCode":"OBD","uicCode":"8400480"},{"coordinate":{"lat":52.6447219848633,"lng":5.05555534362793},"countryCode":"NL","name":"Hoorn","stationCode":"HN","uicCode":"8400337"}],"direction":"BOTH","operators":["NS"]},"consequence":{"section":{"stations":[{"coordinate":{"lat":52.6377792358398,"lng":4.73972225189209},"countryCode":"NL","name":"Alkmaar","stationCode":"AMR","uicCode":"8400050"},{"coordinate":{"lat":52.6438903808594,"lng":4.76416683197022},"countryCode":"NL","name":"Alkmaar Noord","stationCode":"AMRN","uicCode":"8400052"},{"coordinate":{"lat":52.6697235107422,"lng":4.82277774810791},"countryCode":"NL","name":"Heerhugowaard","stationCode":"HWD","uicCode":"8400306"},{"coordinate":{"lat":52.6780548095703,"lng":4.90722227096558},"countryCode":"NL","name":"Obdam","stationCode":"OBD","uicCode":"8400480"},{"coordinate":{"lat":52.6447219848633,"lng":5.05555534362793},"countryCode":"NL","name":"Hoorn","stationCode":"HN","uicCode":"8400337"}],"direction":"BOTH","operators":["NS"]},"description":"dienstregeling aangepast","level":"LESS_TRAINS"},"sectionType":"NL"},{"section":{"stations":[{"coordinate":{"lat":52.3877792358398,"lng":4.63833332061768},"countryCode":"NL","name":"Haarlem","stationCode":"HLM","uicCode":"8400285"},{"coordinate":{"lat":52.404167175293,"lng":4.62750005722046},"countryCode":"NL","name":"Bloemendaal","stationCode":"BLL","uicCode":"8400118"},{"coordinate":{"lat":52.4197235107422,"lng":4.63138866424561},"countryCode":"NL","name":"Santpoort Zuid","stationCode":"SPTZ","uicCode":"8400544"},{"coordinate":{"lat":52.4338874816895,"lng":4.63250017166138},"countryCode":"NL","name":"Santpoort Noord","stationCode":"SPTN","uicCode":"8400543"},{"coordinate":{"lat":52.4425010681152,"lng":4.63805532455444},"countryCode":"NL","name":"Driehuis","stationCode":"DRH","uicCode":"8400183"},{"coordinate":{"lat":52.4783325195313,"lng":4.65666675567627},"countryCode":"NL","name":"Beverwijk","stationCode":"BV","uicCode":"8400113"},{"coordinate":{"lat":52.4952774047852,"lng":4.68694448471069},"countryCode":"NL","name":"Heemskerk","stationCode":"HK","uicCode":"8400317"},{"coordinate":{"lat":52.5216674804687,"lng":4.70166683197022},"countryCode":"NL","name":"Uitgeest","stationCode":"UTG","uicCode":"8400615"},{"coordinate":{"lat":52.5458335876465,"lng":4.65861129760742},"countryCode":"NL","name":"Castricum","stationCode":"CAS","uicCode":"8400151"},{"coordinate":{"lat":52.5994453430176,"lng":4.70055532455444},"countryCode":"NL","name":"Heiloo","stationCode":"HLO","uicCode":"8400309"},{"coordinate":{"lat":52.6377792358398,"lng":4.73972225189209},"countryCode":"NL","name":"Alkmaar","stationCode":"AMR","uicCode":"8400050"}],"direction":"BOTH","operators":["NS"]},"consequence":{"section":{"stations":[{"coordinate":{"lat":52.5216674804687,"lng":4.70166683197022},"countryCode":"NL","name":"Uitgeest","stationCode":"UTG","uicCode":"8400615"},{"coordinate":{"lat":52.5458335876465,"lng":4.65861129760742},"countryCode":"NL","name":"Castricum","stationCode":"CAS","uicCode":"8400151"},{"coordinate":{"lat":52.5994453430176,"lng":4.70055532455444},"countryCode":"NL","name":"Heiloo","stationCode":"HLO","uicCode":"8400309"},{"coordinate":{"lat":52.6377792358398,"lng":4.73972225189209},"countryCode":"NL","name":"Alkmaar","stationCode":"AMR","uicCode":"8400050"}],"direction":"BOTH","operators":["NS"]},"description":"er rijden bussen","level":"LESS_TRAINS"},"sectionType":"NL"},{"section":{"stations":[{"coordinate":{"lat":52.6377792358398,"lng":4.73972225189209},"countryCode":"NL","name":"Alkmaar","stationCode":"AMR","uicCode":"8400050"},{"coordinate":{"lat":52.6438903808594,"lng":4.76416683197022},"countryCode":"NL","name":"Alkmaar Noord","stationCode":"AMRN","uicCode":"8400052"},{"coordinate":{"lat":52.6697235107422,"lng":4.82277774810791},"countryCode":"NL","name":"Heerhugowaard","stationCode":"HWD","uicCode":"8400306"},{"coordinate":{"lat":52.7844429016113,"lng":4.80527782440186},"countryCode":"NL","name":"Schagen","stationCode":"SGN","uicCode":"8400549"},{"coordinate":{"lat":52.8672218322754,"lng":4.81111097335815},"countryCode":"NL","name":"Anna Paulowna","stationCode":"ANA","uicCode":"8400065"},{"coordinate":{"lat":52.9324989318848,"lng":4.76416683197022},"countryCode":"NL","name":"Den Helder Zuid","stationCode":"HDRZ","uicCode":"8400303"},{"coordinate":{"lat":52.9552764892578,"lng":4.76111125946045},"countryCode":"NL","name":"Den Helder","stationCode":"HDR","uicCode":"8400311"}],"direction":"BOTH","operators":["NS"]},"consequence":{"section":{"stations":[{"coordinate":{"lat":52.6377792358398,"lng":4.73972225189209},"countryCode":"NL","name":"Alkmaar","stationCode":"AMR","uicCode":"8400050"},{"coordinate":{"lat":52.6438903808594,"lng":4.76416683197022},"countryCode":"NL","name":"Alkmaar Noord","stationCode":"AMRN","uicCode":"8400052"},{"coordinate":{"lat":52.6697235107422,"lng":4.82277774810791},"countryCode":"NL","name":"Heerhugowaard","stationCode":"HWD","uicCode":"8400306"}],"direction":"BOTH","operators":["NS"]},"description":"er rijden bussen","level":"LESS_TRAINS"},"sectionType":"NL"}],"summaryAdditionalTravelTime":{"label":"De extra reistijd is meer dan 30 minuten.","shortLabel":"Extra reistijd meer dan 30 min.","minimumDurationInMinutes":30},"timespans":[{"start":"2026-05-29T04:00:00+0200","end":"2026-05-31T02:00:00+0200","period":"Vrijdag 29 mei 4:00 uur t/m zondag 31 mei 2:00 uur.","situation":{"label":"Door werkzaamheden: tussen Uitgeest en Alkmaar rijden er bussen en tussen Alkmaar en Heerhugowaard rijden er bussen."},"cause":{"label":"werkzaamheden","type":"OTHER"},"additionalTravelTime":{"label":"De extra reistijd is meer dan 30 minuten.","shortLabel":"Extra reistijd meer dan 30 min.","minimumDurationInMinutes":30},"alternativeTransport":{"label":"er rijden stop- en snelbussen","shortLabel":"er rijden stop- en snelbussen"},"advices":["Tussen Heerhugowaard en Uitgeest reis via Hoorn en Zaandam."]},{"start":"2026-05-31T04:00:00+0200","end":"2026-06-01T02:00:00+0200","period":"Zondag 31 mei 4:00 uur t/m maandag 1 juni 2:00 uur.","situation":{"label":"Door werkzaamheden: tussen Uitgeest en Alkmaar rijden er bussen en tussen Alkmaar en Heerhugowaard rijden er bussen."},"cause":{"label":"werkzaamheden","type":"OTHER"},"additionalTravelTime":{"label":"De extra reistijd is meer dan 30 minuten.","shortLabel":"Extra reistijd meer dan 30 min.","minimumDurationInMinutes":30},"alternativeTransport":{"label":"er rijden stop- en snelbussen","shortLabel":"er rijden stop- en snelbussen"},"advices":["Tussen Heerhugowaard en Uitgeest reis via Hoorn en Zaandam."]}],"alternativeTransportTimespans":[{"start":"2026-05-29T04:00:00+0200","end":"2026-05-31T02:00:00+0200","alternativeTransport":{"location":[{"station":{"coordinate":{"lat":52.6377792358398,"lng":4.73972225189209},"countryCode":"NL","name":"Alkmaar","stationCode":"AMR","uicCode":"8400050"},"description":"vanaf de achterzijde van het station"},{"station":{"coordinate":{"lat":52.5994453430176,"lng":4.70055532455444},"countryCode":"NL","name":"Heiloo","stationCode":"HLO","uicCode":"8400309"},"description":"vanaf de voorzijde van het station"}],"label":"Er rijden stopbussen tussen Alkmaar en Heiloo.","shortLabel":"Er rijden stopbussen Alkmaar - Heiloo."}},{"start":"2026-05-29T04:00:00+0200","end":"2026-05-31T02:00:00+0200","alternativeTransport":{"location":[{"station":{"coordinate":{"lat":52.6377792358398,"lng":4.73972225189209},"countryCode":"NL","name":"Alkmaar","stationCode":"AMR","uicCode":"8400050"},"description":"vanaf de achterzijde van het station"},{"station":{"coordinate":{"lat":52.6438903808594,"lng":4.76416683197022},"countryCode":"NL","name":"Alkmaar Noord","stationCode":"AMRN","uicCode":"8400052"},"description":"vanaf het busstation"},{"station":{"coordinate":{"lat":52.6697235107422,"lng":4.82277774810791},"countryCode":"NL","name":"Heerhugowaard","stationCode":"HWD","uicCode":"8400306"},"description":"vanaf het busstation"}],"label":"Er rijden stopbussen tussen Alkmaar, Alkmaar Noord en Heerhugowaard.","shortLabel":"Er rijden stopbussen Alkmaar - Alkmaar Noord - Heerhugowaard."}},{"start":"2026-05-29T04:00:00+0200","end":"2026-05-31T02:00:00+0200","alternativeTransport":{"location":[{"station":{"coordinate":{"lat":52.6377792358398,"lng":4.73972225189209},"countryCode":"NL","name":"Alkmaar","stationCode":"AMR","uicCode":"8400050"},"description":"vanaf de achterzijde van het station"},{"station":{"coordinate":{"lat":52.5216674804687,"lng":4.70166683197022},"countryCode":"NL","name":"Uitgeest","stationCode":"UTG","uicCode":"8400615"},"description":"volg de aanwijzingen op het station"}],"label":"Er rijden snelbussen tussen Alkmaar en Uitgeest.","shortLabel":"Er rijden snelbussen Alkmaar - Uitgeest."}},{"start":"2026-05-31T04:00:00+0200","end":"2026-06-01T02:00:00+0200","alternativeTransport":{"location":[{"station":{"coordinate":{"lat":52.6377792358398,"lng":4.73972225189209},"countryCode":"NL","name":"Alkmaar","stationCode":"AMR","uicCode":"8400050"},"description":"vanaf de achterzijde van het station"},{"station":{"coordinate":{"lat":52.5994453430176,"lng":4.70055532455444},"countryCode":"NL","name":"Heiloo","stationCode":"HLO","uicCode":"8400309"},"description":"vanaf de voorzijde van het station"},{"station":{"coordinate":{"lat":52.5458335876465,"lng":4.65861129760742},"countryCode":"NL","name":"Castricum","stationCode":"CAS","uicCode":"8400151"},"description":"vanaf de voorzijde van het station"},{"station":{"coordinate":{"lat":52.5216674804687,"lng":4.70166683197022},"countryCode":"NL","name":"Uitgeest","stationCode":"UTG","uicCode":"8400615"},"description":"volg de aanwijzingen op het station"}],"label":"Er rijden stopbussen tussen Alkmaar, Heiloo, Castricum en Uitgeest.","shortLabel":"Er rijden stopbussen Alkmaar - Heiloo - Castricum - Uitgeest."}},{"start":"2026-05-31T04:00:00+0200","end":"2026-06-01T02:00:00+0200","alternativeTransport":{"location":[{"station":{"coordinate":{"lat":52.6377792358398,"lng":4.73972225189209},"countryCode":"NL","name":"Alkmaar","stationCode":"AMR","uicCode":"8400050"},"description":"vanaf de achterzijde van het station"},{"station":{"coordinate":{"lat":52.6438903808594,"lng":4.76416683197022},"countryCode":"NL","name":"Alkmaar Noord","stationCode":"AMRN","uicCode":"8400052"},"description":"vanaf het busstation"},{"station":{"coordinate":{"lat":52.6697235107422,"lng":4.82277774810791},"countryCode":"NL","name":"Heerhugowaard","stationCode":"HWD","uicCode":"8400306"},"description":"vanaf het busstation"}],"label":"Er rijden stopbussen tussen Alkmaar, Alkmaar Noord en Heerhugowaard.","shortLabel":"Er rijden stopbussen Alkmaar - Alkmaar Noord - Heerhugowaard."}},{"start":"2026-05-31T04:00:00+0200","end":"2026-06-01T02:00:00+0200","alternativeTransport":{"location":[{"station":{"coordinate":{"lat":52.6377792358398,"lng":4.73972225189209},"countryCode":"NL","name":"Alkmaar","stationCode":"AMR","uicCode":"8400050"},"description":"vanaf de achterzijde van het station"},{"station":{"coordinate":{"lat":52.5216674804687,"lng":4.70166683197022},"countryCode":"NL","name":"Uitgeest","stationCode":"UTG","uicCode":"8400615"},"description":"volg de aanwijzingen op het station"}],"label":"Er rijden snelbussen tussen Alkmaar en Uitgeest.","shortLabel":"Er rijden snelbussen Alkmaar - Uitgeest."}}]},{"type":"MAINTENANCE","id":"7007940","title":"Amsterdam - Utrecht; Amsterdam - Gouda.","isActive":false,"local":false,"titleSections":[[{"type":"STATION","value":"Amsterdam C."},{"type":"STATION","value":"Abcoude"},{"type":"ICON","value":"MAINTENANCE"},{"type":"STATION","value":"Breukelen"},{"type":"STATION","value":"Gouda"}],[{"type":"STATION","value":"Amsterdam C."},{"type":"STATION","value":"Abcoude"},{"type":"ICON","value":"MAINTENANCE"},{"type":"STATION","value":"Breukelen"},{"type":"STATION","value":"Utrecht C."}]],"registrationTime":"2026-05-28T07:55:57+0200","start":"2026-05-29T14:00:00+0200","releaseTime":"2026-05-28T07:55:57+0200","end":"2026-05-29T14:25:00+0200","period":"Vrijdag 29 mei 14:00 uur t/m vrijdag 29 mei 14:25 uur.","impact":{"value":3},"publicationSections":[{"section":{"stations":[{"coordinate":{"lat":52.3788871765137,"lng":4.90027761459351},"countryCode":"NL","name":"Amsterdam Centraal","stationCode":"ASD","uicCode":"8400058"},{"coordinate":{"lat":52.3605537414551,"lng":4.93111133575439},"countryCode":"NL","name":"Amsterdam Muiderpoort","stationCode":"ASDM","uicCode":"8400060"},{"coordinate":{"lat":52.3466682434082,"lng":4.91777801513672},"countryCode":"NL","name":"Amsterdam Amstel","stationCode":"ASA","uicCode":"8400057"},{"coordinate":{"lat":52.3233337402344,"lng":4.93638896942139},"countryCode":"NL","name":"Duivendrecht","stationCode":"DVD","uicCode":"8400194"},{"coordinate":{"lat":52.3122215270996,"lng":4.94694423675537},"countryCode":"NL","name":"Amsterdam Bijlmer ArenA","stationCode":"ASB","uicCode":"8400074"},{"coordinate":{"lat":52.29844,"lng":4.95972},"countryCode":"NL","name":"Amsterdam Holendrecht","stationCode":"ASHD","uicCode":"8400231"},{"coordinate":{"lat":52.2785,"lng":4.977},"countryCode":"NL","name":"Abcoude","stationCode":"AC","uicCode":"8400047"},{"coordinate":{"lat":52.17149,"lng":4.9906},"countryCode":"NL","name":"Breukelen","stationCode":"BKL","uicCode":"8400133"},{"coordinate":{"lat":52.0849990844727,"lng":4.89361095428467},"countryCode":"NL","name":"Woerden","stationCode":"WD","uicCode":"8400702"},{"coordinate":{"lat":52.0149993896484,"lng":4.7408332824707},"countryCode":"NL","name":"Gouda Goverwelle","stationCode":"GDG","uicCode":"8400257"},{"coordinate":{"lat":52.0175018310547,"lng":4.70444440841675},"countryCode":"NL","name":"Gouda","stationCode":"GD","uicCode":"8400258"}],"direction":"BOTH","operators":["NS"]},"consequence":{"section":{"stations":[{"coordinate":{"lat":52.2785,"lng":4.977},"countryCode":"NL","name":"Abcoude","stationCode":"AC","uicCode":"8400047"},{"coordinate":{"lat":52.17149,"lng":4.9906},"countryCode":"NL","name":"Breukelen","stationCode":"BKL","uicCode":"8400133"}],"direction":"BOTH","operators":["NS"]},"description":"geen Sprinters","level":"LESS_TRAINS"},"sectionType":"NL"},{"section":{"stations":[{"coordinate":{"lat":52.3788871765137,"lng":4.90027761459351},"countryCode":"NL","name":"Amsterdam Centraal","stationCode":"ASD","uicCode":"8400058"},{"coordinate":{"lat":52.3605537414551,"lng":4.93111133575439},"countryCode":"NL","name":"Amsterdam Muiderpoort","stationCode":"ASDM","uicCode":"8400060"},{"coordinate":{"lat":52.3466682434082,"lng":4.91777801513672},"countryCode":"NL","name":"Amsterdam Amstel","stationCode":"ASA","uicCode":"8400057"},{"coordinate":{"lat":52.3233337402344,"lng":4.93638896942139},"countryCode":"NL","name":"Duivendrecht","stationCode":"DVD","uicCode":"8400194"},{"coordinate":{"lat":52.3122215270996,"lng":4.94694423675537},"countryCode":"NL","name":"Amsterdam Bijlmer ArenA","stationCode":"ASB","uicCode":"8400074"},{"coordinate":{"lat":52.29844,"lng":4.95972},"countryCode":"NL","name":"Amsterdam Holendrecht","stationCode":"ASHD","uicCode":"8400231"},{"coordinate":{"lat":52.2785,"lng":4.977},"countryCode":"NL","name":"Abcoude","stationCode":"AC","uicCode":"8400047"},{"coordinate":{"lat":52.17149,"lng":4.9906},"countryCode":"NL","name":"Breukelen","stationCode":"BKL","uicCode":"8400133"},{"coordinate":{"lat":52.1352767944336,"lng":5.03361129760742},"countryCode":"NL","name":"Maarssen","stationCode":"MAS","uicCode":"8400419"},{"coordinate":{"lat":52.103055,"lng":5.09},"countryCode":"NL","name":"Utrecht Zuilen","stationCode":"UTZL","uicCode":"8400613"},{"coordinate":{"lat":52.0888900756836,"lng":5.11027765274048},"countryCode":"NL","name":"Utrecht Centraal","stationCode":"UT","uicCode":"8400621"}],"direction":"BOTH","operators":["NS"]},"consequence":{"section":{"stations":[{"coordinate":{"lat":52.2785,"lng":4.977},"countryCode":"NL","name":"Abcoude","stationCode":"AC","uicCode":"8400047"},{"coordinate":{"lat":52.17149,"lng":4.9906},"countryCode":"NL","name":"Breukelen","stationCode":"BKL","uicCode":"8400133"}],"direction":"BOTH","operators":["NS"]},"description":"geen Sprinters","level":"LESS_TRAINS"},"sectionType":"NL"}],"timespans":[{"start":"2026-05-29T14:00:00+0200","end":"2026-05-29T14:25:00+0200","period":"Vrijdag 29 mei 14:00 uur t/m vrijdag 29 mei 14:25 uur.","situation":{"label":"Door technisch onderzoek: tussen Abcoude en Breukelen rijden er geen Sprinters."},"cause":{"label":"technisch onderzoek","type":"DISRUPTED_LATER_TODAY"},"advices":[]}],"alternativeTransportTimespans":[]},{"type":"MAINTENANCE","id":"7007930","title":"Amsterdam - Köln - Zürich HB.","isActive":false,"local":false,"titleSections":[[{"type":"STATION","value":"Amsterdam C."},{"type":"ICON","value":"MAINTENANCE"},{"type":"STATION","value":"Zürich HB"}]],"registrationTime":"2026-05-27T15:13:31+0200","start":"2026-05-29T20:00:00+0200","releaseTime":"2026-05-27T15:13:31+0200","end":"2026-05-29T22:30:00+0200","period":"Vrijdag 29 mei 20:00 uur t/m vrijdag 29 mei 22:30 uur.","impact":{"value":2},"publicationSections":[{"section":{"stations":[{"coordinate":{"lat":52.3788871765137,"lng":4.90027761459351},"countryCode":"NL","name":"Amsterdam Centraal","stationCode":"ASD","uicCode":"8400058"},{"coordinate":{"lat":52.3605537414551,"lng":4.93111133575439},"countryCode":"NL","name":"Amsterdam Muiderpoort","stationCode":"ASDM","uicCode":"8400060"},{"coordinate":{"lat":52.3466682434082,"lng":4.91777801513672},"countryCode":"NL","name":"Amsterdam Amstel","stationCode":"ASA","uicCode":"8400057"},{"coordinate":{"lat":52.3233337402344,"lng":4.93638896942139},"countryCode":"NL","name":"Duivendrecht","stationCode":"DVD","uicCode":"8400194"},{"coordinate":{"lat":52.3122215270996,"lng":4.94694423675537},"countryCode":"NL","name":"Amsterdam Bijlmer ArenA","stationCode":"ASB","uicCode":"8400074"},{"coordinate":{"lat":52.29844,"lng":4.95972},"countryCode":"NL","name":"Amsterdam Holendrecht","stationCode":"ASHD","uicCode":"8400231"},{"coordinate":{"lat":52.2785,"lng":4.977},"countryCode":"NL","name":"Abcoude","stationCode":"AC","uicCode":"8400047"},{"coordinate":{"lat":52.17149,"lng":4.9906},"countryCode":"NL","name":"Breukelen","stationCode":"BKL","uicCode":"8400133"},{"coordinate":{"lat":52.1352767944336,"lng":5.03361129760742},"countryCode":"NL","name":"Maarssen","stationCode":"MAS","uicCode":"8400419"},{"coordinate":{"lat":52.103055,"lng":5.09},"countryCode":"NL","name":"Utrecht Zuilen","stationCode":"UTZL","uicCode":"8400613"},{"coordinate":{"lat":52.0888900756836,"lng":5.11027765274048},"countryCode":"NL","name":"Utrecht Centraal","stationCode":"UT","uicCode":"8400621"},{"coordinate":{"lat":52.078889,"lng":5.121667},"countryCode":"NL","name":"Utrecht Vaartsche Rijn","stationCode":"UTVR","uicCode":"8400606"},{"coordinate":{"lat":52.0630569458008,"lng":5.19444465637207},"countryCode":"NL","name":"Bunnik","stationCode":"BNK","uicCode":"8400141"},{"coordinate":{"lat":52.0652770996094,"lng":5.25861120223999},"countryCode":"NL","name":"Driebergen-Zeist","stationCode":"DB","uicCode":"8400182"},{"coordinate":{"lat":52.0641670227051,"lng":5.36999988555908},"countryCode":"NL","name":"Maarn","stationCode":"MRN","uicCode":"8400417"},{"coordinate":{"lat":52.0458335876465,"lng":5.57388877868652},"countryCode":"NL","name":"Veenendaal-De Klomp","stationCode":"KLP","uicCode":"8400637"},{"coordinate":{"lat":52.0277786254883,"lng":5.67305564880371},"countryCode":"NL","name":"Ede-Wageningen","stationCode":"ED","uicCode":"8400200"},{"coordinate":{"lat":52.0055541992188,"lng":5.7936110496521},"countryCode":"NL","name":"Wolfheze","stationCode":"WF","uicCode":"8400704"},{"coordinate":{"lat":51.9949989318848,"lng":5.84000015258789},"countryCode":"NL","name":"Oosterbeek","stationCode":"OTB","uicCode":"8400489"},{"coordinate":{"lat":51.9850006103516,"lng":5.89916658401489},"countryCode":"NL","name":"Arnhem Centraal","stationCode":"AH","uicCode":"8400071"},{"coordinate":{"lat":51.985279083252,"lng":5.91944456100464},"countryCode":"NL","name":"Arnhem Velperpoort","stationCode":"AHP","uicCode":"8400072"},{"coordinate":{"lat":51.96286,"lng":5.9695},"countryCode":"NL","name":"Westervoort","stationCode":"WTV","uicCode":"8400688"},{"coordinate":{"lat":51.9433326721191,"lng":6.01472234725952},"countryCode":"NL","name":"Duiven","stationCode":"DVN","uicCode":"8400193"},{"coordinate":{"lat":51.9230537414551,"lng":6.07194423675537},"countryCode":"NL","name":"Zevenaar","stationCode":"ZV","uicCode":"8400735"},{"coordinate":{"lat":51.8743,"lng":6.15417},"countryCode":"D","name":"Emmerich-Elten","stationCode":"EL","uicCode":"8033415"},{"coordinate":{"lat":51.834283,"lng":6.255718},"countryCode":"D","name":"Emmerich","stationCode":"EM","uicCode":"8010288"},{"coordinate":{"lat":51.47512,"lng":6.852038},"countryCode":"D","name":"Oberhausen Hbf","stationCode":"OBERH","uicCode":"8010263"},{"coordinate":{"lat":51.4297785713316,"lng":6.77590370178222},"countryCode":"D","name":"Duisburg Hbf","stationCode":"DUISB","uicCode":"8010316"},{"coordinate":{"lat":51.220146,"lng":6.793137},"countryCode":"D","name":"Düsseldorf Hbf","stationCode":"DUSSEL","uicCode":"8008094"},{"coordinate":{"lat":50.9432158,"lng":6.9589214},"countryCode":"D","name":"Köln Hbf","stationCode":"KOLN","uicCode":"8015458"},{"coordinate":{"lat":50.7320141646745,"lng":7.09712505340576},"countryCode":"D","name":"Bonn Hbf","stationCode":"BONN","uicCode":"8015485"},{"coordinate":{"lat":50.351085,"lng":7.588649},"countryCode":"D","name":"Koblenz Hbf","stationCode":"KKO","uicCode":"8019023"},{"coordinate":{"lat":50.001117,"lng":8.25872},"countryCode":"D","name":"Mainz Hbf","stationCode":"FMZ","uicCode":"8019051"},{"coordinate":{"lat":50.0531710299286,"lng":8.570237159729},"countryCode":"D","name":"Frankfurt Flughafen Fernb","stationCode":"FNAF","uicCode":"8061676"},{"coordinate":{"lat":50.1071222,"lng":8.6638338},"countryCode":"D","name":"Frankfurt (M) Hbf","stationCode":"FFFM","uicCode":"8011068"},{"coordinate":{"lat":49.479354,"lng":8.468921},"countryCode":"D","name":"Mannheim Hbf","stationCode":"MANNHE","uicCode":"8014008"},{"coordinate":{"lat":48.9936223,"lng":8.400743},"countryCode":"D","name":"Karlsruhe Hbf","stationCode":"KARLSR","uicCode":"8014228"},{"coordinate":{"lat":48.789588,"lng":8.1863869},"countryCode":"D","name":"Baden-Baden","stationCode":"RBB","uicCode":"8014277"},{"coordinate":{"lat":48.476475,"lng":7.946723},"countryCode":"D","name":"Offenburg","stationCode":"RO","uicCode":"8014309"},{"coordinate":{"lat":47.99789,"lng":7.84134},"countryCode":"D","name":"Freiburg (Breisgau) Hbf","stationCode":"RF","uicCode":"8014350"},{"coordinate":{"lat":47.56815,"lng":7.6073},"countryCode":"D","name":"Basel Bad Bf","stationCode":"BASELB","uicCode":"8014431"},{"coordinate":{"lat":47.5474,"lng":7.58956},"countryCode":"CH","name":"Basel SBB","stationCode":"BASELS","uicCode":"8500010"},{"coordinate":{"lat":47.37819,"lng":8.5392},"countryCode":"CH","name":"Zürich HB","stationCode":"ZUE","uicCode":"8503000"}],"direction":"BOTH","operators":["NS International"]},"consequence":{"section":{"stations":[{"coordinate":{"lat":52.3788871765137,"lng":4.90027761459351},"countryCode":"NL","name":"Amsterdam Centraal","stationCode":"ASD","uicCode":"8400058"},{"coordinate":{"lat":52.3605537414551,"lng":4.93111133575439},"countryCode":"NL","name":"Amsterdam Muiderpoort","stationCode":"ASDM","uicCode":"8400060"},{"coordinate":{"lat":52.3466682434082,"lng":4.91777801513672},"countryCode":"NL","name":"Amsterdam Amstel","stationCode":"ASA","uicCode":"8400057"},{"coordinate":{"lat":52.3233337402344,"lng":4.93638896942139},"countryCode":"NL","name":"Duivendrecht","stationCode":"DVD","uicCode":"8400194"},{"coordinate":{"lat":52.3122215270996,"lng":4.94694423675537},"countryCode":"NL","name":"Amsterdam Bijlmer ArenA","stationCode":"ASB","uicCode":"8400074"},{"coordinate":{"lat":52.29844,"lng":4.95972},"countryCode":"NL","name":"Amsterdam Holendrecht","stationCode":"ASHD","uicCode":"8400231"},{"coordinate":{"lat":52.2785,"lng":4.977},"countryCode":"NL","name":"Abcoude","stationCode":"AC","uicCode":"8400047"},{"coordinate":{"lat":52.17149,"lng":4.9906},"countryCode":"NL","name":"Breukelen","stationCode":"BKL","uicCode":"8400133"},{"coordinate":{"lat":52.1352767944336,"lng":5.03361129760742},"countryCode":"NL","name":"Maarssen","stationCode":"MAS","uicCode":"8400419"},{"coordinate":{"lat":52.103055,"lng":5.09},"countryCode":"NL","name":"Utrecht Zuilen","stationCode":"UTZL","uicCode":"8400613"},{"coordinate":{"lat":52.0888900756836,"lng":5.11027765274048},"countryCode":"NL","name":"Utrecht Centraal","stationCode":"UT","uicCode":"8400621"},{"coordinate":{"lat":52.078889,"lng":5.121667},"countryCode":"NL","name":"Utrecht Vaartsche Rijn","stationCode":"UTVR","uicCode":"8400606"},{"coordinate":{"lat":52.0630569458008,"lng":5.19444465637207},"countryCode":"NL","name":"Bunnik","stationCode":"BNK","uicCode":"8400141"},{"coordinate":{"lat":52.0652770996094,"lng":5.25861120223999},"countryCode":"NL","name":"Driebergen-Zeist","stationCode":"DB","uicCode":"8400182"},{"coordinate":{"lat":52.0641670227051,"lng":5.36999988555908},"countryCode":"NL","name":"Maarn","stationCode":"MRN","uicCode":"8400417"},{"coordinate":{"lat":52.0458335876465,"lng":5.57388877868652},"countryCode":"NL","name":"Veenendaal-De Klomp","stationCode":"KLP","uicCode":"8400637"},{"coordinate":{"lat":52.0277786254883,"lng":5.67305564880371},"countryCode":"NL","name":"Ede-Wageningen","stationCode":"ED","uicCode":"8400200"},{"coordinate":{"lat":52.0055541992188,"lng":5.7936110496521},"countryCode":"NL","name":"Wolfheze","stationCode":"WF","uicCode":"8400704"},{"coordinate":{"lat":51.9949989318848,"lng":5.84000015258789},"countryCode":"NL","name":"Oosterbeek","stationCode":"OTB","uicCode":"8400489"},{"coordinate":{"lat":51.9850006103516,"lng":5.89916658401489},"countryCode":"NL","name":"Arnhem Centraal","stationCode":"AH","uicCode":"8400071"},{"coordinate":{"lat":51.985279083252,"lng":5.91944456100464},"countryCode":"NL","name":"Arnhem Velperpoort","stationCode":"AHP","uicCode":"8400072"},{"coordinate":{"lat":51.96286,"lng":5.9695},"countryCode":"NL","name":"Westervoort","stationCode":"WTV","uicCode":"8400688"},{"coordinate":{"lat":51.9433326721191,"lng":6.01472234725952},"countryCode":"NL","name":"Duiven","stationCode":"DVN","uicCode":"8400193"},{"coordinate":{"lat":51.9230537414551,"lng":6.07194423675537},"countryCode":"NL","name":"Zevenaar","stationCode":"ZV","uicCode":"8400735"},{"coordinate":{"lat":51.8743,"lng":6.15417},"countryCode":"D","name":"Emmerich-Elten","stationCode":"EL","uicCode":"8033415"},{"coordinate":{"lat":51.834283,"lng":6.255718},"countryCode":"D","name":"Emmerich","stationCode":"EM","uicCode":"8010288"},{"coordinate":{"lat":51.47512,"lng":6.852038},"countryCode":"D","name":"Oberhausen Hbf","stationCode":"OBERH","uicCode":"8010263"},{"coordinate":{"lat":51.4297785713316,"lng":6.77590370178222},"countryCode":"D","name":"Duisburg Hbf","stationCode":"DUISB","uicCode":"8010316"},{"coordinate":{"lat":51.220146,"lng":6.793137},"countryCode":"D","name":"Düsseldorf Hbf","stationCode":"DUSSEL","uicCode":"8008094"},{"coordinate":{"lat":50.9432158,"lng":6.9589214},"countryCode":"D","name":"Köln Hbf","stationCode":"KOLN","uicCode":"8015458"},{"coordinate":{"lat":50.7320141646745,"lng":7.09712505340576},"countryCode":"D","name":"Bonn Hbf","stationCode":"BONN","uicCode":"8015485"},{"coordinate":{"lat":50.351085,"lng":7.588649},"countryCode":"D","name":"Koblenz Hbf","stationCode":"KKO","uicCode":"8019023"},{"coordinate":{"lat":50.001117,"lng":8.25872},"countryCode":"D","name":"Mainz Hbf","stationCode":"FMZ","uicCode":"8019051"},{"coordinate":{"lat":50.0531710299286,"lng":8.570237159729},"countryCode":"D","name":"Frankfurt Flughafen Fernb","stationCode":"FNAF","uicCode":"8061676"},{"coordinate":{"lat":50.1071222,"lng":8.6638338},"countryCode":"D","name":"Frankfurt (M) Hbf","stationCode":"FFFM","uicCode":"8011068"},{"coordinate":{"lat":49.479354,"lng":8.468921},"countryCode":"D","name":"Mannheim Hbf","stationCode":"MANNHE","uicCode":"8014008"},{"coordinate":{"lat":48.9936223,"lng":8.400743},"countryCode":"D","name":"Karlsruhe Hbf","stationCode":"KARLSR","uicCode":"8014228"},{"coordinate":{"lat":48.789588,"lng":8.1863869},"countryCode":"D","name":"Baden-Baden","stationCode":"RBB","uicCode":"8014277"},{"coordinate":{"lat":48.476475,"lng":7.946723},"countryCode":"D","name":"Offenburg","stationCode":"RO","uicCode":"8014309"},{"coordinate":{"lat":47.99789,"lng":7.84134},"countryCode":"D","name":"Freiburg (Breisgau) Hbf","stationCode":"RF","uicCode":"8014350"},{"coordinate":{"lat":47.56815,"lng":7.6073},"countryCode":"D","name":"Basel Bad Bf","stationCode":"BASELB","uicCode":"8014431"},{"coordinate":{"lat":47.5474,"lng":7.58956},"countryCode":"CH","name":"Basel SBB","stationCode":"BASELS","uicCode":"8500010"},{"coordinate":{"lat":47.37819,"lng":8.5392},"countryCode":"CH","name":"Zürich HB","stationCode":"ZUE","uicCode":"8503000"}],"direction":"BOTH","operators":["NS International"]},"description":"aangepaste internationale dienstregeling","level":"LESS_TRAINS"},"sectionType":"NEIGHBORING_COUNTRY"}],"timespans":[{"start":"2026-05-29T20:00:00+0200","end":"2026-05-29T22:30:00+0200","period":"Vrijdag 29 mei 20:00 uur t/m vrijdag 29 mei 22:30 uur.","situation":{"label":"Door werkzaamheden: tussen Amsterdam Centraal en Zürich HB is de internationale dienstregeling aangepast."},"cause":{"label":"werkzaamheden","type":"OTHER"},"advices":["NJ403 stopt niet op Mainz Hbf en Frankfurt Flughafen, maar stopt in plaats daarvan op Frankfurt Flughafen Regio."]}],"alternativeTransportTimespans":[]},{"type":"MAINTENANCE","id":"7006822","title":"Dordrecht - Breda; Dordrecht - Roosendaal.","isActive":false,"local":false,"titleSections":[[{"type":"STATION","value":"Dordrecht"},{"type":"ICON","value":"MAINTENANCE"},{"type":"STATION","value":"Lage Zwaluwe"},{"type":"STATION","value":"Breda"}],[{"type":"STATION","value":"Dordrecht"},{"type":"ICON","value":"MAINTENANCE"},{"type":"STATION","value":"Lage Zwaluwe"},{"type":"STATION","value":"Roosendaal"}]],"registrationTime":"2026-04-09T11:05:33+0200","start":"2026-05-30T01:00:00+0200","releaseTime":"2026-04-09T11:05:33+0200","end":"2026-06-08T05:00:00+0200","period":"Zaterdag 30 mei 1:00 uur t/m maandag 8 juni 5:00 uur.","impact":{"value":5},"publicationSections":[{"section":{"stations":[{"coordinate":{"lat":51.8072204589844,"lng":4.66833353042603},"countryCode":"NL","name":"Dordrecht","stationCode":"DDR","uicCode":"8400180"},{"coordinate":{"lat":51.7900009155273,"lng":4.67138910293579},"countryCode":"NL","name":"Dordrecht Zuid","stationCode":"DDZD","uicCode":"8400181"},{"coordinate":{"lat":51.6911125183105,"lng":4.66305541992188},"countryCode":"NL","name":"Lage Zwaluwe","stationCode":"ZLW","uicCode":"8400382"},{"coordinate":{"lat":51.606388092041,"lng":4.72083330154419},"countryCode":"NL","name":"Breda-Prinsenbeek","stationCode":"BDPB","uicCode":"8400132"},{"coordinate":{"lat":51.5955543518066,"lng":4.78000020980835},"countryCode":"NL","name":"Breda","stationCode":"BD","uicCode":"8400131"}],"direction":"BOTH","operators":["NS"]},"consequence":{"section":{"stations":[{"coordinate":{"lat":51.8072204589844,"lng":4.66833353042603},"countryCode":"NL","name":"Dordrecht","stationCode":"DDR","uicCode":"8400180"},{"coordinate":{"lat":51.7900009155273,"lng":4.67138910293579},"countryCode":"NL","name":"Dordrecht Zuid","stationCode":"DDZD","uicCode":"8400181"},{"coordinate":{"lat":51.6911125183105,"lng":4.66305541992188},"countryCode":"NL","name":"Lage Zwaluwe","stationCode":"ZLW","uicCode":"8400382"}],"direction":"BOTH","operators":["NS"]},"description":"er rijden bussen","level":"LESS_TRAINS"},"sectionType":"NL"},{"section":{"stations":[{"coordinate":{"lat":51.8072204589844,"lng":4.66833353042603},"countryCode":"NL","name":"Dordrecht","stationCode":"DDR","uicCode":"8400180"},{"coordinate":{"lat":51.7900009155273,"lng":4.67138910293579},"countryCode":"NL","name":"Dordrecht Zuid","stationCode":"DDZD","uicCode":"8400181"},{"coordinate":{"lat":51.6911125183105,"lng":4.66305541992188},"countryCode":"NL","name":"Lage Zwaluwe","stationCode":"ZLW","uicCode":"8400382"},{"coordinate":{"lat":51.64042,"lng":4.60904},"countryCode":"NL","name":"Zevenbergen","stationCode":"ZVB","uicCode":"8400737"},{"coordinate":{"lat":51.587776184082,"lng":4.53333330154419},"countryCode":"NL","name":"Oudenbosch","stationCode":"ODB","uicCode":"8400498"},{"coordinate":{"lat":51.5402793884277,"lng":4.45833349227905},"countryCode":"NL","name":"Roosendaal","stationCode":"RSD","uicCode":"8400526"}],"direction":"BOTH","operators":["NS"]},"consequence":{"section":{"stations":[{"coordinate":{"lat":51.8072204589844,"lng":4.66833353042603},"countryCode":"NL","name":"Dordrecht","stationCode":"DDR","uicCode":"8400180"},{"coordinate":{"lat":51.7900009155273,"lng":4.67138910293579},"countryCode":"NL","name":"Dordrecht Zuid","stationCode":"DDZD","uicCode":"8400181"},{"coordinate":{"lat":51.6911125183105,"lng":4.66305541992188},"countryCode":"NL","name":"Lage Zwaluwe","stationCode":"ZLW","uicCode":"8400382"}],"direction":"BOTH","operators":["NS"]},"description":"er rijden bussen","level":"LESS_TRAINS"},"sectionType":"NL"}],"summaryAdditionalTravelTime":{"label":"De extra reistijd is ongeveer 30 minuten.","shortLabel":"Extra reistijd 30 min.","minimumDurationInMinutes":30,"maximumDurationInMinutes":30},"timespans":[{"start":"2026-05-30T01:00:00+0200","end":"2026-06-08T05:00:00+0200","period":"Zaterdag 30 mei 1:00 uur t/m maandag 8 juni 5:00 uur.","situation":{"label":"Door werkzaamheden: tussen Dordrecht en Lage Zwaluwe rijden er bussen."},"cause":{"label":"werkzaamheden","type":"OTHER"},"additionalTravelTime":{"label":"De extra reistijd is ongeveer 30 minuten.","shortLabel":"Extra reistijd 30 min.","minimumDurationInMinutes":30,"maximumDurationInMinutes":30},"alternativeTransport":{"label":"maak gebruik van het vervangende vervoer","shortLabel":"gebruik het vervangende vervoer"},"advices":["Reisadviezen voor deze werkzaamheden staan 3 weken vooraf in de reisplanner. Er zijn ook werkzaamheden rond Eindhoven in deze periode.","Tussen Rotterdam C. en Roosendaal reis via Breda."]}],"alternativeTransportTimespans":[{"start":"2026-05-30T01:00:00+0200","end":"2026-06-08T05:00:00+0200","alternativeTransport":{"location":[{"station":{"coordinate":{"lat":51.8072204589844,"lng":4.66833353042603},"countryCode":"NL","name":"Dordrecht","stationCode":"DDR","uicCode":"8400180"},"description":"vanaf de Burgemeester de Raadtsingel"},{"station":{"coordinate":{"lat":51.6911125183105,"lng":4.66305541992188},"countryCode":"NL","name":"Lage Zwaluwe","stationCode":"ZLW","uicCode":"8400382"},"description":"vanaf de Westelijke Parallelweg"}],"label":"Er rijden snelbussen tussen Dordrecht en Lage Zwaluwe.","shortLabel":"Er rijden snelbussen Dordrecht - Lage Zwaluwe."}},{"start":"2026-05-30T01:00:00+0200","end":"2026-06-08T05:00:00+0200","alternativeTransport":{"location":[{"station":{"coordinate":{"lat":51.8072204589844,"lng":4.66833353042603},"countryCode":"NL","name":"Dordrecht","stationCode":"DDR","uicCode":"8400180"},"description":"vanaf de Burgemeester de Raadtsingel"},{"station":{"coordinate":{"lat":51.7900009155273,"lng":4.67138910293579},"countryCode":"NL","name":"Dordrecht Zuid","stationCode":"DDZD","uicCode":"8400181"},"description":"vanaf de Spirea"}],"label":"Er rijden taxibusjes tussen Dordrecht en Dordrecht Zuid.","shortLabel":"Er rijden taxibusjes Dordrecht - Dordrecht Zuid."}}]},{"type":"MAINTENANCE","id":"7007878","title":"Utrecht - Amersfoort; Utrecht - Baarn.; Utrecht - Hilversum","isActive":false,"local":false,"titleSections":[[{"type":"STATION","value":"Utrecht C."},{"type":"STATION","value":"Overvecht"},{"type":"ICON","value":"MAINTENANCE"},{"type":"STATION","value":"Amersfoort C."}],[{"type":"STATION","value":"Utrecht C."},{"type":"STATION","value":"Overvecht"},{"type":"ICON","value":"MAINTENANCE"},{"type":"STATION","value":"Baarn"}],[{"type":"STATION","value":"Utrecht C."},{"type":"STATION","value":"Overvecht"},{"type":"ICON","value":"MAINTENANCE"},{"type":"STATION","value":"Hilversum"}]],"registrationTime":"2026-05-08T12:14:09+0200","start":"2026-05-30T01:20:00+0200","releaseTime":"2026-05-08T12:14:09+0200","end":"2026-06-01T02:00:00+0200","period":"Zaterdag 30 mei 1:20 uur t/m maandag 1 juni 2:00 uur.","impact":{"value":4},"publicationSections":[{"section":{"stations":[{"coordinate":{"lat":52.0888900756836,"lng":5.11027765274048},"countryCode":"NL","name":"Utrecht Centraal","stationCode":"UT","uicCode":"8400621"},{"coordinate":{"lat":52.1100006103516,"lng":5.12472200393677},"countryCode":"NL","name":"Utrecht Overvecht","stationCode":"UTO","uicCode":"8400620"},{"coordinate":{"lat":52.1300010681152,"lng":5.20388889312744},"countryCode":"NL","name":"Bilthoven","stationCode":"BHV","uicCode":"8400114"},{"coordinate":{"lat":52.1402778625488,"lng":5.24277782440186},"countryCode":"NL","name":"Den Dolder","stationCode":"DLD","uicCode":"8400179"},{"coordinate":{"lat":52.1538887023926,"lng":5.37055540084839},"countryCode":"NL","name":"Amersfoort Centraal","stationCode":"AMF","uicCode":"8400055"}],"direction":"BOTH","operators":["NS"]},"consequence":{"section":{"stations":[{"coordinate":{"lat":52.1100006103516,"lng":5.12472200393677},"countryCode":"NL","name":"Utrecht Overvecht","stationCode":"UTO","uicCode":"8400620"},{"coordinate":{"lat":52.1300010681152,"lng":5.20388889312744},"countryCode":"NL","name":"Bilthoven","stationCode":"BHV","uicCode":"8400114"},{"coordinate":{"lat":52.1402778625488,"lng":5.24277782440186},"countryCode":"NL","name":"Den Dolder","stationCode":"DLD","uicCode":"8400179"},{"coordinate":{"lat":52.1538887023926,"lng":5.37055540084839},"countryCode":"NL","name":"Amersfoort Centraal","stationCode":"AMF","uicCode":"8400055"}],"direction":"BOTH","operators":["NS"]},"description":"er rijden bussen","level":"LESS_TRAINS"},"sectionType":"NL"},{"section":{"stations":[{"coordinate":{"lat":52.0888900756836,"lng":5.11027765274048},"countryCode":"NL","name":"Utrecht Centraal","stationCode":"UT","uicCode":"8400621"},{"coordinate":{"lat":52.1100006103516,"lng":5.12472200393677},"countryCode":"NL","name":"Utrecht Overvecht","stationCode":"UTO","uicCode":"8400620"},{"coordinate":{"lat":52.1300010681152,"lng":5.20388889312744},"countryCode":"NL","name":"Bilthoven","stationCode":"BHV","uicCode":"8400114"},{"coordinate":{"lat":52.1402778625488,"lng":5.24277782440186},"countryCode":"NL","name":"Den Dolder","stationCode":"DLD","uicCode":"8400179"},{"coordinate":{"lat":52.1652793884277,"lng":5.30305576324463},"countryCode":"NL","name":"Soest Zuid","stationCode":"STZ","uicCode":"8400571"},{"coordinate":{"lat":52.1733322143555,"lng":5.30999994277954},"countryCode":"NL","name":"Soest","stationCode":"ST","uicCode":"8400567"},{"coordinate":{"lat":52.1836128234863,"lng":5.30000019073486},"countryCode":"NL","name":"Soestdijk","stationCode":"SD","uicCode":"8400569"},{"coordinate":{"lat":52.2083320617676,"lng":5.28083324432373},"countryCode":"NL","name":"Baarn","stationCode":"BRN","uicCode":"8400086"}],"direction":"BOTH","operators":["NS"]},"consequence":{"section":{"stations":[{"coordinate":{"lat":52.1100006103516,"lng":5.12472200393677},"countryCode":"NL","name":"Utrecht Overvecht","stationCode":"UTO","uicCode":"8400620"},{"coordinate":{"lat":52.1300010681152,"lng":5.20388889312744},"countryCode":"NL","name":"Bilthoven","stationCode":"BHV","uicCode":"8400114"},{"coordinate":{"lat":52.1402778625488,"lng":5.24277782440186},"countryCode":"NL","name":"Den Dolder","stationCode":"DLD","uicCode":"8400179"},{"coordinate":{"lat":52.1652793884277,"lng":5.30305576324463},"countryCode":"NL","name":"Soest Zuid","stationCode":"STZ","uicCode":"8400571"},{"coordinate":{"lat":52.1733322143555,"lng":5.30999994277954},"countryCode":"NL","name":"Soest","stationCode":"ST","uicCode":"8400567"},{"coordinate":{"lat":52.1836128234863,"lng":5.30000019073486},"countryCode":"NL","name":"Soestdijk","stationCode":"SD","uicCode":"8400569"},{"coordinate":{"lat":52.2083320617676,"lng":5.28083324432373},"countryCode":"NL","name":"Baarn","stationCode":"BRN","uicCode":"8400086"}],"direction":"BOTH","operators":["NS"]},"description":"er rijden bussen","level":"LESS_TRAINS"},"sectionType":"NL"},{"section":{"stations":[{"coordinate":{"lat":52.0888900756836,"lng":5.11027765274048},"countryCode":"NL","name":"Utrecht Centraal","stationCode":"UT","uicCode":"8400621"},{"coordinate":{"lat":52.1100006103516,"lng":5.12472200393677},"countryCode":"NL","name":"Utrecht Overvecht","stationCode":"UTO","uicCode":"8400620"},{"coordinate":{"lat":52.1777763366699,"lng":5.17916679382324},"countryCode":"NL","name":"Hollandsche Rading","stationCode":"HOR","uicCode":"8400327"},{"coordinate":{"lat":52.2161102294922,"lng":5.18722200393677},"countryCode":"NL","name":"Hilversum Sportpark","stationCode":"HVSP","uicCode":"8400570"},{"coordinate":{"lat":52.2258338928223,"lng":5.18194437026978},"countryCode":"NL","name":"Hilversum","stationCode":"HVS","uicCode":"8400322"}],"direction":"BOTH","operators":["NS"]},"consequence":{"section":{"stations":[{"coordinate":{"lat":52.1100006103516,"lng":5.12472200393677},"countryCode":"NL","name":"Utrecht Overvecht","stationCode":"UTO","uicCode":"8400620"},{"coordinate":{"lat":52.1777763366699,"lng":5.17916679382324},"countryCode":"NL","name":"Hollandsche Rading","stationCode":"HOR","uicCode":"8400327"},{"coordinate":{"lat":52.2161102294922,"lng":5.18722200393677},"countryCode":"NL","name":"Hilversum Sportpark","stationCode":"HVSP","uicCode":"8400570"},{"coordinate":{"lat":52.2258338928223,"lng":5.18194437026978},"countryCode":"NL","name":"Hilversum","stationCode":"HVS","uicCode":"8400322"}],"direction":"BOTH","operators":["NS"]},"description":"er rijden bussen","level":"LESS_TRAINS"},"sectionType":"NL"}],"summaryAdditionalTravelTime":{"label":"De extra reistijd kan oplopen tot 30 minuten.","shortLabel":"Extra reistijd tot 30 min.","minimumDurationInMinutes":30,"maximumDurationInMinutes":30},"timespans":[{"start":"2026-05-30T01:20:00+0200","end":"2026-05-31T02:00:00+0200","period":"Zaterdag 30 mei 1:20 uur t/m zondag 31 mei 2:00 uur.","situation":{"label":"Door werkzaamheden: tussen Utrecht Overvecht en Amersfoort Centraal rijden er bussen en tussen Utrecht Overvecht en Baarn rijden er bussen."},"cause":{"label":"werkzaamheden","type":"OTHER"},"additionalTravelTime":{"label":"De extra reistijd is ongeveer 30 minuten.","shortLabel":"Extra reistijd 30 min.","minimumDurationInMinutes":30,"maximumDurationInMinutes":30},"alternativeTransport":{"label":"er rijden stopbussen","shortLabel":"er rijden stopbussen"},"advices":["Reizigers tussen Amersfoort C en Gouda/Den Haag C stappen over in Utrecht C. ","Tussen Amersfoort C. en Utrecht C. reis via Hilversum."]},{"start":"2026-05-31T04:00:00+0200","end":"2026-05-31T13:00:00+0200","period":"Zondag 31 mei 4:00 uur t/m zondag 31 mei 13:00 uur.","situation":{"label":"Door werkzaamheden: tussen Utrecht Overvecht en Amersfoort Centraal rijden er bussen en tussen Utrecht Overvecht en Baarn rijden er bussen en tussen Utrecht Overvecht en Hilversum rijden er bussen."},"cause":{"label":"werkzaamheden","type":"OTHER"},"additionalTravelTime":{"label":"De extra reistijd is ongeveer 30 minuten.","shortLabel":"Extra reistijd 30 min.","minimumDurationInMinutes":30,"maximumDurationInMinutes":30},"alternativeTransport":{"label":"er rijden stop- en snelbussen","shortLabel":"er rijden stop- en snelbussen"},"advices":["Tussen Utrecht C en Utrecht Overvecht rijden pendeltreinen."]},{"start":"2026-05-31T13:01:00+0200","end":"2026-06-01T02:00:00+0200","period":"Zondag 31 mei 13:01 uur t/m maandag 1 juni 2:00 uur.","situation":{"label":"Door werkzaamheden: tussen Utrecht Overvecht en Amersfoort Centraal rijden er bussen en tussen Utrecht Overvecht en Baarn rijden er bussen."},"cause":{"label":"werkzaamheden","type":"OTHER"},"additionalTravelTime":{"label":"De extra reistijd is ongeveer 30 minuten.","shortLabel":"Extra reistijd 30 min.","minimumDurationInMinutes":30,"maximumDurationInMinutes":30},"alternativeTransport":{"label":"er rijden stopbussen","shortLabel":"er rijden stopbussen"},"advices":["Reizigers tussen Amersfoort C en Gouda/Den Haag C stappen over in Utrecht C. ","Tussen Amersfoort C. en Utrecht C. reis via Hilversum."]}],"alternativeTransportTimespans":[{"start":"2026-05-30T01:20:00+0200","end":"2026-05-31T02:00:00+0200","alternativeTransport":{"location":[{"station":{"coordinate":{"lat":52.1100006103516,"lng":5.12472200393677},"countryCode":"NL","name":"Utrecht Overvecht","stationCode":"UTO","uicCode":"8400620"},"description":"vanaf de Aïdadreef"},{"station":{"coordinate":{"lat":52.1300010681152,"lng":5.20388889312744},"countryCode":"NL","name":"Bilthoven","stationCode":"BHV","uicCode":"8400114"},"description":"vanaf de bushalte"},{"station":{"coordinate":{"lat":52.1402778625488,"lng":5.24277782440186},"countryCode":"NL","name":"Den Dolder","stationCode":"DLD","uicCode":"8400179"},"description":"vanaf de bushalte"},{"station":{"coordinate":{"lat":52.1538887023926,"lng":5.37055540084839},"countryCode":"NL","name":"Amersfoort Centraal","stationCode":"AMF","uicCode":"8400055"},"description":"vanaf het busstation aan de centrumzijde, halte C"}],"label":"Er rijden stopbussen tussen Utrecht Overvecht, Bilthoven, Den Dolder en Amersfoort Centraal.","shortLabel":"Er rijden stopbussen Overvecht - Bilthoven - Den Dolder - Amersfoort C."}},{"start":"2026-05-30T01:20:00+0200","end":"2026-05-31T02:00:00+0200","alternativeTransport":{"location":[{"station":{"coordinate":{"lat":52.1100006103516,"lng":5.12472200393677},"countryCode":"NL","name":"Utrecht Overvecht","stationCode":"UTO","uicCode":"8400620"},"description":"vanaf de Aïdadreef"},{"station":{"coordinate":{"lat":52.1300010681152,"lng":5.20388889312744},"countryCode":"NL","name":"Bilthoven","stationCode":"BHV","uicCode":"8400114"},"description":"vanaf de bushalte"},{"station":{"coordinate":{"lat":52.1402778625488,"lng":5.24277782440186},"countryCode":"NL","name":"Den Dolder","stationCode":"DLD","uicCode":"8400179"},"description":"vanaf de bushalte"},{"station":{"coordinate":{"lat":52.1652793884277,"lng":5.30305576324463},"countryCode":"NL","name":"Soest Zuid","stationCode":"STZ","uicCode":"8400571"},"description":"vanaf het busstation"},{"station":{"coordinate":{"lat":52.1733322143555,"lng":5.30999994277954},