[{"id":"6025584","type":"DISRUPTION","registrationTime":"2023-09-13T14:48:47+0200","releaseTime":"2023-09-13T14:48:47+0200","local":false,"title":"Zwolle-Deventer","titleSections":[[{"type":"STATION","value":"Zwolle"},{"type":"ICON","value":"DISRUPTION"},{"type":"STATION","value":"Olst"},{"type":"STATION","value":"Deventer"}]],"topic":"disruption_6025584_nl","isActive":true,"start":"2023-09-13T14:08:33+0200","end":"2023-09-13T17:00:00+0200","phase":{"id":"2","label":"Impact bekend"},"impact":{"value":3},"expectedDuration":{"description":"Dit duurt tot ongeveer 17:00 uur.","endTime":"2023-09-13T17:00:00+0200"},"publicationSections":[{"section":{"stations":[{"uicCode":"8400747","stationCode":"ZL","name":"Zwolle","coordinate":{"lat":52.5047225952148,"lng":6.09194421768188},"countryCode":"NL"},{"uicCode":"8400711","stationCode":"WH","name":"Wijhe","coordinate":{"lat":52.3902778625488,"lng":6.1405553817749},"countryCode":"NL"},{"uicCode":"8400486","stationCode":"OST","name":"Olst","coordinate":{"lat":52.3347206115723,"lng":6.11305570602417},"countryCode":"NL"},{"uicCode":"8400173","stationCode":"DV","name":"Deventer","coordinate":{"lat":52.2574996948242,"lng":6.16055536270142},"countryCode":"NL"}],"direction":"BOTH"},"consequence":{"section":{"stations":[{"uicCode":"8400747","stationCode":"ZL","name":"Zwolle","coordinate":{"lat":52.5047225952148,"lng":6.09194421768188},"countryCode":"NL"},{"uicCode":"8400711","stationCode":"WH","name":"Wijhe","coordinate":{"lat":52.3902778625488,"lng":6.1405553817749},"countryCode":"NL"},{"uicCode":"8400486","stationCode":"OST","name":"Olst","coordinate":{"lat":52.3347206115723,"lng":6.11305570602417},"countryCode":"NL"}],"direction":"ONE_WAY"},"description":"geen treinen","level":"LESS_TRAINS"},"sectionType":"NL"}],"timespans":[{"start":"2023-09-13T14:08:33+0200","end":"2023-09-13T17:00:00+0200","situation":{"label":"Tussen Zwolle en Olst rijden er geen treinen door een defecte trein."},"cause":{"label":"Defecte trein"},"advices":[]}],"alternativeTransportTimespans":[]},{"id":"6025585","type":"DISRUPTION","registrationTime":"2023-09-13T14:48:07+0200","releaseTime":"2023-09-13T14:48:07+0200","local":false,"title":"Zutphen-Hengelo","titleSections":[[{"type":"STATION","value":"Zutphen"},{"type":"STATION","value":"Delden"},{"type":"ICON","value":"DISRUPTION"},{"type":"STATION","value":"Hengelo"},{"type":"STATION","value":"Oldenzaal"}]],"topic":"disruption_6025585_nl","isActive":true,"start":"2023-09-13T14:27:41+0200","end":"2023-09-13T16:45:00+0200","phase":{"id":"2","label":"Impact bekend"},"impact":{"value":3},"expectedDuration":{"description":"Dit duurt tot ongeveer 16:45 uur.","endTime":"2023-09-13T16:45:00+0200"},"publicationSections":[{"section":{"stations":[{"uicCode":"8400744","stationCode":"ZP","name":"Zutphen","coordinate":{"lat":52.1452789306641,"lng":6.19416666030884},"countryCode":"NL"},{"uicCode":"8400399","stationCode":"LC","name":"Lochem","coordinate":{"lat":52.1666679382324,"lng":6.42638874053955},"countryCode":"NL"},{"uicCode":"8400254","stationCode":"GO","name":"Goor","coordinate":{"lat":52.2302780151367,"lng":6.58444452285767},"countryCode":"NL"},{"uicCode":"8400169","stationCode":"DDN","name":"Delden","coordinate":{"lat":52.2599983215332,"lng":6.7161111831665},"countryCode":"NL"},{"uicCode":"8400433","stationCode":"HGLG","name":"Hengelo Gezondheidspark","coordinate":{"lat":52.261667,"lng":6.767778},"countryCode":"NL"},{"uicCode":"8400316","stationCode":"HGL","name":"Hengelo","coordinate":{"lat":52.2616653442383,"lng":6.79388904571533},"countryCode":"NL"},{"uicCode":"8400312","stationCode":"HGLO","name":"Hengelo Oost","coordinate":{"lat":52.2688903808594,"lng":6.81944465637207},"countryCode":"NL"},{"uicCode":"8400483","stationCode":"ODZ","name":"Oldenzaal","coordinate":{"lat":52.3063888549805,"lng":6.93472242355347},"countryCode":"NL"}],"direction":"BOTH"},"consequence":{"section":{"stations":[{"uicCode":"8400169","stationCode":"DDN","name":"Delden","coordinate":{"lat":52.2599983215332,"lng":6.7161111831665},"countryCode":"NL"},{"uicCode":"8400433","stationCode":"HGLG","name":"Hengelo Gezondheidspark","coordinate":{"lat":52.261667,"lng":6.767778},"countryCode":"NL"},{"uicCode":"8400316","stationCode":"HGL","name":"Hengelo","coordinate":{"lat":52.2616653442383,"lng":6.79388904571533},"countryCode":"NL"}],"direction":"ONE_WAY"},"description":"geen treinen","level":"LESS_TRAINS"},"sectionType":"NL"}],"timespans":[{"start":"2023-09-13T14:27:41+0200","end":"2023-09-13T16:45:00+0200","situation":{"label":"Tussen Delden en Hengelo rijden er geen treinen door een sein- en wisselstoring."},"cause":{"label":"Sein- en wisselstoring"},"advices":[]}],"alternativeTransportTimespans":[]},{"id":"6025587","type":"DISRUPTION","registrationTime":"2023-09-13T15:28:55+0200","releaseTime":"2023-09-13T15:28:55+0200","local":false,"title":"Almere-Zwolle","titleSections":[[{"type":"STATION","value":"Almere C."},{"type":"STATION","value":"Oostvaarders"},{"type":"ICON","value":"DISRUPTION"},{"type":"STATION","value":"Dronten"},{"type":"STATION","value":"Zwolle"}]],"topic":"disruption_6025587_nl","isActive":true,"start":"2023-09-13T15:27:21+0200","end":"2023-09-13T16:00:00+0200","phase":{"id":"1b","label":"Gevolgen bekend"},"impact":{"value":4},"expectedDuration":{"description":"Dit duurt tot ongeveer 16:00 uur.","endTime":"2023-09-13T16:00:00+0200"},"publicationSections":[{"section":{"stations":[{"uicCode":"8400080","stationCode":"ALM","name":"Almere Centrum","coordinate":{"lat":52.37503,"lng":5.21764},"countryCode":"NL"},{"uicCode":"8400104","stationCode":"ALMP","name":"Almere Parkwijk","coordinate":{"lat":52.3766670227051,"lng":5.24472236633301},"countryCode":"NL"},{"uicCode":"8400081","stationCode":"ALMB","name":"Almere Buiten","coordinate":{"lat":52.3941650390625,"lng":5.2780556678772},"countryCode":"NL"},{"uicCode":"8400226","stationCode":"ALMO","name":"Almere Oostvaarders","coordinate":{"lat":52.4033317565918,"lng":5.30055570602417},"countryCode":"NL"},{"uicCode":"8400394","stationCode":"LLS","name":"Lelystad Centrum","coordinate":{"lat":52.5077781677246,"lng":5.47277784347534},"countryCode":"NL"},{"uicCode":"8400198","stationCode":"DRON","name":"Dronten","coordinate":{"lat":52.5344,"lng":5.72089},"countryCode":"NL"},{"uicCode":"8400360","stationCode":"KPNZ","name":"Kampen Zuid","coordinate":{"lat":52.5331,"lng":5.91309},"countryCode":"NL"},{"uicCode":"8400747","stationCode":"ZL","name":"Zwolle","coordinate":{"lat":52.5047225952148,"lng":6.09194421768188},"countryCode":"NL"}],"direction":"BOTH"},"consequence":{"section":{"stations":[{"uicCode":"8400226","stationCode":"ALMO","name":"Almere Oostvaarders","coordinate":{"lat":52.4033317565918,"lng":5.30055570602417},"countryCode":"NL"},{"uicCode":"8400394","stationCode":"LLS","name":"Lelystad Centrum","coordinate":{"lat":52.5077781677246,"lng":5.47277784347534},"countryCode":"NL"},{"uicCode":"8400198","stationCode":"DRON","name":"Dronten","coordinate":{"lat":52.5344,"lng":5.72089},"countryCode":"NL"}],"direction":"ONE_WAY"},"description":"geen treinen","level":"LESS_TRAINS"},"sectionType":"NL"}],"timespans":[{"start":"2023-09-13T15:27:21+0200","end":"2023-09-13T16:00:00+0200","situation":{"label":"Tussen Almere Oostvaarders en Dronten rijden er geen treinen door logistieke beperkingen."},"cause":{"label":"Logistieke beperking"},"advices":[]}],"alternativeTransportTimespans":[]},{"id":"7003773","type":"MAINTENANCE","registrationTime":"2023-08-22T17:25:25+0200","releaseTime":"2023-08-22T17:25:25+0200","local":false,"title":"Dordrecht - Roosendaal.","titleSections":[[{"type":"STATION","value":"Dordrecht"},{"type":"STATION","value":"Lage Zwaluwe"},{"type":"ICON","value":"MAINTENANCE"},{"type":"STATION","value":"Roosendaal"}]],"isActive":true,"start":"2023-08-25T04:00:00+0200","end":"2023-09-30T02:00:00+0200","period":"Vrijdag 25-08-2023 04:00 uur t/m zaterdag 30-09-2023 02:00 uur.","impact":{"value":3},"summaryAdditionalTravelTime":{"label":"De extra reistijd is meer dan 30 minuten.","shortLabel":"extra reistijd meer dan 30 min.","minimumDurationInMinutes":30},"publicationSections":[{"section":{"stations":[{"uicCode":"8400180","stationCode":"DDR","name":"Dordrecht","coordinate":{"lat":51.8072204589844,"lng":4.66833353042603},"countryCode":"NL"},{"uicCode":"8400181","stationCode":"DDZD","name":"Dordrecht Zuid","coordinate":{"lat":51.7900009155273,"lng":4.67138910293579},"countryCode":"NL"},{"uicCode":"8400382","stationCode":"ZLW","name":"Lage Zwaluwe","coordinate":{"lat":51.6911125183105,"lng":4.66305541992188},"countryCode":"NL"},{"uicCode":"8400737","stationCode":"ZVB","name":"Zevenbergen","coordinate":{"lat":51.64042,"lng":4.60904},"countryCode":"NL"},{"uicCode":"8400498","stationCode":"ODB","name":"Oudenbosch","coordinate":{"lat":51.587776184082,"lng":4.53333330154419},"countryCode":"NL"},{"uicCode":"8400526","stationCode":"RSD","name":"Roosendaal","coordinate":{"lat":51.5402793884277,"lng":4.45833349227905},"countryCode":"NL"}],"direction":"BOTH"},"consequence":{"section":{"stations":[{"uicCode":"8400382","stationCode":"ZLW","name":"Lage Zwaluwe","coordinate":{"lat":51.6911125183105,"lng":4.66305541992188},"countryCode":"NL"},{"uicCode":"8400737","stationCode":"ZVB","name":"Zevenbergen","coordinate":{"lat":51.64042,"lng":4.60904},"countryCode":"NL"},{"uicCode":"8400498","stationCode":"ODB","name":"Oudenbosch","coordinate":{"lat":51.587776184082,"lng":4.53333330154419},"countryCode":"NL"},{"uicCode":"8400526","stationCode":"RSD","name":"Roosendaal","coordinate":{"lat":51.5402793884277,"lng":4.45833349227905},"countryCode":"NL"}],"direction":"ONE_WAY"},"description":"dienstregeling aangepast","level":"LESS_TRAINS"},"sectionType":"NL"}],"timespans":[{"start":"2023-08-25T04:00:00+0200","end":"2023-09-30T02:00:00+0200","period":"Vrijdag 25-08-2023 04:00 uur t/m zaterdag 30-09-2023 02:00 uur.","situation":{"label":"Om veiligheidsredenen: tussen Lage Zwaluwe en Roosendaal is de dienstregeling aangepast."},"cause":{"label":"veiligheidsredenen"},"additionalTravelTime":{"label":"De extra reistijd is meer dan 30 minuten.","shortLabel":"extra reistijd meer dan 30 min.","minimumDurationInMinutes":30},"alternativeTransport":{"label":"er rijden stopbussen","shortLabel":"er rijden stopbussen"},"advices":["NS-bussen tussen Lage Zwaluwe en Roosendaal. Intercity's Dordrecht-Roosendaal rijden als normaal."]}],"alternativeTransportTimespans":[{"start":"2023-08-25T04:00:00+0200","end":"2023-08-28T02:00:00+0200","alternativeTransport":{"location":[{"station":{"uicCode":"8400382","stationCode":"ZLW","name":"Lage Zwaluwe","coordinate":{"lat":51.6911125183105,"lng":4.66305541992188},"countryCode":"NL"},"description":"vanaf de Westelijke Parallelweg"},{"station":{"uicCode":"8400737","stationCode":"ZVB","name":"Zevenbergen","coordinate":{"lat":51.64042,"lng":4.60904},"countryCode":"NL"},"description":"vanaf de Stationslaan"},{"station":{"uicCode":"8400498","stationCode":"ODB","name":"Oudenbosch","coordinate":{"lat":51.587776184082,"lng":4.53333330154419},"countryCode":"NL"},"description":"vanaf de Stationsstraat"},{"station":{"uicCode":"8400526","stationCode":"RSD","name":"Roosendaal","coordinate":{"lat":51.5402793884277,"lng":4.45833349227905},"countryCode":"NL"},"description":"vanaf de voorzijde van het station"}],"label":"Er rijden stopbussen tussen Lage Zwaluwe, Zevenbergen, Oudenbosch en Roosendaal.","shortLabel":"er rijden stopbussen Lage Zwaluwe - Zevenbergen - Oudenbosch - Roosendaal"}},{"start":"2023-08-28T04:00:00+0200","end":"2023-09-30T02:00:00+0200","alternativeTransport":{"location":[{"station":{"uicCode":"8400382","stationCode":"ZLW","name":"Lage Zwaluwe","coordinate":{"lat":51.6911125183105,"lng":4.66305541992188},"countryCode":"NL"},"description":"vanaf de Westelijke Parallelweg"},{"station":{"uicCode":"8400737","stationCode":"ZVB","name":"Zevenbergen","coordinate":{"lat":51.64042,"lng":4.60904},"countryCode":"NL"},"description":"vanaf de Stationslaan"},{"station":{"uicCode":"8400498","stationCode":"ODB","name":"Oudenbosch","coordinate":{"lat":51.587776184082,"lng":4.53333330154419},"countryCode":"NL"},"description":"vanaf de Stationsstraat"},{"station":{"uicCode":"8400526","stationCode":"RSD","name":"Roosendaal","coordinate":{"lat":51.5402793884277,"lng":4.45833349227905},"countryCode":"NL"},"description":"vanaf de voorzijde van het station"}],"label":"Er rijden stopbussen tussen Lage Zwaluwe, Zevenbergen, Oudenbosch en Roosendaal.","shortLabel":"er rijden stopbussen Lage Zwaluwe - Zevenbergen - Oudenbosch - Roosendaal"}}]},{"id":"7003746","type":"MAINTENANCE","registrationTime":"2023-09-11T13:50:43+0200","releaseTime":"2023-09-11T13:50:43+0200","local":false,"title":"Arnhem - Duisburg - Düsseldorf.","titleSections":[[{"type":"STATION","value":"Arnhem C."},{"type":"ICON","value":"MAINTENANCE"},{"type":"STATION","value":"Emmerich"},{"type":"STATION","value":"Düsseldorf Hbf"}]],"isActive":true,"start":"2023-08-25T21:00:00+0200","end":"2023-09-24T23:55:00+0200","period":"Vrijdag 25-08-2023 21:00 uur t/m zondag 24-09-2023 23:55 uur.","impact":{"value":3},"summaryAdditionalTravelTime":{"label":"De extra reistijd kan oplopen tot 30 minuten.","shortLabel":"extra reistijd tot 30 min.","maximumDurationInMinutes":30},"publicationSections":[{"section":{"stations":[{"uicCode":"8400071","stationCode":"AH","name":"Arnhem Centraal","coordinate":{"lat":51.9850006103516,"lng":5.89916658401489},"countryCode":"NL"},{"uicCode":"8400072","stationCode":"AHP","name":"Arnhem Velperpoort","coordinate":{"lat":51.985279083252,"lng":5.91944456100464},"countryCode":"NL"},{"uicCode":"8400688","stationCode":"WTV","name":"Westervoort","coordinate":{"lat":51.96286,"lng":5.9695},"countryCode":"NL"},{"uicCode":"8400193","stationCode":"DVN","name":"Duiven","coordinate":{"lat":51.9433326721191,"lng":6.01472234725952},"countryCode":"NL"},{"uicCode":"8400735","stationCode":"ZV","name":"Zevenaar","coordinate":{"lat":51.9230537414551,"lng":6.07194423675537},"countryCode":"NL"},{"uicCode":"8033415","stationCode":"EL","name":"Emmerich-Elten","coordinate":{"lat":51.8743,"lng":6.15417},"countryCode":"D"},{"uicCode":"8010288","stationCode":"EM","name":"Emmerich","coordinate":{"lat":51.834283,"lng":6.255718},"countryCode":"D"},{"uicCode":"8010275","stationCode":"WESEL","name":"Wesel","coordinate":{"lat":51.655833,"lng":6.627222},"countryCode":"D"},{"uicCode":"8010263","stationCode":"OBERH","name":"Oberhausen Hbf","coordinate":{"lat":51.47512,"lng":6.852038},"countryCode":"D"},{"uicCode":"8010316","stationCode":"DUISB","name":"Duisburg Hbf","coordinate":{"lat":51.4297785713316,"lng":6.77590370178222},"countryCode":"D"},{"uicCode":"8039904","stationCode":"KDFFH","name":"Düsseldorf Flughafen","coordinate":{"lat":51.292009,"lng":6.786836},"countryCode":"D"},{"uicCode":"8008094","stationCode":"DUSSEL","name":"Düsseldorf Hbf","coordinate":{"lat":51.220146,"lng":6.793137},"countryCode":"D"}],"direction":"BOTH"},"consequence":{"section":{"stations":[{"uicCode":"8400071","stationCode":"AH","name":"Arnhem Centraal","coordinate":{"lat":51.9850006103516,"lng":5.89916658401489},"countryCode":"NL"},{"uicCode":"8400072","stationCode":"AHP","name":"Arnhem Velperpoort","coordinate":{"lat":51.985279083252,"lng":5.91944456100464},"countryCode":"NL"},{"uicCode":"8400688","stationCode":"WTV","name":"Westervoort","coordinate":{"lat":51.96286,"lng":5.9695},"countryCode":"NL"},{"uicCode":"8400193","stationCode":"DVN","name":"Duiven","coordinate":{"lat":51.9433326721191,"lng":6.01472234725952},"countryCode":"NL"},{"uicCode":"8400735","stationCode":"ZV","name":"Zevenaar","coordinate":{"lat":51.9230537414551,"lng":6.07194423675537},"countryCode":"NL"},{"uicCode":"8033415","stationCode":"EL","name":"Emmerich-Elten","coordinate":{"lat":51.8743,"lng":6.15417},"countryCode":"D"},{"uicCode":"8010288","stationCode":"EM","name":"Emmerich","coordinate":{"lat":51.834283,"lng":6.255718},"countryCode":"D"}],"direction":"ONE_WAY"},"description":"rijden bussen","level":"LESS_TRAINS"},"sectionType":"NEIGHBORING_COUNTRY"}],"timespans":[{"start":"2023-08-25T21:00:00+0200","end":"2023-09-24T23:55:00+0200","period":"Vrijdag 25-08-2023 21:00 uur t/m zondag 24-09-2023 23:55 uur.","situation":{"label":"Door werkzaamheden: tussen Arnhem Centraal en Emmerich rijden er bussen."},"cause":{"label":"werkzaamheden"},"additionalTravelTime":{"label":"De extra reistijd kan oplopen tot 30 minuten.","shortLabel":"extra reistijd tot 30 min.","maximumDurationInMinutes":30},"alternativeTransport":{"label":"er rijden stopbussen","shortLabel":"er rijden stopbussen"},"advices":["Dit kan gevolgen hebben voor uw reis. Plan uw reis in de (Internationale) app."]}],"alternativeTransportTimespans":[{"start":"2023-08-25T21:00:00+0200","end":"2023-09-24T23:55:00+0200","alternativeTransport":{"location":[{"station":{"uicCode":"8400071","stationCode":"AH","name":"Arnhem Centraal","coordinate":{"lat":51.9850006103516,"lng":5.89916658401489},"countryCode":"NL"},"description":"vanaf de bus-terminal"},{"station":{"uicCode":"8400735","stationCode":"ZV","name":"Zevenaar","coordinate":{"lat":51.9230537414551,"lng":6.07194423675537},"countryCode":"NL"},"description":"vanaf het stationsplein bij de Kiss & Ride plaatsen, aan beide zijden van de weg"}],"label":"Er rijden stopbussen tussen Arnhem Centraal, Zevenaar en Emmerich.","shortLabel":"er rijden stopbussen Arnhem C. - Zevenaar - Emmerich"}}]},{"id":"7003960","type":"MAINTENANCE","registrationTime":"2023-09-05T09:13:08+0200","releaseTime":"2023-09-05T09:13:08+0200","local":false,"title":"Maastricht - Liège / Luik.","titleSections":[[{"type":"STATION","value":"Maastricht"},{"type":"ICON","value":"MAINTENANCE"},{"type":"STATION","value":"Liège-Guillemins"}]],"isActive":false,"start":"2023-09-14T23:15:00+0200","end":"2023-09-15T01:00:00+0200","period":"Donderdag 14-09-2023 23:15 uur t/m vrijdag 15-09-2023 01:00 uur.","impact":{"value":2},"summaryAdditionalTravelTime":{"label":"De extra reistijd is ongeveer 30 minuten.","shortLabel":"extra reistijd 30 min.","minimumDurationInMinutes":30,"maximumDurationInMinutes":30},"publicationSections":[{"section":{"stations":[{"uicCode":"8400424","stationCode":"MT","name":"Maastricht","coordinate":{"lat":50.8502769470215,"lng":5.70555543899536},"countryCode":"NL"},{"uicCode":"8400426","stationCode":"MTR","name":"Maastricht Randwyck","coordinate":{"lat":50.8386116027832,"lng":5.71722221374512},"countryCode":"NL"},{"uicCode":"8400219","stationCode":"EDN","name":"Eijsden","coordinate":{"lat":50.7719459533691,"lng":5.71000003814697},"countryCode":"NL"},{"uicCode":"8846201","stationCode":"FVS","name":"Visé","coordinate":{"lat":50.73781,"lng":5.69232},"countryCode":"B"},{"uicCode":"8843901","stationCode":"BRESSX","name":"Bressoux","coordinate":{"lat":50.643829,"lng":5.6112542},"countryCode":"B"},{"uicCode":"8841004","stationCode":"LUIK","name":"Liège-Guillemins","coordinate":{"lat":50.62436,"lng":5.56648},"countryCode":"B"}],"direction":"BOTH"},"consequence":{"section":{"stations":[{"uicCode":"8400424","stationCode":"MT","name":"Maastricht","coordinate":{"lat":50.8502769470215,"lng":5.70555543899536},"countryCode":"NL"},{"uicCode":"8400426","stationCode":"MTR","name":"Maastricht Randwyck","coordinate":{"lat":50.8386116027832,"lng":5.71722221374512},"countryCode":"NL"},{"uicCode":"8400219","stationCode":"EDN","name":"Eijsden","coordinate":{"lat":50.7719459533691,"lng":5.71000003814697},"countryCode":"NL"},{"uicCode":"8846201","stationCode":"FVS","name":"Visé","coordinate":{"lat":50.73781,"lng":5.69232},"countryCode":"B"},{"uicCode":"8843901","stationCode":"BRESSX","name":"Bressoux","coordinate":{"lat":50.643829,"lng":5.6112542},"countryCode":"B"},{"uicCode":"8841004","stationCode":"LUIK","name":"Liège-Guillemins","coordinate":{"lat":50.62436,"lng":5.56648},"countryCode":"B"}],"direction":"ONE_WAY"},"description":"rijden bussen","level":"LESS_TRAINS"},"sectionType":"NEIGHBORING_COUNTRY"}],"timespans":[{"start":"2023-09-14T23:15:00+0200","end":"2023-09-15T01:00:00+0200","period":"Donderdag 14-09-2023 23:15 uur t/m vrijdag 15-09-2023 01:00 uur.","situation":{"label":"Door werkzaamheden: tussen Maastricht en Liège-Guillemins rijden er bussen."},"cause":{"label":"werkzaamheden"},"additionalTravelTime":{"label":"De extra reistijd is ongeveer 30 minuten.","shortLabel":"extra reistijd 30 min.","minimumDurationInMinutes":30,"maximumDurationInMinutes":30},"alternativeTransport":{"label":"er rijden stopbussen","shortLabel":"er rijden stopbussen"},"advices":[]}],"alternativeTransportTimespans":[{"start":"2023-09-14T23:15:00+0200","end":"2023-09-15T01:00:00+0200","alternativeTransport":{"location":[{"station":{"uicCode":"8400219","stationCode":"EDN","name":"Eijsden","coordinate":{"lat":50.7719459533691,"lng":5.71000003814697},"countryCode":"NL"},"description":"vanaf de voorzijde van het station"},{"station":{"uicCode":"8400426","stationCode":"MTR","name":"Maastricht Randwyck","coordinate":{"lat":50.8386116027832,"lng":5.71722221374512},"countryCode":"NL"},"description":"vanaf de OV-halte aan de Joseph Bechlaan op het viaduct"}],"label":"Er rijden stopbussen van Visé, Eijsden, Maastricht Randwyck naar Maastricht.","shortLabel":"er rijden stopbussen Visé -> Eijsden -> Randwyck -> Maastricht"}},{"start":"2023-09-14T23:15:00+0200","end":"2023-09-15T01:00:00+0200","alternativeTransport":{"location":[{"station":{"uicCode":"8400424","stationCode":"MT","name":"Maastricht","coordinate":{"lat":50.8502769470215,"lng":5.70555543899536},"countryCode":"NL"},"description":"vanaf het Stationsplein"},{"station":{"uicCode":"8400426","stationCode":"MTR","name":"Maastricht Randwyck","coordinate":{"lat":50.8386116027832,"lng":5.71722221374512},"countryCode":"NL"},"description":"vanaf de Universiteitssingel"},{"station":{"uicCode":"8400219","stationCode":"EDN","name":"Eijsden","coordinate":{"lat":50.7719459533691,"lng":5.71000003814697},"countryCode":"NL"},"description":"vanaf de voorzijde van het station"}],"label":"Er rijden stopbussen van Maastricht, Maastricht Randwyck, Eijsden, Visé, Bressoux naar Liège-Guillemins.","shortLabel":"er rijden stopbussen Maastricht -> Randwyck -> Eijsden -> Visé -> Bressoux -> Liège-Guillemins"}}]},{"id":"7003892","type":"MAINTENANCE","registrationTime":"2023-09-05T13:12:54+0200","releaseTime":"2023-09-05T13:12:54+0200","local":false,"title":"Roosendaal - Vlissingen.","titleSections":[[{"type":"STATION","value":"Roosendaal"},{"type":"ICON","value":"MAINTENANCE"},{"type":"STATION","value":"Vlissingen"}]],"isActive":false,"start":"2023-09-15T04:00:00+0200","end":"2023-09-18T02:20:00+0200","period":"Vrijdag 15-09-2023 04:00 uur t/m maandag 18-09-2023 02:20 uur.","impact":{"value":4},"summaryAdditionalTravelTime":{"label":"De extra reistijd is ongeveer 45 minuten.","shortLabel":"extra reistijd 45 min.","minimumDurationInMinutes":45,"maximumDurationInMinutes":45},"publicationSections":[{"section":{"stations":[{"uicCode":"8400526","stationCode":"RSD","name":"Roosendaal","coordinate":{"lat":51.5402793884277,"lng":4.45833349227905},"countryCode":"NL"},{"uicCode":"8400108","stationCode":"BGN","name":"Bergen op Zoom","coordinate":{"lat":51.4938888549805,"lng":4.29611110687256},"countryCode":"NL"},{"uicCode":"8400521","stationCode":"RB","name":"Rilland-Bath","coordinate":{"lat":51.422779083252,"lng":4.16111087799072},"countryCode":"NL"},{"uicCode":"8400367","stationCode":"KBD","name":"Krabbendijke","coordinate":{"lat":51.4333343505859,"lng":4.11694431304932},"countryCode":"NL"},{"uicCode":"8400370","stationCode":"KRG","name":"Kruiningen-Yerseke","coordinate":{"lat":51.4650001525879,"lng":4.03722238540649},"countryCode":"NL"},{"uicCode":"8400354","stationCode":"BZL","name":"Kapelle-Biezelinge","coordinate":{"lat":51.4808349609375,"lng":3.95611119270325},"countryCode":"NL"},{"uicCode":"8400253","stationCode":"GS","name":"Goes","coordinate":{"lat":51.4980545043945,"lng":3.89055562019348},"countryCode":"NL"},{"uicCode":"8400069","stationCode":"ARN","name":"Arnemuiden","coordinate":{"lat":51.5016670227051,"lng":3.66916656494141},"countryCode":"NL"},{"uicCode":"8400436","stationCode":"MDB","name":"Middelburg","coordinate":{"lat":51.4947204589844,"lng":3.61722230911255},"countryCode":"NL"},{"uicCode":"8400653","stationCode":"VSS","name":"Vlissingen Souburg","coordinate":{"lat":51.4647216796875,"lng":3.59527778625488},"countryCode":"NL"},{"uicCode":"8400652","stationCode":"VS","name":"Vlissingen","coordinate":{"lat":51.4458351135254,"lng":3.59527778625488},"countryCode":"NL"}],"direction":"BOTH"},"consequence":{"section":{"stations":[{"uicCode":"8400526","stationCode":"RSD","name":"Roosendaal","coordinate":{"lat":51.5402793884277,"lng":4.45833349227905},"countryCode":"NL"},{"uicCode":"8400108","stationCode":"BGN","name":"Bergen op Zoom","coordinate":{"lat":51.4938888549805,"lng":4.29611110687256},"countryCode":"NL"},{"uicCode":"8400521","stationCode":"RB","name":"Rilland-Bath","coordinate":{"lat":51.422779083252,"lng":4.16111087799072},"countryCode":"NL"},{"uicCode":"8400367","stationCode":"KBD","name":"Krabbendijke","coordinate":{"lat":51.4333343505859,"lng":4.11694431304932},"countryCode":"NL"},{"uicCode":"8400370","stationCode":"KRG","name":"Kruiningen-Yerseke","coordinate":{"lat":51.4650001525879,"lng":4.03722238540649},"countryCode":"NL"},{"uicCode":"8400354","stationCode":"BZL","name":"Kapelle-Biezelinge","coordinate":{"lat":51.4808349609375,"lng":3.95611119270325},"countryCode":"NL"},{"uicCode":"8400253","stationCode":"GS","name":"Goes","coordinate":{"lat":51.4980545043945,"lng":3.89055562019348},"countryCode":"NL"},{"uicCode":"8400069","stationCode":"ARN","name":"Arnemuiden","coordinate":{"lat":51.5016670227051,"lng":3.66916656494141},"countryCode":"NL"},{"uicCode":"8400436","stationCode":"MDB","name":"Middelburg","coordinate":{"lat":51.4947204589844,"lng":3.61722230911255},"countryCode":"NL"},{"uicCode":"8400653","stationCode":"VSS","name":"Vlissingen Souburg","coordinate":{"lat":51.4647216796875,"lng":3.59527778625488},"countryCode":"NL"},{"uicCode":"8400652","stationCode":"VS","name":"Vlissingen","coordinate":{"lat":51.4458351135254,"lng":3.59527778625488},"countryCode":"NL"}],"direction":"ONE_WAY"},"description":"rijden bussen","level":"LESS_TRAINS"},"sectionType":"NL"}],"timespans":[{"start":"2023-09-15T04:00:00+0200","end":"2023-09-18T02:20:00+0200","period":"Vrijdag 15-09-2023 04:00 uur t/m maandag 18-09-2023 02:20 uur.","situation":{"label":"Door werkzaamheden: tussen Roosendaal en Vlissingen rijden er bussen."},"cause":{"label":"werkzaamheden"},"additionalTravelTime":{"label":"De extra reistijd is ongeveer 45 minuten.","shortLabel":"extra reistijd 45 min.","minimumDurationInMinutes":45,"maximumDurationInMinutes":45},"alternativeTransport":{"label":"maak gebruik van het vervangende vervoer","shortLabel":"gebruik het vervangende vervoer"},"advices":["NS verwacht vrijdag drukte in de bussen. Ga zo mogelijk eerder op reis en mijd de spitsuren."]}],"alternativeTransportTimespans":[{"start":"2023-09-15T04:00:00+0200","end":"2023-09-18T02:20:00+0200","alternativeTransport":{"location":[{"station":{"uicCode":"8400526","stationCode":"RSD","name":"Roosendaal","coordinate":{"lat":51.5402793884277,"lng":4.45833349227905},"countryCode":"NL"},"description":"vanaf de voorzijde van het station"},{"station":{"uicCode":"8400108","stationCode":"BGN","name":"Bergen op Zoom","coordinate":{"lat":51.4938888549805,"lng":4.29611110687256},"countryCode":"NL"},"description":"vanaf het Stationsplein"},{"station":{"uicCode":"8400253","stationCode":"GS","name":"Goes","coordinate":{"lat":51.4980545043945,"lng":3.89055562019348},"countryCode":"NL"},"description":"vanaf de achterzijde van het station"},{"station":{"uicCode":"8400436","stationCode":"MDB","name":"Middelburg","coordinate":{"lat":51.4947204589844,"lng":3.61722230911255},"countryCode":"NL"},"description":"vanaf de achterzijde van het station"},{"station":{"uicCode":"8400652","stationCode":"VS","name":"Vlissingen","coordinate":{"lat":51.4458351135254,"lng":3.59527778625488},"countryCode":"NL"},"description":"vanaf het Stationsplein"}],"label":"Er rijden snelbussen tussen Roosendaal, Bergen op Zoom, Goes, Middelburg en Vlissingen.","shortLabel":"er rijden snelbussen Roosendaal - Bergen op Zoom - Goes - Middelburg - Vlissingen"}},{"start":"2023-09-15T04:00:00+0200","end":"2023-09-18T02:20:00+0200","alternativeTransport":{"location":[{"station":{"uicCode":"8400526","stationCode":"RSD","name":"Roosendaal","coordinate":{"lat":51.5402793884277,"lng":4.45833349227905},"countryCode":"NL"},"description":"vanaf de voorzijde van het station"},{"station":{"uicCode":"8400108","stationCode":"BGN","name":"Bergen op Zoom","coordinate":{"lat":51.4938888549805,"lng":4.29611110687256},"countryCode":"NL"},"description":"vanaf het Stationsplein"},{"station":{"uicCode":"8400521","stationCode":"RB","name":"Rilland-Bath","coordinate":{"lat":51.422779083252,"lng":4.16111087799072},"countryCode":"NL"},"description":"vanaf de Provinciale weg"},{"station":{"uicCode":"8400367","stationCode":"KBD","name":"Krabbendijke","coordinate":{"lat":51.4333343505859,"lng":4.11694431304932},"countryCode":"NL"},"description":"vanaf de voorzijde van het station"},{"station":{"uicCode":"8400370","stationCode":"KRG","name":"Kruiningen-Yerseke","coordinate":{"lat":51.4650001525879,"lng":4.03722238540649},"countryCode":"NL"},"description":"vanaf de voorzijde van het station"},{"station":{"uicCode":"8400253","stationCode":"GS","name":"Goes","coordinate":{"lat":51.4980545043945,"lng":3.89055562019348},"countryCode":"NL"},"description":"vanaf de achterzijde van het station"},{"station":{"uicCode":"8400436","stationCode":"MDB","name":"Middelburg","coordinate":{"lat":51.4947204589844,"lng":3.61722230911255},"countryCode":"NL"},"description":"vanaf de achterzijde van het station"},{"station":{"uicCode":"8400653","stationCode":"VSS","name":"Vlissingen Souburg","coordinate":{"lat":51.4647216796875,"lng":3.59527778625488},"countryCode":"NL"},"description":"vanaf de achterzijde van het station"},{"station":{"uicCode":"8400652","stationCode":"VS","name":"Vlissingen","coordinate":{"lat":51.4458351135254,"lng":3.59527778625488},"countryCode":"NL"},"description":"vanaf het Stationsplein"}],"label":"Er rijden stopbussen tussen Roosendaal, Bergen op Zoom, Rilland-Bath, Krabbendijke, Kruiningen-Yerseke, Goes, Middelburg, Vlissingen Souburg en Vlissingen.","shortLabel":"er rijden stopbussen Roosendaal - Bergen op Zoom - Rilland-Bath - Krabbendijke - Kruiningen-Y. - Goes - Middelburg - Souburg - Vlissingen"}},{"start":"2023-09-15T04:00:00+0200","end":"2023-09-18T02:20:00+0200","alternativeTransport":{"location":[{"station":{"uicCode":"8400253","stationCode":"GS","name":"Goes","coordinate":{"lat":51.4980545043945,"lng":3.89055562019348},"countryCode":"NL"},"description":"vanaf de achterzijde van het station"},{"station":{"uicCode":"8400354","stationCode":"BZL","name":"Kapelle-Biezelinge","coordinate":{"lat":51.4808349609375,"lng":3.95611119270325},"countryCode":"NL"},"description":"vanaf de voorzijde van het station"}],"label":"Er rijden taxibusjes tussen Goes en Kapelle-Biezelinge.","shortLabel":"er rijden taxibusjes Goes - Kapelle-Biezel."}},{"start":"2023-09-15T04:00:00+0200","end":"2023-09-18T02:20:00+0200","alternativeTransport":{"location":[{"station":{"uicCode":"8400436","stationCode":"MDB","name":"Middelburg","coordinate":{"lat":51.4947204589844,"lng":3.61722230911255},"countryCode":"NL"},"description":"vanaf de achterzijde van het station"},{"station":{"uicCode":"8400069","stationCode":"ARN","name":"Arnemuiden","coordinate":{"lat":51.5016670227051,"lng":3.66916656494141},"countryCode":"NL"},"description":"vanaf het Stationsplein"}],"label":"Er rijden taxibusjes tussen Middelburg en Arnemuiden.","shortLabel":"er rijden taxibusjes Middelburg - Arnemuiden"}}]},{"id":"7003961","type":"MAINTENANCE","registrationTime":"2023-09-05T09:13:41+0200","releaseTime":"2023-09-05T09:13:41+0200","local":false,"title":"Maastricht - Liège / Luik.","titleSections":[[{"type":"STATION","value":"Maastricht"},{"type":"ICON","value":"MAINTENANCE"},{"type":"STATION","value":"Liège-Guillemins"}]],"isActive":false,"start":"2023-09-15T23:15:00+0200","end":"2023-09-16T01:00:00+0200","period":"Vrijdag 15-09-2023 23:15 uur t/m zaterdag 16-09-2023 01:00 uur.","impact":{"value":2},"summaryAdditionalTravelTime":{"label":"De extra reistijd is ongeveer 30 minuten.","shortLabel":"extra reistijd 30 min.","minimumDurationInMinutes":30,"maximumDurationInMinutes":30},"publicationSections":[{"section":{"stations":[{"uicCode":"8400424","stationCode":"MT","name":"Maastricht","coordinate":{"lat":50.8502769470215,"lng":5.70555543899536},"countryCode":"NL"},{"uicCode":"8400426","stationCode":"MTR","name":"Maastricht Randwyck","coordinate":{"lat":50.8386116027832,"lng":5.71722221374512},"countryCode":"NL"},{"uicCode":"8400219","stationCode":"EDN","name":"Eijsden","coordinate":{"lat":50.7719459533691,"lng":5.71000003814697},"countryCode":"NL"},{"uicCode":"8846201","stationCode":"FVS","name":"Visé","coordinate":{"lat":50.73781,"lng":5.69232},"countryCode":"B"},{"uicCode":"8843901","stationCode":"BRESSX","name":"Bressoux","coordinate":{"lat":50.643829,"lng":5.6112542},"countryCode":"B"},{"uicCode":"8841004","stationCode":"LUIK","name":"Liège-Guillemins","coordinate":{"lat":50.62436,"lng":5.56648},"countryCode":"B"}],"direction":"BOTH"},"consequence":{"section":{"stations":[{"uicCode":"8400424","stationCode":"MT","name":"Maastricht","coordinate":{"lat":50.8502769470215,"lng":5.70555543899536},"countryCode":"NL"},{"uicCode":"8400426","stationCode":"MTR","name":"Maastricht Randwyck","coordinate":{"lat":50.8386116027832,"lng":5.71722221374512},"countryCode":"NL"},{"uicCode":"8400219","stationCode":"EDN","name":"Eijsden","coordinate":{"lat":50.7719459533691,"lng":5.71000003814697},"countryCode":"NL"},{"uicCode":"8846201","stationCode":"FVS","name":"Visé","coordinate":{"lat":50.73781,"lng":5.69232},"countryCode":"B"},{"uicCode":"8843901","stationCode":"BRESSX","name":"Bressoux","coordinate":{"lat":50.643829,"lng":5.6112542},"countryCode":"B"},{"uicCode":"8841004","stationCode":"LUIK","name":"Liège-Guillemins","coordinate":{"lat":50.62436,"lng":5.56648},"countryCode":"B"}],"direction":"ONE_WAY"},"description":"rijden bussen","level":"LESS_TRAINS"},"sectionType":"NEIGHBORING_COUNTRY"}],"timespans":[{"start":"2023-09-15T23:15:00+0200","end":"2023-09-16T01:00:00+0200","period":"Vrijdag 15-09-2023 23:15 uur t/m zaterdag 16-09-2023 01:00 uur.","situation":{"label":"Door werkzaamheden: tussen Maastricht en Liège-Guillemins rijden er bussen."},"cause":{"label":"werkzaamheden"},"additionalTravelTime":{"label":"De extra reistijd is ongeveer 30 minuten.","shortLabel":"extra reistijd 30 min.","minimumDurationInMinutes":30,"maximumDurationInMinutes":30},"alternativeTransport":{"label":"er rijden stopbussen","shortLabel":"er rijden stopbussen"},"advices":[]}],"alternativeTransportTimespans":[{"start":"2023-09-15T23:15:00+0200","end":"2023-09-16T01:00:00+0200","alternativeTransport":{"location":[{"station":{"uicCode":"8400219","stationCode":"EDN","name":"Eijsden","coordinate":{"lat":50.7719459533691,"lng":5.71000003814697},"countryCode":"NL"},"description":"vanaf de voorzijde van het station"},{"station":{"uicCode":"8400426","stationCode":"MTR","name":"Maastricht Randwyck","coordinate":{"lat":50.8386116027832,"lng":5.71722221374512},"countryCode":"NL"},"description":"vanaf de OV-halte aan de Joseph Bechlaan op het viaduct"}],"label":"Er rijden stopbussen van Visé, Eijsden, Maastricht Randwyck naar Maastricht.","shortLabel":"er rijden stopbussen Visé -> Eijsden -> Randwyck -> Maastricht"}},{"start":"2023-09-15T23:15:00+0200","end":"2023-09-16T01:00:00+0200","alternativeTransport":{"location":[{"station":{"uicCode":"8400424","stationCode":"MT","name":"Maastricht","coordinate":{"lat":50.8502769470215,"lng":5.70555543899536},"countryCode":"NL"},"description":"vanaf het Stationsplein"},{"station":{"uicCode":"8400426","stationCode":"MTR","name":"Maastricht Randwyck","coordinate":{"lat":50.8386116027832,"lng":5.71722221374512},"countryCode":"NL"},"description":"vanaf de Universiteitssingel"},{"station":{"uicCode":"8400219","stationCode":"EDN","name":"Eijsden","coordinate":{"lat":50.7719459533691,"lng":5.71000003814697},"countryCode":"NL"},"description":"vanaf de voorzijde van het station"}],"label":"Er rijden stopbussen van Maastricht, Maastricht Randwyck, Eijsden, Visé, Bressoux naar Liège-Guillemins.","shortLabel":"er rijden stopbussen Maastricht -> Randwyck -> Eijsden -> Visé -> Bressoux -> Liège-Guillemins"}}]},{"id":"7003900","type":"MAINTENANCE","registrationTime":"2023-08-17T12:21:49+0200","releaseTime":"2023-08-17T12:21:49+0200","local":false,"title":"Utrecht - Amersfoort; Utrecht - Hilversum.","titleSections":[[{"type":"STATION","value":"Utrecht C."},{"type":"ICON","value":"MAINTENANCE"},{"type":"STATION","value":"Hilversum"}],[{"type":"STATION","value":"Utrecht C."},{"type":"STATION","value":"Overvecht"},{"type":"ICON","value":"MAINTENANCE"},{"type":"STATION","value":"Amersfoort C."}]],"isActive":false,"start":"2023-09-16T01:10:00+0200","end":"2023-09-18T02:00:00+0200","period":"Zaterdag 16-09-2023 01:10 uur t/m maandag 18-09-2023 02:00 uur.","impact":{"value":4},"summaryAdditionalTravelTime":{"label":"De extra reistijd ligt tussen 15 en 30 minuten.","shortLabel":"Extra reistijd: 15-30 min.","minimumDurationInMinutes":15,"maximumDurationInMinutes":30},"publicationSections":[{"section":{"stations":[{"uicCode":"8400621","stationCode":"UT","name":"Utrecht Centraal","coordinate":{"lat":52.0888900756836,"lng":5.11027765274048},"countryCode":"NL"},{"uicCode":"8400620","stationCode":"UTO","name":"Utrecht Overvecht","coordinate":{"lat":52.1100006103516,"lng":5.12472200393677},"countryCode":"NL"},{"uicCode":"8400327","stationCode":"HOR","name":"Hollandsche Rading","coordinate":{"lat":52.1777763366699,"lng":5.17916679382324},"countryCode":"NL"},{"uicCode":"8400570","stationCode":"HVSP","name":"Hilversum Sportpark","coordinate":{"lat":52.2161102294922,"lng":5.18722200393677},"countryCode":"NL"},{"uicCode":"8400322","stationCode":"HVS","name":"Hilversum","coordinate":{"lat":52.2258338928223,"lng":5.18194437026978},"countryCode":"NL"}],"direction":"BOTH"},"consequence":{"section":{"stations":[{"uicCode":"8400621","stationCode":"UT","name":"Utrecht Centraal","coordinate":{"lat":52.0888900756836,"lng":5.11027765274048},"countryCode":"NL"},{"uicCode":"8400620","stationCode":"UTO","name":"Utrecht Overvecht","coordinate":{"lat":52.1100006103516,"lng":5.12472200393677},"countryCode":"NL"},{"uicCode":"8400327","stationCode":"HOR","name":"Hollandsche Rading","coordinate":{"lat":52.1777763366699,"lng":5.17916679382324},"countryCode":"NL"},{"uicCode":"8400570","stationCode":"HVSP","name":"Hilversum Sportpark","coordinate":{"lat":52.2161102294922,"lng":5.18722200393677},"countryCode":"NL"},{"uicCode":"8400322","stationCode":"HVS","name":"Hilversum","coordinate":{"lat":52.2258338928223,"lng":5.18194437026978},"countryCode":"NL"}],"direction":"ONE_WAY"},"description":"rijden bussen","level":"LESS_TRAINS"},"sectionType":"NL"},{"section":{"stations":[{"uicCode":"8400621","stationCode":"UT","name":"Utrecht Centraal","coordinate":{"lat":52.0888900756836,"lng":5.11027765274048},"countryCode":"NL"},{"uicCode":"8400620","stationCode":"UTO","name":"Utrecht Overvecht","coordinate":{"lat":52.1100006103516,"lng":5.12472200393677},"countryCode":"NL"},{"uicCode":"8400114","stationCode":"BHV","name":"Bilthoven","coordinate":{"lat":52.1300010681152,"lng":5.20388889312744},"countryCode":"NL"},{"uicCode":"8400179","stationCode":"DLD","name":"Den Dolder","coordinate":{"lat":52.1402778625488,"lng":5.24277782440186},"countryCode":"NL"},{"uicCode":"8400055","stationCode":"AMF","name":"Amersfoort Centraal","coordinate":{"lat":52.1538887023926,"lng":5.37055540084839},"countryCode":"NL"}],"direction":"BOTH"},"consequence":{"section":{"stations":[{"uicCode":"8400620","stationCode":"UTO","name":"Utrecht Overvecht","coordinate":{"lat":52.1100006103516,"lng":5.12472200393677},"countryCode":"NL"},{"uicCode":"8400114","stationCode":"BHV","name":"Bilthoven","coordinate":{"lat":52.1300010681152,"lng":5.20388889312744},"countryCode":"NL"},{"uicCode":"8400179","stationCode":"DLD","name":"Den Dolder","coordinate":{"lat":52.1402778625488,"lng":5.24277782440186},"countryCode":"NL"},{"uicCode":"8400055","stationCode":"AMF","name":"Amersfoort Centraal","coordinate":{"lat":52.1538887023926,"lng":5.37055540084839},"countryCode":"NL"}],"direction":"ONE_WAY"},"description":"dienstregeling aangepast","level":"LESS_TRAINS"},"sectionType":"NL"}],"timespans":[{"start":"2023-09-16T01:10:00+0200","end":"2023-09-18T02:00:00+0200","period":"Zaterdag 16-09-2023 01:10 uur t/m maandag 18-09-2023 02:00 uur.","situation":{"label":"Door werkzaamheden: tussen Utrecht Centraal en Hilversum rijden er bussen en tussen Utrecht Overvecht en Amersfoort Centraal is de dienstregeling aangepast."},"cause":{"label":"werkzaamheden"},"additionalTravelTime":{"label":"De extra reistijd ligt tussen 15 en 30 minuten.","shortLabel":"Extra reistijd: 15-30 min.","minimumDurationInMinutes":15,"maximumDurationInMinutes":30},"alternativeTransport":{"label":"er rijden stopbussen","shortLabel":"er rijden stopbussen"},"advices":["Intercity's tussen Utrecht C en Amersfoort C rijden als normaal.","Tussen Utrecht C. en Overvecht reist u via Bilthoven"]}],"alternativeTransportTimespans":[{"start":"2023-09-16T01:10:00+0200","end":"2023-09-18T02:00:00+0200","alternativeTransport":{"location":[{"station":{"uicCode":"8400620","stationCode":"UTO","name":"Utrecht Overvecht","coordinate":{"lat":52.1100006103516,"lng":5.12472200393677},"countryCode":"NL"},"description":"vanaf de bushalte"},{"station":{"uicCode":"8400114","stationCode":"BHV","name":"Bilthoven","coordinate":{"lat":52.1300010681152,"lng":5.20388889312744},"countryCode":"NL"},"description":"vanaf de bushalte"},{"station":{"uicCode":"8400327","stationCode":"HOR","name":"Hollandsche Rading","coordinate":{"lat":52.1777763366699,"lng":5.17916679382324},"countryCode":"NL"},"description":"vanaf de bushalte"},{"station":{"uicCode":"8400570","stationCode":"HVSP","name":"Hilversum Sportpark","coordinate":{"lat":52.2161102294922,"lng":5.18722200393677},"countryCode":"NL"},"description":"vanaf de bushalte"},{"station":{"uicCode":"8400322","stationCode":"HVS","name":"Hilversum","coordinate":{"lat":52.2258338928223,"lng":5.18194437026978},"countryCode":"NL"},"description":"vanaf de voorzijde van het station"}],"label":"Er rijden stopbussen tussen Utrecht Overvecht, Bilthoven, Hollandsche Rading, Hilversum Sportpark en Hilversum.","shortLabel":"Er rijden stopbussen Overvecht - Bilthoven - Holl. Rading - Sportpark - Hilversum"}},{"start":"2023-09-16T01:10:00+0200","end":"2023-09-16T02:15:00+0200","alternativeTransport":{"location":[{"station":{"uicCode":"8400322","stationCode":"HVS","name":"Hilversum","coordinate":{"lat":52.2258338928223,"lng":5.18194437026978},"countryCode":"NL"},"description":"vanaf de voorzijde van het station"},{"station":{"uicCode":"8400570","stationCode":"HVSP","name":"Hilversum Sportpark","coordinate":{"lat":52.2161102294922,"lng":5.18722200393677},"countryCode":"NL"},"description":"vanaf de bushalte"},{"station":{"uicCode":"8400327","stationCode":"HOR","name":"Hollandsche Rading","coordinate":{"lat":52.1777763366699,"lng":5.17916679382324},"countryCode":"NL"},"description":"vanaf de bushalte"},{"station":{"uicCode":"8400114","stationCode":"BHV","name":"Bilthoven","coordinate":{"lat":52.1300010681152,"lng":5.20388889312744},"countryCode":"NL"},"description":"vanaf de bushalte"},{"station":{"uicCode":"8400620","stationCode":"UTO","name":"Utrecht Overvecht","coordinate":{"lat":52.1100006103516,"lng":5.12472200393677},"countryCode":"NL"},"description":"vanaf de bushalte"}],"label":"Er rijden stopbussen van Hilversum, Hilversum Sportpark, Hollandsche Rading, Bilthoven, Utrecht Overvecht naar Utrecht Centraal.","shortLabel":"Er rijden stopbussen Hilversum -> Sportpark -> Holl. Rading -> Bilthoven -> Overvecht -> Utrecht C."}},{"start":"2023-09-16T04:00:00+0200","end":"2023-09-16T06:10:00+0200","alternativeTransport":{"location":[{"station":{"uicCode":"8400621","stationCode":"UT","name":"Utrecht Centraal","coordinate":{"lat":52.0888900756836,"lng":5.11027765274048},"countryCode":"NL"},"description":"vanaf de Jaarbeurszijde"},{"station":{"uicCode":"8400620","stationCode":"UTO","name":"Utrecht Overvecht","coordinate":{"lat":52.1100006103516,"lng":5.12472200393677},"countryCode":"NL"},"description":"vanaf de bushalte"},{"station":{"uicCode":"8400327","stationCode":"HOR","name":"Hollandsche Rading","coordinate":{"lat":52.1777763366699,"lng":5.17916679382324},"countryCode":"NL"},"description":"vanaf de bushalte"},{"station":{"uicCode":"8400570","stationCode":"HVSP","name":"Hilversum Sportpark","coordinate":{"lat":52.2161102294922,"lng":5.18722200393677},"countryCode":"NL"},"description":"vanaf de bushalte"}],"label":"Er rijden stopbussen van Utrecht Centraal, Utrecht Overvecht, Hollandsche Rading, Hilversum Sportpark naar Hilversum.","shortLabel":"Er rijden stopbussen Utrecht C. -> Overvecht -> Holl. Rading -> Sportpark -> Hilversum"}},{"start":"2023-09-17T00:25:00+0200","end":"2023-09-17T02:00:00+0200","alternativeTransport":{"location":[{"station":{"uicCode":"8400621","stationCode":"UT","name":"Utrecht Centraal","coordinate":{"lat":52.0888900756836,"lng":5.11027765274048},"countryCode":"NL"},"description":"vanaf de Jaarbeurszijde"},{"station":{"uicCode":"8400620","stationCode":"UTO","name":"Utrecht Overvecht","coordinate":{"lat":52.1100006103516,"lng":5.12472200393677},"countryCode":"NL"},"description":"vanaf de bushalte"},{"station":{"uicCode":"8400327","stationCode":"HOR","name":"Hollandsche Rading","coordinate":{"lat":52.1777763366699,"lng":5.17916679382324},"countryCode":"NL"},"description":"vanaf de bushalte"},{"station":{"uicCode":"8400570","stationCode":"HVSP","name":"Hilversum Sportpark","coordinate":{"lat":52.2161102294922,"lng":5.18722200393677},"countryCode":"NL"},"description":"vanaf de bushalte"},{"station":{"uicCode":"8400322","stationCode":"HVS","name":"Hilversum","coordinate":{"lat":52.2258338928223,"lng":5.18194437026978},"countryCode":"NL"},"description":"vanaf de voorzijde van het station"}],"label":"Er rijden stopbussen tussen Utrecht Centraal, Utrecht Overvecht, Hollandsche Rading, Hilversum Sportpark en Hilversum.","shortLabel":"Er rijden stopbussen Utrecht C. - Overvecht - Holl. Rading - Sportpark - Hilversum"}},{"start":"2023-09-17T04:00:00+0200","end":"2023-09-17T07:20:00+0200","alternativeTransport":{"location":[{"station":{"uicCode":"8400621","stationCode":"UT","name":"Utrecht Centraal","coordinate":{"lat":52.0888900756836,"lng":5.11027765274048},"countryCode":"NL"},"description":"vanaf de Jaarbeurszijde"},{"station":{"uicCode":"8400620","stationCode":"UTO","name":"Utrecht Overvecht","coordinate":{"lat":52.1100006103516,"lng":5.12472200393677},"countryCode":"NL"},"description":"vanaf de bushalte"},{"station":{"uicCode":"8400327","stationCode":"HOR","name":"Hollandsche Rading","coordinate":{"lat":52.1777763366699,"lng":5.17916679382324},"countryCode":"NL"},"description":"vanaf de bushalte"},{"station":{"uicCode":"8400570","stationCode":"HVSP","name":"Hilversum Sportpark","coordinate":{"lat":52.2161102294922,"lng":5.18722200393677},"countryCode":"NL"},"description":"vanaf de bushalte"},{"station":{"uicCode":"8400322","stationCode":"HVS","name":"Hilversum","coordinate":{"lat":52.2258338928223,"lng":5.18194437026978},"countryCode":"NL"},"description":"vanaf de voorzijde van het station"}],"label":"Er rijden stopbussen tussen Utrecht Centraal, Utrecht Overvecht, Hollandsche Rading, Hilversum Sportpark en Hilversum.","shortLabel":"Er rijden stopbussen Utrecht C. - Overvecht - Holl. Rading - Sportpark - Hilversum"}},{"start":"2023-09-18T00:25:00+0200","end":"2023-09-18T01:45:00+0200","alternativeTransport":{"location":[{"station":{"uicCode":"8400621","stationCode":"UT","name":"Utrecht Centraal","coordinate":{"lat":52.0888900756836,"lng":5.11027765274048},"countryCode":"NL"},"description":"vanaf de Jaarbeurszijde"},{"station":{"uicCode":"8400620","stationCode":"UTO","name":"Utrecht Overvecht","coordinate":{"lat":52.1100006103516,"lng":5.12472200393677},"countryCode":"NL"},"description":"vanaf de bushalte"},{"station":{"uicCode":"8400327","stationCode":"HOR","name":"Hollandsche Rading","coordinate":{"lat":52.1777763366699,"lng":5.17916679382324},"countryCode":"NL"},"description":"vanaf de bushalte"},{"station":{"uicCode":"8400570","stationCode":"HVSP","name":"Hilversum Sportpark","coordinate":{"lat":52.2161102294922,"lng":5.18722200393677},"countryCode":"NL"},"description":"vanaf de bushalte"},{"station":{"uicCode":"8400322","stationCode":"HVS","name":"Hilversum","coordinate":{"lat":52.2258338928223,"lng":5.18194437026978},"countryCode":"NL"},"description":"vanaf de voorzijde van het station"}],"label":"Er rijden stopbussen tussen Utrecht Centraal, Utrecht Overvecht, Hollandsche Rading, Hilversum Sportpark en Hilversum.","shortLabel":"Er rijden stopbussen Utrecht C. - Overvecht - Holl. Rading - Sportpark - Hilversum"}}]},{"id":"7003899","type":"MAINTENANCE","registrationTime":"2023-09-01T11:14:08+0200","releaseTime":"2023-09-01T11:14:08+0200","local":false,"title":"Utrecht - Den Haag; Rotterdam - Gouda; Alphen a/d Rijn - Gouda.","titleSections":[[{"type":"STATION","value":"Utrecht C."},{"type":"STATION","value":"Woerden"},{"type":"ICON","value":"MAINTENANCE"},{"type":"STATION","value":"Ypenburg"},{"type":"STATION","value":"Den Haag C."}],[{"type":"STATION","value":"Rotterdam C."},{"type":"STATION","value":"Nieuwerkerk"},{"type":"ICON","value":"MAINTENANCE"},{"type":"STATION","value":"Gouda"}],[{"type":"STATION","value":"Alphen a/d Rijn"},{"type":"ICON","value":"MAINTENANCE"},{"type":"STATION","value":"Gouda"}]],"isActive":false,"start":"2023-09-16T01:15:00+0200","end":"2023-09-18T02:30:00+0200","period":"Zaterdag 16-09-2023 01:15 uur t/m maandag 18-09-2023 02:30 uur.","impact":{"value":4},"summaryAdditionalTravelTime":{"label":"De extra reistijd kan oplopen tot 30 minuten.","shortLabel":"extra reistijd tot 30 min.","maximumDurationInMinutes":30},"publicationSections":[{"section":{"stations":[{"uicCode":"8400621","stationCode":"UT","name":"Utrecht Centraal","coordinate":{"lat":52.0888900756836,"lng":5.11027765274048},"countryCode":"NL"},{"uicCode":"8400607","stationCode":"UTLR","name":"Utrecht Leidsche Rijn","coordinate":{"lat":52.09896,"lng":5.06523},"countryCode":"NL"},{"uicCode":"8400614","stationCode":"UTT","name":"Utrecht Terwijde","coordinate":{"lat":52.1000753,"lng":5.0439547},"countryCode":"NL"},{"uicCode":"8400651","stationCode":"VTN","name":"Vleuten","coordinate":{"lat":52.103056,"lng":5.007404},"countryCode":"NL"},{"uicCode":"8400702","stationCode":"WD","name":"Woerden","coordinate":{"lat":52.0849990844727,"lng":4.89361095428467},"countryCode":"NL"},{"uicCode":"8400257","stationCode":"GDG","name":"Gouda Goverwelle","coordinate":{"lat":52.0149993896484,"lng":4.7408332824707},"countryCode":"NL"},{"uicCode":"8400258","stationCode":"GD","name":"Gouda","coordinate":{"lat":52.0175018310547,"lng":4.70444440841675},"countryCode":"NL"},{"uicCode":"8400135","stationCode":"LLZM","name":"Lansingerland-Zoetermeer","coordinate":{"lat":52.042222,"lng":4.517222},"countryCode":"NL"},{"uicCode":"8400740","stationCode":"ZTMO","name":"Zoetermeer Oost","coordinate":{"lat":52.0463905334473,"lng":4.49277782440186},"countryCode":"NL"},{"uicCode":"8400741","stationCode":"ZTM","name":"Zoetermeer","coordinate":{"lat":52.0475006103516,"lng":4.47722244262695},"countryCode":"NL"},{"uicCode":"8400379","stationCode":"YPB","name":"Den Haag Ypenburg","coordinate":{"lat":52.0552787780762,"lng":4.39222240447998},"countryCode":"NL"},{"uicCode":"8400658","stationCode":"VB","name":"Voorburg","coordinate":{"lat":52.0666656494141,"lng":4.3594446182251},"countryCode":"NL"},{"uicCode":"8400282","stationCode":"GVC","name":"Den Haag Centraal","coordinate":{"lat":52.0802764892578,"lng":4.32499980926514},"countryCode":"NL"}],"direction":"BOTH"},"consequence":{"section":{"stations":[{"uicCode":"8400702","stationCode":"WD","name":"Woerden","coordinate":{"lat":52.0849990844727,"lng":4.89361095428467},"countryCode":"NL"},{"uicCode":"8400257","stationCode":"GDG","name":"Gouda Goverwelle","coordinate":{"lat":52.0149993896484,"lng":4.7408332824707},"countryCode":"NL"},{"uicCode":"8400258","stationCode":"GD","name":"Gouda","coordinate":{"lat":52.0175018310547,"lng":4.70444440841675},"countryCode":"NL"},{"uicCode":"8400135","stationCode":"LLZM","name":"Lansingerland-Zoetermeer","coordinate":{"lat":52.042222,"lng":4.517222},"countryCode":"NL"},{"uicCode":"8400740","stationCode":"ZTMO","name":"Zoetermeer Oost","coordinate":{"lat":52.0463905334473,"lng":4.49277782440186},"countryCode":"NL"},{"uicCode":"8400741","stationCode":"ZTM","name":"Zoetermeer","coordinate":{"lat":52.0475006103516,"lng":4.47722244262695},"countryCode":"NL"},{"uicCode":"8400379","stationCode":"YPB","name":"Den Haag Ypenburg","coordinate":{"lat":52.0552787780762,"lng":4.39222240447998},"countryCode":"NL"}],"direction":"ONE_WAY"},"description":"rijden bussen","level":"LESS_TRAINS"},"sectionType":"NL"},{"section":{"stations":[{"uicCode":"8400530","stationCode":"RTD","name":"Rotterdam Centraal","coordinate":{"lat":51.9249992370605,"lng":4.46888875961304},"countryCode":"NL"},{"uicCode":"8400531","stationCode":"RTN","name":"Rotterdam Noord","coordinate":{"lat":51.9422225952148,"lng":4.48166656494141},"countryCode":"NL"},{"uicCode":"8400507","stationCode":"RTA","name":"Rotterdam Alexander","coordinate":{"lat":51.9519462585449,"lng":4.55361127853394},"countryCode":"NL"},{"uicCode":"8400147","stationCode":"CPS","name":"Capelle Schollevaar","coordinate":{"lat":51.9541664123535,"lng":4.58416652679443},"countryCode":"NL"},{"uicCode":"8400455","stationCode":"NWK","name":"Nieuwerkerk a/d IJssel","coordinate":{"lat":51.9652786254883,"lng":4.61694431304932},"countryCode":"NL"},{"uicCode":"8400258","stationCode":"GD","name":"Gouda","coordinate":{"lat":52.0175018310547,"lng":4.70444440841675},"countryCode":"NL"}],"direction":"BOTH"},"consequence":{"section":{"stations":[{"uicCode":"8400455","stationCode":"NWK","name":"Nieuwerkerk a/d IJssel","coordinate":{"lat":51.9652786254883,"lng":4.61694431304932},"countryCode":"NL"},{"uicCode":"8400258","stationCode":"GD","name":"Gouda","coordinate":{"lat":52.0175018310547,"lng":4.70444440841675},"countryCode":"NL"}],"direction":"ONE_WAY"},"description":"rijden bussen","level":"LESS_TRAINS"},"sectionType":"NL"},{"section":{"stations":[{"uicCode":"8400053","stationCode":"APN","name":"Alphen a/d Rijn","coordinate":{"lat":52.1244430541992,"lng":4.65777778625488},"countryCode":"NL"},{"uicCode":"8400125","stationCode":"BSK","name":"Boskoop","coordinate":{"lat":52.0777778625488,"lng":4.64694452285767},"countryCode":"NL"},{"uicCode":"8400126","stationCode":"BSKS","name":"Boskoop Snijdelwijk","coordinate":{"lat":52.067658,"lng":4.646186},"countryCode":"NL"},{"uicCode":"8400674","stationCode":"WADN","name":"Waddinxveen Noord","coordinate":{"lat":52.0550003051758,"lng":4.64833354949951},"countryCode":"NL"},{"uicCode":"8400675","stationCode":"WAD","name":"Waddinxveen","coordinate":{"lat":52.0441665649414,"lng":4.6497220993042},"countryCode":"NL"},{"uicCode":"8400677","stationCode":"WADT","name":"Waddinxveen Triangel","coordinate":{"lat":52.02725,"lng":4.6491},"countryCode":"NL"},{"uicCode":"8400258","stationCode":"GD","name":"Gouda","coordinate":{"lat":52.0175018310547,"lng":4.70444440841675},"countryCode":"NL"}],"direction":"BOTH"},"consequence":{"section":{"stations":[{"uicCode":"8400053","stationCode":"APN","name":"Alphen a/d Rijn","coordinate":{"lat":52.1244430541992,"lng":4.65777778625488},"countryCode":"NL"},{"uicCode":"8400125","stationCode":"BSK","name":"Boskoop","coordinate":{"lat":52.0777778625488,"lng":4.64694452285767},"countryCode":"NL"},{"uicCode":"8400126","stationCode":"BSKS","name":"Boskoop Snijdelwijk","coordinate":{"lat":52.067658,"lng":4.646186},"countryCode":"NL"},{"uicCode":"8400674","stationCode":"WADN","name":"Waddinxveen Noord","coordinate":{"lat":52.0550003051758,"lng":4.64833354949951},"countryCode":"NL"},{"uicCode":"8400675","stationCode":"WAD","name":"Waddinxveen","coordinate":{"lat":52.0441665649414,"lng":4.6497220993042},"countryCode":"NL"},{"uicCode":"8400677","stationCode":"WADT","name":"Waddinxveen Triangel","coordinate":{"lat":52.02725,"lng":4.6491},"countryCode":"NL"},{"uicCode":"8400258","stationCode":"GD","name":"Gouda","coordinate":{"lat":52.0175018310547,"lng":4.70444440841675},"countryCode":"NL"}],"direction":"ONE_WAY"},"description":"rijden bussen","level":"LESS_TRAINS"},"sectionType":"NL"}],"timespans":[{"start":"2023-09-16T01:15:00+0200","end":"2023-09-18T02:30:00+0200","period":"Zaterdag 16-09-2023 01:15 uur t/m maandag 18-09-2023 02:30 uur.","situation":{"label":"Door werkzaamheden: tussen Woerden en Den Haag Ypenburg rijden er bussen en tussen Nieuwerkerk a/d IJssel en Gouda rijden er bussen en tussen Alphen a/d Rijn en Gouda rijden er bussen."},"cause":{"label":"werkzaamheden"},"additionalTravelTime":{"label":"De extra reistijd kan oplopen tot 30 minuten.","shortLabel":"extra reistijd tot 30 min.","maximumDurationInMinutes":30},"alternativeTransport":{"label":"maak gebruik van het vervangende vervoer","shortLabel":"gebruik het vervangende vervoer"},"advices":["Zaterdag tot 09.45 uur ook stopbussen tussen Rotterdam Centraal en Gouda.","tussen Utrecht C. en Den Haag C./Rotterdam C. reist u via Schiphol Airport","tussen Woerden en Den Haag C. reist u via Leiden C.","tussen Goverwelle en Woerden/Utrecht C. reist u via Gouda"]}],"alternativeTransportTimespans":[{"start":"2023-09-16T01:15:00+0200","end":"2023-09-16T02:40:00+0200","alternativeTransport":{"location":[{"station":{"uicCode":"8400621","stationCode":"UT","name":"Utrecht Centraal","coordinate":{"lat":52.0888900756836,"lng":5.11027765274048},"countryCode":"NL"},"description":"vanaf de Jaarbeurszijde"},{"station":{"uicCode":"8400258","stationCode":"GD","name":"Gouda","coordinate":{"lat":52.0175018310547,"lng":4.70444440841675},"countryCode":"NL"},"description":"vanaf de Bloemendaalzijde"},{"station":{"uicCode":"8400507","stationCode":"RTA","name":"Rotterdam Alexander","coordinate":{"lat":51.9519462585449,"lng":4.55361127853394},"countryCode":"NL"},"description":"vanaf de Prins Alexanderlaan"}],"label":"Er rijden snelbussen van Utrecht Centraal, Gouda, Rotterdam Alexander naar Rotterdam Centraal.","shortLabel":"er rijden snelbussen Utrecht C. -> Gouda -> Alexander -> Rotterdam C."}},{"start":"2023-09-16T04:00:00+0200","end":"2023-09-18T02:00:00+0200","alternativeTransport":{"location":[{"station":{"uicCode":"8400053","stationCode":"APN","name":"Alphen a/d Rijn","coordinate":{"lat":52.1244430541992,"lng":4.65777778625488},"countryCode":"NL"},"description":"vanaf het busstation, centrumzijde"},{"station":{"uicCode":"8400125","stationCode":"BSK","name":"Boskoop","coordinate":{"lat":52.0777778625488,"lng":4.64694452285767},"countryCode":"NL"},"description":"vanaf de NS Bushalte"},{"station":{"uicCode":"8400126","stationCode":"BSKS","name":"Boskoop Snijdelwijk","coordinate":{"lat":52.067658,"lng":4.646186},"countryCode":"NL"},"description":"vanaf de NS Bushalte"},{"station":{"uicCode":"8400674","stationCode":"WADN","name":"Waddinxveen Noord","coordinate":{"lat":52.0550003051758,"lng":4.64833354949951},"countryCode":"NL"},"description":"vanaf het Stationsplein"},{"station":{"uicCode":"8400675","stationCode":"WAD","name":"Waddinxveen","coordinate":{"lat":52.0441665649414,"lng":4.6497220993042},"countryCode":"NL"},"description":"vanaf de NS Bushalte"},{"station":{"uicCode":"8400677","stationCode":"WADT","name":"Waddinxveen Triangel","coordinate":{"lat":52.02725,"lng":4.6491},"countryCode":"NL"},"description":"vanaf de Coenecoop"},{"station":{"uicCode":"8400258","stationCode":"GD","name":"Gouda","coordinate":{"lat":52.0175018310547,"lng":4.70444440841675},"countryCode":"NL"},"description":"vanaf de Bloemendaalzijde"}],"label":"Er rijden stopbussen tussen Alphen a/d Rijn, Boskoop, Boskoop Snijdelwijk, Waddinxveen Noord, Waddinxveen, Waddinxveen Triangel en Gouda.","shortLabel":"er rijden stopbussen Alphen a/d Rijn - Boskoop - Snijdelwijk - Waddinxveen N. - Waddinxveen - Triangel - Gouda"}},{"start":"2023-09-16T04:00:00+0200","end":"2023-09-18T02:00:00+0200","alternativeTransport":{"location":[{"station":{"uicCode":"8400702","stationCode":"WD","name":"Woerden","coordinate":{"lat":52.0849990844727,"lng":4.89361095428467},"countryCode":"NL"},"description":"vanaf het Stationsplein Zuid"},{"station":{"uicCode":"8400258","stationCode":"GD","name":"Gouda","coordinate":{"lat":52.0175018310547,"lng":4.70444440841675},"countryCode":"NL"},"description":"vanaf de Bloemendaalzijde"},{"station":{"uicCode":"8400135","stationCode":"LLZM","name":"Lansingerland-Zoetermeer","coordinate":{"lat":52.042222,"lng":4.517222},"countryCode":"NL"},"description":"vanaf het busstation"},{"station":{"uicCode":"8400740","stationCode":"ZTMO","name":"Zoetermeer Oost","coordinate":{"lat":52.0463905334473,"lng":4.49277782440186},"countryCode":"NL"},"description":"vanaf het busstation"},{"station":{"uicCode":"8400741","stationCode":"ZTM","name":"Zoetermeer","coordinate":{"lat":52.0475006103516,"lng":4.47722244262695},"countryCode":"NL"},"description":"vanaf de Mahatma Gandhisingel"},{"station":{"uicCode":"8400379","stationCode":"YPB","name":"Den Haag Ypenburg","coordinate":{"lat":52.0552787780762,"lng":4.39222240447998},"countryCode":"NL"},"description":"vanaf de voorzijde van het station"}],"label":"Er rijden stopbussen tussen Woerden, Gouda, Lansingerland-Zoetermeer, Zoetermeer Oost, Zoetermeer en Den Haag Ypenburg.","shortLabel":"er rijden stopbussen Woerden - Gouda - Lansingerland - Zoetermeer Oost - Zoetermeer - Ypenburg"}},{"start":"2023-09-16T04:00:00+0200","end":"2023-09-18T02:00:00+0200","alternativeTransport":{"location":[{"station":{"uicCode":"8400257","stationCode":"GDG","name":"Gouda Goverwelle","coordinate":{"lat":52.0149993896484,"lng":4.7408332824707},"countryCode":"NL"},"description":"vanaf het Stationsplein"},{"station":{"uicCode":"8400258","stationCode":"GD","name":"Gouda","coordinate":{"lat":52.0175018310547,"lng":4.70444440841675},"countryCode":"NL"},"description":"vanaf de Bloemendaalzijde"}],"label":"Er rijden taxibusjes tussen Gouda Goverwelle en Gouda.","shortLabel":"er rijden taxibusjes Goverwelle - Gouda"}},{"start":"2023-09-16T04:00:00+0200","end":"2023-09-18T02:00:00+0200","alternativeTransport":{"location":[{"station":{"uicCode":"8400455","stationCode":"NWK","name":"Nieuwerkerk a/d IJssel","coordinate":{"lat":51.9652786254883,"lng":4.61694431304932},"countryCode":"NL"},"description":"vanaf de Kerklaan"},{"station":{"uicCode":"8400258","stationCode":"GD","name":"Gouda","coordinate":{"lat":52.0175018310547,"lng":4.70444440841675},"countryCode":"NL"},"description":"vanaf de Bloemendaalzijde"}],"label":"Er rijden stopbussen tussen Nieuwerkerk a/d IJssel en Gouda.","shortLabel":"er rijden stopbussen Nieuwerkerk - Gouda"}},{"start":"2023-09-16T05:30:00+0200","end":"2023-09-16T10:00:00+0200","alternativeTransport":{"location":[{"station":{"uicCode":"8400530","stationCode":"RTD","name":"Rotterdam Centraal","coordinate":{"lat":51.9249992370605,"lng":4.46888875961304},"countryCode":"NL"},"description":"vanaf de Conradstraat aan de centrumzijde"},{"station":{"uicCode":"8400531","stationCode":"RTN","name":"Rotterdam Noord","coordinate":{"lat":51.9422225952148,"lng":4.48166656494141},"countryCode":"NL"},"description":"vanaf de Bergweg onder het viaduct"},{"station":{"uicCode":"8400507","stationCode":"RTA","name":"Rotterdam Alexander","coordinate":{"lat":51.9519462585449,"lng":4.55361127853394},"countryCode":"NL"},"description":"vanaf de Prins Alexanderlaan"},{"station":{"uicCode":"8400147","stationCode":"CPS","name":"Capelle Schollevaar","coordinate":{"lat":51.9541664123535,"lng":4.58416652679443},"countryCode":"NL"},"description":"vanaf het Stationsplein"},{"station":{"uicCode":"8400455","stationCode":"NWK","name":"Nieuwerkerk a/d IJssel","coordinate":{"lat":51.9652786254883,"lng":4.61694431304932},"countryCode":"NL"},"description":"vanaf de Kerklaan"},{"station":{"uicCode":"8400258","stationCode":"GD","name":"Gouda","coordinate":{"lat":52.0175018310547,"lng":4.70444440841675},"countryCode":"NL"},"description":"vanaf de Bloemendaalzijde"}],"label":"Er rijden stopbussen tussen Rotterdam Centraal, Rotterdam Noord, Rotterdam Alexander, Capelle Schollevaar, Nieuwerkerk a/d IJssel en Gouda.","shortLabel":"er rijden stopbussen Rotterdam C. - Rotterdam Noord - Alexander - Schollevaar - Nieuwerkerk - Gouda"}},{"start":"2023-09-17T00:30:00+0200","end":"2023-09-17T02:00:00+0200","alternativeTransport":{"location":[{"station":{"uicCode":"8400530","stationCode":"RTD","name":"Rotterdam Centraal","coordinate":{"lat":51.9249992370605,"lng":4.46888875961304},"countryCode":"NL"},"description":"vanaf de Conradstraat aan de centrumzijde"},{"station":{"uicCode":"8400507","stationCode":"RTA","name":"Rotterdam Alexander","coordinate":{"lat":51.9519462585449,"lng":4.55361127853394},"countryCode":"NL"},"description":"vanaf de Prins Alexanderlaan"},{"station":{"uicCode":"8400258","stationCode":"GD","name":"Gouda","coordinate":{"lat":52.0175018310547,"lng":4.70444440841675},"countryCode":"NL"},"description":"vanaf de Bloemendaalzijde"}],"label":"Er rijden snelbussen van Rotterdam Centraal, Rotterdam Alexander, Gouda naar Utrecht Centraal.","shortLabel":"er rijden snelbussen Rotterdam C. -> Alexander -> Gouda -> Utrecht C."}},{"start":"2023-09-17T00:30:00+0200","end":"2023-09-17T02:30:00+0200","alternativeTransport":{"location":[{"station":{"uicCode":"8400530","stationCode":"RTD","name":"Rotterdam Centraal","coordinate":{"lat":51.9249992370605,"lng":4.46888875961304},"countryCode":"NL"},"description":"vanaf de Conradstraat aan de centrumzijde"},{"station":{"uicCode":"8400507","stationCode":"RTA","name":"Rotterdam Alexander","coordinate":{"lat":51.9519462585449,"lng":4.55361127853394},"countryCode":"NL"},"description":"vanaf de Prins Alexanderlaan"},{"station":{"uicCode":"8400258","stationCode":"GD","name":"Gouda","coordinate":{"lat":52.0175018310547,"lng":4.70444440841675},"countryCode":"NL"},"description":"vanaf de Bloemendaalzijde"},{"station":{"uicCode":"8400702","stationCode":"WD","name":"Woerden","coordinate":{"lat":52.0849990844727,"lng":4.89361095428467},"countryCode":"NL"},"description":"vanaf het Stationsplein Zuid"}],"label":"Er rijden snelbussen tussen Rotterdam Centraal, Rotterdam Alexander, Gouda en Woerden.","shortLabel":"er rijden snelbussen Rotterdam C. - Alexander - Gouda - Woerden"}},{"start":"2023-09-18T00:30:00+0200","end":"2023-09-18T01:30:00+0200","alternativeTransport":{"location":[{"station":{"uicCode":"8400530","stationCode":"RTD","name":"Rotterdam Centraal","coordinate":{"lat":51.9249992370605,"lng":4.46888875961304},"countryCode":"NL"},"description":"vanaf de Conradstraat aan de centrumzijde"},{"station":{"uicCode":"8400531","stationCode":"RTN","name":"Rotterdam Noord","coordinate":{"lat":51.9422225952148,"lng":4.48166656494141},"countryCode":"NL"},"description":"vanaf de Bergweg onder het viaduct"},{"station":{"uicCode":"8400507","stationCode":"RTA","name":"Rotterdam Alexander","coordinate":{"lat":51.9519462585449,"lng":4.55361127853394},"countryCode":"NL"},"description":"vanaf de Prins Alexanderlaan"},{"station":{"uicCode":"8400147","stationCode":"CPS","name":"Capelle Schollevaar","coordinate":{"lat":51.9541664123535,"lng":4.58416652679443},"countryCode":"NL"},"description":"vanaf het Stationsplein"},{"station":{"uicCode":"8400455","stationCode":"NWK","name":"Nieuwerkerk a/d IJssel","coordinate":{"lat":51.9652786254883,"lng":4.61694431304932},"countryCode":"NL"},"description":"vanaf de Kerklaan"}],"label":"Er rijden stopbussen van Rotterdam Centraal, Rotterdam Noord, Rotterdam Alexander, Capelle Schollevaar, Nieuwerkerk a/d IJssel naar Gouda.","shortLabel":"er rijden stopbussen Rotterdam C. -> Rotterdam Noord -> Alexander -> Schollevaar -> Nieuwerkerk -> Gouda"}},{"start":"2023-09-18T00:50:00+0200","end":"2023-09-18T02:30:00+0200","alternativeTransport":{"location":[{"station":{"uicCode":"8400702","stationCode":"WD","name":"Woerden","coordinate":{"lat":52.0849990844727,"lng":4.89361095428467},"countryCode":"NL"},"description":"vanaf het Stationsplein Zuid"},{"station":{"uicCode":"8400258","stationCode":"GD","name":"Gouda","coordinate":{"lat":52.0175018310547,"lng":4.70444440841675},"countryCode":"NL"},"description":"vanaf de Bloemendaalzijde"},{"station":{"uicCode":"8400507","stationCode":"RTA","name":"Rotterdam Alexander","coordinate":{"lat":51.9519462585449,"lng":4.55361127853394},"countryCode":"NL"},"description":"vanaf de Prins Alexanderlaan"}],"label":"Er rijden snelbussen van Woerden, Gouda, Rotterdam Alexander naar Rotterdam Centraal.","shortLabel":"er rijden snelbussen Woerden -> Gouda -> Alexander -> Rotterdam C."}}]},{"id":"7003808","type":"MAINTENANCE","registrationTime":"2023-08-10T11:39:52+0200","releaseTime":"2023-08-10T11:39:52+0200","local":false,"title":"Roosendaal - Antwerpen - Puurs.","titleSections":[[{"type":"STATION","value":"Roosendaal"},{"type":"ICON","value":"MAINTENANCE"},{"type":"STATION","value":"Antwerpen-C."},{"type":"STATION","value":"Puurs"}]],"isActive":false,"start":"2023-09-16T04:00:00+0200","end":"2023-09-18T02:00:00+0200","period":"Zaterdag 16-09-2023 04:00 uur t/m maandag 18-09-2023 02:00 uur.","impact":{"value":2},"summaryAdditionalTravelTime":{"label":"De extra reistijd kan oplopen tot 30 minuten.","shortLabel":"Extra reistijd tot 30 min.","maximumDurationInMinutes":30},"publicationSections":[{"section":{"stations":[{"uicCode":"8400526","stationCode":"RSD","name":"Roosendaal","coordinate":{"lat":51.5402793884277,"lng":4.45833349227905},"countryCode":"NL"},{"uicCode":"8821402","stationCode":"ESN","name":"Essen","coordinate":{"lat":51.46261,"lng":4.45129},"countryCode":"B"},{"uicCode":"8821436","stationCode":"GWD","name":"Wildert","coordinate":{"lat":51.4277061,"lng":4.4633962},"countryCode":"B"},{"uicCode":"8821444","stationCode":"FKTH","name":"Kalmthout","coordinate":{"lat":51.3909989,"lng":4.4668202},"countryCode":"B"},{"uicCode":"8821451","stationCode":"GKT","name":"Kijkuit","coordinate":{"lat":51.37867,"lng":4.46722},"countryCode":"B"},{"uicCode":"8821519","stationCode":"MID","name":"Heide (B)","coordinate":{"lat":51.364828,"lng":4.4604308},"countryCode":"B"},{"uicCode":"8821535","stationCode":"LKP","name":"Kapellen","coordinate":{"lat":51.31362,"lng":4.43262},"countryCode":"B"},{"uicCode":"8821006","stationCode":"ATW","name":"Antwerpen-Centraal","coordinate":{"lat":51.21686,"lng":4.421242},"countryCode":"B"},{"uicCode":"8822715","stationCode":"FRP","name":"Puurs","coordinate":{"lat":51.07716,"lng":4.28273},"countryCode":"B"}],"direction":"BOTH"},"consequence":{"section":{"stations":[{"uicCode":"8400526","stationCode":"RSD","name":"Roosendaal","coordinate":{"lat":51.5402793884277,"lng":4.45833349227905},"countryCode":"NL"},{"uicCode":"8821402","stationCode":"ESN","name":"Essen","coordinate":{"lat":51.46261,"lng":4.45129},"countryCode":"B"},{"uicCode":"8821436","stationCode":"GWD","name":"Wildert","coordinate":{"lat":51.4277061,"lng":4.4633962},"countryCode":"B"},{"uicCode":"8821444","stationCode":"FKTH","name":"Kalmthout","coordinate":{"lat":51.3909989,"lng":4.4668202},"countryCode":"B"},{"uicCode":"8821451","stationCode":"GKT","name":"Kijkuit","coordinate":{"lat":51.37867,"lng":4.46722},"countryCode":"B"},{"uicCode":"8821519","stationCode":"MID","name":"Heide (B)","coordinate":{"lat":51.364828,"lng":4.4604308},"countryCode":"B"},{"uicCode":"8821535","stationCode":"LKP","name":"Kapellen","coordinate":{"lat":51.31362,"lng":4.43262},"countryCode":"B"},{"uicCode":"8821006","stationCode":"ATW","name":"Antwerpen-Centraal","coordinate":{"lat":51.21686,"lng":4.421242},"countryCode":"B"}],"direction":"ONE_WAY"},"description":"rijden bussen","level":"LESS_TRAINS"},"sectionType":"NEIGHBORING_COUNTRY"}],"timespans":[{"start":"2023-09-16T04:00:00+0200","end":"2023-09-18T02:00:00+0200","period":"Zaterdag 16-09-2023 04:00 uur t/m maandag 18-09-2023 02:00 uur.","situation":{"label":"Door werkzaamheden: tussen Roosendaal en Antwerpen-Centraal rijden er bussen."},"cause":{"label":"werkzaamheden"},"additionalTravelTime":{"label":"De extra reistijd kan oplopen tot 30 minuten.","shortLabel":"Extra reistijd tot 30 min.","maximumDurationInMinutes":30},"alternativeTransport":{"label":"er rijden stopbussen","shortLabel":"er rijden stopbussen"},"advices":[]}],"alternativeTransportTimespans":[{"start":"2023-09-16T04:00:00+0200","end":"2023-09-18T02:00:00+0200","alternativeTransport":{"location":[{"station":{"uicCode":"8400526","stationCode":"RSD","name":"Roosendaal","coordinate":{"lat":51.5402793884277,"lng":4.45833349227905},"countryCode":"NL"},"description":"vanaf de voorzijde van het station"}],"label":"Er rijden stopbussen tussen Roosendaal, Essen en Antwerpen-Centraal.","shortLabel":"Er rijden stopbussen Roosendaal - Essen - Antwerpen-C."}}]},{"id":"7003807","type":"MAINTENANCE","registrationTime":"2023-08-29T18:04:06+0200","releaseTime":"2023-08-29T18:04:06+0200","local":false,"title":"Amsterdam - Rotterdam - Brussel (HSL).","titleSections":[[{"type":"STATION","value":"Amsterdam C."},{"type":"STATION","value":"Breda"},{"type":"ICON","value":"MAINTENANCE"},{"type":"STATION","value":"Brussel-Z. Midi"}]],"isActive":false,"start":"2023-09-16T04:00:00+0200","end":"2023-09-18T02:00:00+0200","period":"Zaterdag 16-09-2023 04:00 uur t/m maandag 18-09-2023 02:00 uur.","impact":{"value":2},"summaryAdditionalTravelTime":{"label":"U heeft geen langere reistijd.","shortLabel":"Geen extra reistijd"},"publicationSections":[{"section":{"stations":[{"uicCode":"8400058","stationCode":"ASD","name":"Amsterdam Centraal","coordinate":{"lat":52.3788871765137,"lng":4.90027761459351},"countryCode":"NL"},{"uicCode":"8400059","stationCode":"ASS","name":"Amsterdam Sloterdijk","coordinate":{"lat":52.3888893127441,"lng":4.83777761459351},"countryCode":"NL"},{"uicCode":"8400079","stationCode":"ASDL","name":"Amsterdam Lelylaan","coordinate":{"lat":52.3577766418457,"lng":4.83388900756836},"countryCode":"NL"},{"uicCode":"8400561","stationCode":"SHL","name":"Schiphol Airport","coordinate":{"lat":52.3094444274902,"lng":4.76194429397583},"countryCode":"NL"},{"uicCode":"8400332","stationCode":"HFD","name":"Hoofddorp","coordinate":{"lat":52.2933349609375,"lng":4.70055532455444},"countryCode":"NL"},{"uicCode":"8400530","stationCode":"RTD","name":"Rotterdam Centraal","coordinate":{"lat":51.9249992370605,"lng":4.46888875961304},"countryCode":"NL"},{"uicCode":"8400529","stationCode":"RTB","name":"Rotterdam Blaak","coordinate":{"lat":51.9202766418457,"lng":4.48888874053955},"countryCode":"NL"},{"uicCode":"8400533","stationCode":"RTZ","name":"Rotterdam Zuid","coordinate":{"lat":51.9044456481934,"lng":4.51027774810791},"countryCode":"NL"},{"uicCode":"8400542","stationCode":"RLB","name":"Rotterdam Lombardijen","coordinate":{"lat":51.8800010681152,"lng":4.53138875961304},"countryCode":"NL"},{"uicCode":"8400132","stationCode":"BDPB","name":"Breda-Prinsenbeek","coordinate":{"lat":51.606388092041,"lng":4.72083330154419},"countryCode":"NL"},{"uicCode":"8400131","stationCode":"BD","name":"Breda","coordinate":{"lat":51.5955543518066,"lng":4.78000020980835},"countryCode":"NL"},{"uicCode":"8821105","stationCode":"NDKP","name":"Noorderkempen","coordinate":{"lat":51.358088,"lng":4.633977},"countryCode":"B"},{"uicCode":"8821063","stationCode":"ATWLB","name":"Antwerpen-Luchtbal","coordinate":{"lat":51.2449375,"lng":4.4251543},"countryCode":"B"},{"uicCode":"8821006","stationCode":"ATW","name":"Antwerpen-Centraal","coordinate":{"lat":51.21686,"lng":4.421242},"countryCode":"B"},{"uicCode":"8821121","stationCode":"BERCH","name":"Antwerpen-Berchem","coordinate":{"lat":51.198914,"lng":4.4332},"countryCode":"B"},{"uicCode":"8822004","stationCode":"MECH","name":"Mechelen","coordinate":{"lat":51.01758,"lng":4.48313},"countryCode":"B"},{"uicCode":"8812005","stationCode":"BRUSN","name":"Brussel-Noord","coordinate":{"lat":50.859658,"lng":4.360854},"countryCode":"B"},{"uicCode":"8813003","stationCode":"BRUSC","name":"Brussel-Centraal","coordinate":{"lat":50.845175,"lng":4.357131},"countryCode":"B"},{"uicCode":"8814001","stationCode":"BRUSZ","name":"Brussel-Zuid Midi","coordinate":{"lat":50.836782,"lng":4.336922},"countryCode":"B"}],"direction":"BOTH"},"consequence":{"section":{"stations":[{"uicCode":"8400131","stationCode":"BD","name":"Breda","coordinate":{"lat":51.5955543518066,"lng":4.78000020980835},"countryCode":"NL"},{"uicCode":"8821105","stationCode":"NDKP","name":"Noorderkempen","coordinate":{"lat":51.358088,"lng":4.633977},"countryCode":"B"},{"uicCode":"8821063","stationCode":"ATWLB","name":"Antwerpen-Luchtbal","coordinate":{"lat":51.2449375,"lng":4.4251543},"countryCode":"B"},{"uicCode":"8821006","stationCode":"ATW","name":"Antwerpen-Centraal","coordinate":{"lat":51.21686,"lng":4.421242},"countryCode":"B"},{"uicCode":"8821121","stationCode":"BERCH","name":"Antwerpen-Berchem","coordinate":{"lat":51.198914,"lng":4.4332},"countryCode":"B"},{"uicCode":"8822004","stationCode":"MECH","name":"Mechelen","coordinate":{"lat":51.01758,"lng":4.48313},"countryCode":"B"},{"uicCode":"8812005","stationCode":"BRUSN","name":"Brussel-Noord","coordinate":{"lat":50.859658,"lng":4.360854},"countryCode":"B"},{"uicCode":"8813003","stationCode":"BRUSC","name":"Brussel-Centraal","coordinate":{"lat":50.845175,"lng":4.357131},"countryCode":"B"},{"uicCode":"8814001","stationCode":"BRUSZ","name":"Brussel-Zuid Midi","coordinate":{"lat":50.836782,"lng":4.336922},"countryCode":"B"}],"direction":"ONE_WAY"},"description":"dienstregeling aangepast","level":"LESS_TRAINS"},"sectionType":"HSL"}],"timespans":[{"start":"2023-09-16T04:00:00+0200","end":"2023-09-18T02:00:00+0200","period":"Zaterdag 16-09-2023 04:00 uur t/m maandag 18-09-2023 02:00 uur.","situation":{"label":"Door werkzaamheden: tussen Breda en Brussel-Zuid Midi is de dienstregeling aangepast."},"cause":{"label":"werkzaamheden"},"additionalTravelTime":{"label":"U heeft geen langere reistijd.","shortLabel":"Geen extra reistijd"},"advices":["Intercity Brussel stopt niet in Antwerpen C.","tussen Breda en Antwerpen-C. reist u via Antw-Berchem"]}],"alternativeTransportTimespans":[]},{"id":"7003890","type":"MAINTENANCE","registrationTime":"2023-08-17T11:14:19+0200","releaseTime":"2023-08-17T11:14:19+0200","local":false,"title":"Amsterdam - Brussel - Paris (HSL).","titleSections":[[{"type":"STATION","value":"Amsterdam C."},{"type":"ICON","value":"MAINTENANCE"},{"type":"STATION","value":"Antwerpen-C."},{"type":"STATION","value":"Paris-Nord"}]],"isActive":false,"start":"2023-09-16T06:00:00+0200","end":"2023-09-17T23:59:00+0200","period":"Zaterdag 16-09-2023 06:00 uur t/m zondag 17-09-2023 23:59 uur.","impact":{"value":2},"summaryAdditionalTravelTime":{"label":"U heeft geen langere reistijd.","shortLabel":"Geen extra reistijd"},"publicationSections":[{"section":{"stations":[{"uicCode":"8400058","stationCode":"ASD","name":"Amsterdam Centraal","coordinate":{"lat":52.3788871765137,"lng":4.90027761459351},"countryCode":"NL"},{"uicCode":"8400059","stationCode":"ASS","name":"Amsterdam Sloterdijk","coordinate":{"lat":52.3888893127441,"lng":4.83777761459351},"countryCode":"NL"},{"uicCode":"8400079","stationCode":"ASDL","name":"Amsterdam Lelylaan","coordinate":{"lat":52.3577766418457,"lng":4.83388900756836},"countryCode":"NL"},{"uicCode":"8400561","stationCode":"SHL","name":"Schiphol Airport","coordinate":{"lat":52.3094444274902,"lng":4.76194429397583},"countryCode":"NL"},{"uicCode":"8400332","stationCode":"HFD","name":"Hoofddorp","coordinate":{"lat":52.2933349609375,"lng":4.70055532455444},"countryCode":"NL"},{"uicCode":"8400530","stationCode":"RTD","name":"Rotterdam Centraal","coordinate":{"lat":51.9249992370605,"lng":4.46888875961304},"countryCode":"NL"},{"uicCode":"8400529","stationCode":"RTB","name":"Rotterdam Blaak","coordinate":{"lat":51.9202766418457,"lng":4.48888874053955},"countryCode":"NL"},{"uicCode":"8400533","stationCode":"RTZ","name":"Rotterdam Zuid","coordinate":{"lat":51.9044456481934,"lng":4.51027774810791},"countryCode":"NL"},{"uicCode":"8400542","stationCode":"RLB","name":"Rotterdam Lombardijen","coordinate":{"lat":51.8800010681152,"lng":4.53138875961304},"countryCode":"NL"},{"uicCode":"8821105","stationCode":"NDKP","name":"Noorderkempen","coordinate":{"lat":51.358088,"lng":4.633977},"countryCode":"B"},{"uicCode":"8821063","stationCode":"ATWLB","name":"Antwerpen-Luchtbal","coordinate":{"lat":51.2449375,"lng":4.4251543},"countryCode":"B"},{"uicCode":"8821006","stationCode":"ATW","name":"Antwerpen-Centraal","coordinate":{"lat":51.21686,"lng":4.421242},"countryCode":"B"},{"uicCode":"8821121","stationCode":"BERCH","name":"Antwerpen-Berchem","coordinate":{"lat":51.198914,"lng":4.4332},"countryCode":"B"},{"uicCode":"8822004","stationCode":"MECH","name":"Mechelen","coordinate":{"lat":51.01758,"lng":4.48313},"countryCode":"B"},{"uicCode":"8812005","stationCode":"BRUSN","name":"Brussel-Noord","coordinate":{"lat":50.859658,"lng":4.360854},"countryCode":"B"},{"uicCode":"8813003","stationCode":"BRUSC","name":"Brussel-Centraal","coordinate":{"lat":50.845175,"lng":4.357131},"countryCode":"B"},{"uicCode":"8814001","stationCode":"BRUSZ","name":"Brussel-Zuid Midi","coordinate":{"lat":50.836782,"lng":4.336922},"countryCode":"B"},{"uicCode":"8727100","stationCode":"PARIS","name":"Paris-Nord","coordinate":{"lat":48.87977,"lng":2.35575},"countryCode":"F"}],"direction":"BOTH"},"consequence":{"section":{"stations":[{"uicCode":"8400058","stationCode":"ASD","name":"Amsterdam Centraal","coordinate":{"lat":52.3788871765137,"lng":4.90027761459351},"countryCode":"NL"},{"uicCode":"8400059","stationCode":"ASS","name":"Amsterdam Sloterdijk","coordinate":{"lat":52.3888893127441,"lng":4.83777761459351},"countryCode":"NL"},{"uicCode":"8400079","stationCode":"ASDL","name":"Amsterdam Lelylaan","coordinate":{"lat":52.3577766418457,"lng":4.83388900756836},"countryCode":"NL"},{"uicCode":"8400561","stationCode":"SHL","name":"Schiphol Airport","coordinate":{"lat":52.3094444274902,"lng":4.76194429397583},"countryCode":"NL"},{"uicCode":"8400332","stationCode":"HFD","name":"Hoofddorp","coordinate":{"lat":52.2933349609375,"lng":4.70055532455444},"countryCode":"NL"},{"uicCode":"8400530","stationCode":"RTD","name":"Rotterdam Centraal","coordinate":{"lat":51.9249992370605,"lng":4.46888875961304},"countryCode":"NL"},{"uicCode":"8400529","stationCode":"RTB","name":"Rotterdam Blaak","coordinate":{"lat":51.9202766418457,"lng":4.48888874053955},"countryCode":"NL"},{"uicCode":"8400533","stationCode":"RTZ","name":"Rotterdam Zuid","coordinate":{"lat":51.9044456481934,"lng":4.51027774810791},"countryCode":"NL"},{"uicCode":"8400542","stationCode":"RLB","name":"Rotterdam Lombardijen","coordinate":{"lat":51.8800010681152,"lng":4.53138875961304},"countryCode":"NL"},{"uicCode":"8821105","stationCode":"NDKP","name":"Noorderkempen","coordinate":{"lat":51.358088,"lng":4.633977},"countryCode":"B"},{"uicCode":"8821063","stationCode":"ATWLB","name":"Antwerpen-Luchtbal","coordinate":{"lat":51.2449375,"lng":4.4251543},"countryCode":"B"},{"uicCode":"8821006","stationCode":"ATW","name":"Antwerpen-Centraal","coordinate":{"lat":51.21686,"lng":4.421242},"countryCode":"B"}],"direction":"ONE_WAY"},"description":"aangepaste internationale dienstregeling","level":"LESS_TRAINS"},"sectionType":"HSL"}],"timespans":[{"start":"2023-09-16T06:00:00+0200","end":"2023-09-17T23:59:00+0200","period":"Zaterdag 16-09-2023 06:00 uur t/m zondag 17-09-2023 23:59 uur.","situation":{"label":"Door werkzaamheden: tussen Amsterdam Centraal en Antwerpen-Centraal is de internationale dienstregeling aangepast."},"cause":{"label":"werkzaamheden"},"additionalTravelTime":{"label":"U heeft geen langere reistijd.","shortLabel":"Geen extra reistijd"},"advices":["Thalys stopt niet in Antwerpen-Centraal"]}],"alternativeTransportTimespans":[]},{"id":"7003878","type":"MAINTENANCE","registrationTime":"2023-08-09T14:15:37+0200","releaseTime":"2023-08-09T14:15:37+0200","local":false,"title":"Utrecht - Spoorwegmuseum.","titleSections":[[{"type":"STATION","value":"Utrecht C."},{"type":"ICON","value":"MAINTENANCE"},{"type":"STATION","value":"Maliebaan"}]],"isActive":false,"start":"2023-09-16T09:00:00+0200","end":"2023-09-17T17:00:00+0200","period":"Zaterdag 16-09-2023 09:00 uur t/m zondag 17-09-2023 17:00 uur.","impact":{"value":2},"summaryAdditionalTravelTime":{"label":"U heeft geen langere reistijd.","shortLabel":"Geen extra reistijd"},"publicationSections":[{"section":{"stations":[{"uicCode":"8400621","stationCode":"UT","name":"Utrecht Centraal","coordinate":{"lat":52.0888900756836,"lng":5.11027765274048},"countryCode":"NL"},{"uicCode":"8400620","stationCode":"UTO","name":"Utrecht Overvecht","coordinate":{"lat":52.1100006103516,"lng":5.12472200393677},"countryCode":"NL"},{"uicCode":"8400114","stationCode":"BHV","name":"Bilthoven","coordinate":{"lat":52.1300010681152,"lng":5.20388889312744},"countryCode":"NL"},{"uicCode":"8400624","stationCode":"UTM","name":"Utrecht Maliebaan","coordinate":{"lat":52.087776184082,"lng":5.13138866424561},"countryCode":"NL"}],"direction":"BOTH"},"consequence":{"section":{"stations":[{"uicCode":"8400621","stationCode":"UT","name":"Utrecht Centraal","coordinate":{"lat":52.0888900756836,"lng":5.11027765274048},"countryCode":"NL"},{"uicCode":"8400620","stationCode":"UTO","name":"Utrecht Overvecht","coordinate":{"lat":52.1100006103516,"lng":5.12472200393677},"countryCode":"NL"},{"uicCode":"8400114","stationCode":"BHV","name":"Bilthoven","coordinate":{"lat":52.1300010681152,"lng":5.20388889312744},"countryCode":"NL"},{"uicCode":"8400624","stationCode":"UTM","name":"Utrecht Maliebaan","coordinate":{"lat":52.087776184082,"lng":5.13138866424561},"countryCode":"NL"}],"direction":"ONE_WAY"},"description":"dienstregeling aangepast","level":"LESS_TRAINS"},"sectionType":"NL"}],"timespans":[{"start":"2023-09-16T09:00:00+0200","end":"2023-09-17T17:00:00+0200","period":"Zaterdag 16-09-2023 09:00 uur t/m zondag 17-09-2023 17:00 uur.","situation":{"label":"Door werkzaamheden: tussen Utrecht Centraal en Utrecht Maliebaan is de dienstregeling aangepast."},"cause":{"label":"werkzaamheden"},"additionalTravelTime":{"label":"U heeft geen langere reistijd.","shortLabel":"Geen extra reistijd"},"advices":["De Sprinter naar het Spoorwegmuseum rijdt tussen Amersfoort Centraal en Utrecht Maliebaan."]}],"alternativeTransportTimespans":[]},{"id":"7003962","type":"MAINTENANCE","registrationTime":"2023-09-05T09:14:20+0200","releaseTime":"2023-09-05T09:14:20+0200","local":false,"title":"Maastricht - Liège / Luik.","titleSections":[[{"type":"STATION","value":"Maastricht"},{"type":"ICON","value":"MAINTENANCE"},{"type":"STATION","value":"Liège-Guillemins"}]],"isActive":false,"start":"2023-09-16T22:45:00+0200","end":"2023-09-17T00:30:00+0200","period":"Zaterdag 16-09-2023 22:45 uur t/m zondag 17-09-2023 00:30 uur.","impact":{"value":2},"summaryAdditionalTravelTime":{"label":"De extra reistijd is ongeveer 30 minuten.","shortLabel":"extra reistijd 30 min.","minimumDurationInMinutes":30,"maximumDurationInMinutes":30},"publicationSections":[{"section":{"stations":[{"uicCode":"8400424","stationCode":"MT","name":"Maastricht","coordinate":{"lat":50.8502769470215,"lng":5.70555543899536},"countryCode":"NL"},{"uicCode":"8400426","stationCode":"MTR","name":"Maastricht Randwyck","coordinate":{"lat":50.8386116027832,"lng":5.71722221374512},"countryCode":"NL"},{"uicCode":"8400219","stationCode":"EDN","name":"Eijsden","coordinate":{"lat":50.7719459533691,"lng":5.71000003814697},"countryCode":"NL"},{"uicCode":"8846201","stationCode":"FVS","name":"Visé","coordinate":{"lat":50.73781,"lng":5.69232},"countryCode":"B"},{"uicCode":"8843901","stationCode":"BRESSX","name":"Bressoux","coordinate":{"lat":50.643829,"lng":5.6112542},"countryCode":"B"},{"uicCode":"8841004","stationCode":"LUIK","name":"Liège-Guillemins","coordinate":{"lat":50.62436,"lng":5.56648},"countryCode":"B"}],"direction":"BOTH"},"consequence":{"section":{"stations":[{"uicCode":"8400424","stationCode":"MT","name":"Maastricht","coordinate":{"lat":50.8502769470215,"lng":5.70555543899536},"countryCode":"NL"},{"uicCode":"8400426","stationCode":"MTR","name":"Maastricht Randwyck","coordinate":{"lat":50.8386116027832,"lng":5.71722221374512},"countryCode":"NL"},{"uicCode":"8400219","stationCode":"EDN","name":"Eijsden","coordinate":{"lat":50.7719459533691,"lng":5.71000003814697},"countryCode":"NL"},{"uicCode":"8846201","stationCode":"FVS","name":"Visé","coordinate":{"lat":50.73781,"lng":5.69232},"countryCode":"B"},{"uicCode":"8843901","stationCode":"BRESSX","name":"Bressoux","coordinate":{"lat":50.643829,"lng":5.6112542},"countryCode":"B"},{"uicCode":"8841004","stationCode":"LUIK","name":"Liège-Guillemins","coordinate":{"lat":50.62436,"lng":5.56648},"countryCode":"B"}],"direction":"ONE_WAY"},"description":"rijden bussen","level":"LESS_TRAINS"},"sectionType":"NEIGHBORING_COUNTRY"}],"timespans":[{"start":"2023-09-16T22:45:00+0200","end":"2023-09-17T00:30:00+0200","period":"Zaterdag 16-09-2023 22:45 uur t/m zondag 17-09-2023 00:30 uur.","situation":{"label":"Door werkzaamheden: tussen Maastricht en Liège-Guillemins rijden er bussen."},"cause":{"label":"werkzaamheden"},"additionalTravelTime":{"label":"De extra reistijd is ongeveer 30 minuten.","shortLabel":"extra reistijd 30 min.","minimumDurationInMinutes":30,"maximumDurationInMinutes":30},"alternativeTransport":{"label":"er rijden stopbussen","shortLabel":"er rijden stopbussen"},"advices":[]}],"alternativeTransportTimespans":[{"start":"2023-09-16T22:45:00+0200","end":"2023-09-17T00:30:00+0200","alternativeTransport":{"location":[{"station":{"uicCode":"8400219","stationCode":"EDN","name":"Eijsden","coordinate":{"lat":50.7719459533691,"lng":5.71000003814697},"countryCode":"NL"},"description":"vanaf de voorzijde van het station"},{"station":{"uicCode":"8400426","stationCode":"MTR","name":"Maastricht Randwyck","coordinate":{"lat":50.8386116027832,"lng":5.71722221374512},"countryCode":"NL"},"description":"vanaf de OV-halte aan de Joseph Bechlaan op het viaduct"}],"label":"Er rijden stopbussen van Visé, Eijsden, Maastricht Randwyck naar Maastricht.","shortLabel":"er rijden stopbussen Visé -> Eijsden -> Randwyck -> Maastricht"}},{"start":"2023-09-16T22:45:00+0200","end":"2023-09-17T00:30:00+0200","alternativeTransport":{"location":[{"station":{"uicCode":"8400424","stationCode":"MT","name":"Maastricht","coordinate":{"lat":50.8502769470215,"lng":5.70555543899536},"countryCode":"NL"},"description":"vanaf het Stationsplein"},{"station":{"uicCode":"8400426","stationCode":"MTR","name":"Maastricht Randwyck","coordinate":{"lat":50.8386116027832,"lng":5.71722221374512},"countryCode":"NL"},"description":"vanaf de Universiteitssingel"},{"station":{"uicCode":"8400219","stationCode":"EDN","name":"Eijsden","coordinate":{"lat":50.7719459533691,"lng":5.71000003814697},"countryCode":"NL"},"description":"vanaf de voorzijde van het station"}],"label":"Er rijden stopbussen van Maastricht, Maastricht Randwyck, Eijsden, Visé, Bressoux naar Liège-Guillemins.","shortLabel":"er rijden stopbussen Maastricht -> Randwyck -> Eijsden -> Visé -> Bressoux -> Liège-Guillemins"}}]},{"id":"7003898","type":"MAINTENANCE","registrationTime":"2023-08-21T10:25:17+0200","releaseTime":"2023-08-21T10:25:17+0200","local":false,"title":"Meppel - Leeuwarden.","titleSections":[[{"type":"STATION","value":"Meppel"},{"type":"STATION","value":"Wolvega"},{"type":"ICON","value":"MAINTENANCE"},{"type":"STATION","value":"Leeuwarden"}]],"isActive":false,"start":"2023-09-17T01:15:00+0200","end":"2023-09-17T02:05:00+0200","period":"Zondag 17-09-2023 01:15 uur t/m zondag 17-09-2023 02:05 uur.","impact":{"value":3},"summaryAdditionalTravelTime":{"label":"De extra reistijd kan oplopen tot 30 minuten.","shortLabel":"Extra reistijd tot 30 min.","maximumDurationInMinutes":30},"publicationSections":[{"section":{"stations":[{"uicCode":"8400435","stationCode":"MP","name":"Meppel","coordinate":{"lat":52.6908340454102,"lng":6.19750022888184},"countryCode":"NL"},{"uicCode":"8400578","stationCode":"SWK","name":"Steenwijk","coordinate":{"lat":52.7915109924316,"lng":6.11455576324463},"countryCode":"NL"},{"uicCode":"8400705","stationCode":"WV","name":"Wolvega","coordinate":{"lat":52.8808326721191,"lng":6.00361108779907},"countryCode":"NL"},{"uicCode":"8400305","stationCode":"HR","name":"Heerenveen","coordinate":{"lat":52.9613876342773,"lng":5.91416645050049},"countryCode":"NL"},{"uicCode":"8400049","stationCode":"AKM","name":"Akkrum","coordinate":{"lat":53.0463905334473,"lng":5.84361124038696},"countryCode":"NL"},{"uicCode":"8400266","stationCode":"GW","name":"Grou-Jirnsum","coordinate":{"lat":53.0888900756836,"lng":5.82250022888184},"countryCode":"NL"},{"uicCode":"8400387","stationCode":"LW","name":"Leeuwarden","coordinate":{"lat":53.1958351135254,"lng":5.79222202301025},"countryCode":"NL"}],"direction":"ONE_WAY"},"consequence":{"section":{"stations":[{"uicCode":"8400705","stationCode":"WV","name":"Wolvega","coordinate":{"lat":52.8808326721191,"lng":6.00361108779907},"countryCode":"NL"},{"uicCode":"8400305","stationCode":"HR","name":"Heerenveen","coordinate":{"lat":52.9613876342773,"lng":5.91416645050049},"countryCode":"NL"},{"uicCode":"8400049","stationCode":"AKM","name":"Akkrum","coordinate":{"lat":53.0463905334473,"lng":5.84361124038696},"countryCode":"NL"},{"uicCode":"8400266","stationCode":"GW","name":"Grou-Jirnsum","coordinate":{"lat":53.0888900756836,"lng":5.82250022888184},"countryCode":"NL"},{"uicCode":"8400387","stationCode":"LW","name":"Leeuwarden","coordinate":{"lat":53.1958351135254,"lng":5.79222202301025},"countryCode":"NL"}],"direction":"ONE_WAY"},"description":"rijden bussen","level":"LESS_TRAINS"},"sectionType":"NL"}],"timespans":[{"start":"2023-09-17T01:15:00+0200","end":"2023-09-17T02:05:00+0200","period":"Zondag 17-09-2023 01:15 uur t/m zondag 17-09-2023 02:05 uur.","situation":{"label":"Door werkzaamheden: van Wolvega naar Leeuwarden rijden er bussen."},"cause":{"label":"werkzaamheden"},"additionalTravelTime":{"label":"De extra reistijd kan oplopen tot 30 minuten.","shortLabel":"Extra reistijd tot 30 min.","maximumDurationInMinutes":30},"alternativeTransport":{"label":"er rijden stopbussen","shortLabel":"er rijden stopbussen"},"advices":[]}],"alternativeTransportTimespans":[{"start":"2023-09-17T01:15:00+0200","end":"2023-09-17T02:05:00+0200","alternativeTransport":{"location":[{"station":{"uicCode":"8400705","stationCode":"WV","name":"Wolvega","coordinate":{"lat":52.8808326721191,"lng":6.00361108779907},"countryCode":"NL"},"description":"vanaf de voorzijde van het station"},{"station":{"uicCode":"8400305","stationCode":"HR","name":"Heerenveen","coordinate":{"lat":52.9613876342773,"lng":5.91416645050049},"countryCode":"NL"},"description":"vanaf de voorzijde van het station"},{"station":{"uicCode":"8400049","stationCode":"AKM","name":"Akkrum","coordinate":{"lat":53.0463905334473,"lng":5.84361124038696},"countryCode":"NL"},"description":"vanaf de voorzijde van het station"},{"station":{"uicCode":"8400266","stationCode":"GW","name":"Grou-Jirnsum","coordinate":{"lat":53.0888900756836,"lng":5.82250022888184},"countryCode":"NL"},"description":"vanaf de voorzijde van het station"},{"station":{"uicCode":"8400387","stationCode":"LW","name":"Leeuwarden","coordinate":{"lat":53.1958351135254,"lng":5.79222202301025},"countryCode":"NL"},"description":"vanaf de voorzijde van het station"}],"label":"Er rijden stopbussen van Wolvega, Heerenveen, Akkrum, Grou-Jirnsum naar Leeuwarden.","shortLabel":"Er rijden stopbussen Wolvega -> Heerenveen -> Akkrum -> Grou-Jirnsum -> Leeuwarden"}}]},{"id":"7003949","type":"MAINTENANCE","registrationTime":"2023-08-28T12:04:38+0200","releaseTime":"2023-08-28T12:04:38+0200","local":false,"title":"Schiphol - Leiden.","titleSections":[[{"type":"STATION","value":"Schiphol Airport"},{"type":"ICON","value":"MAINTENANCE"},{"type":"STATION","value":"Leiden C."}]],"isActive":false,"start":"2023-09-17T02:30:00+0200","end":"2023-09-17T06:30:00+0200","period":"Zondag 17-09-2023 02:30 uur t/m zondag 17-09-2023 06:30 uur.","impact":{"value":2},"summaryAdditionalTravelTime":{"label":"De extra reistijd is ongeveer 60 minuten.","shortLabel":"extra reistijd 60 min.","minimumDurationInMinutes":60,"maximumDurationInMinutes":60},"publicationSections":[{"section":{"stations":[{"uicCode":"8400561","stationCode":"SHL","name":"Schiphol Airport","coordinate":{"lat":52.3094444274902,"lng":4.76194429397583},"countryCode":"NL"},{"uicCode":"8400332","stationCode":"HFD","name":"Hoofddorp","coordinate":{"lat":52.2933349609375,"lng":4.70055532455444},"countryCode":"NL"},{"uicCode":"8400460","stationCode":"NVP","name":"Nieuw Vennep","coordinate":{"lat":52.2588882446289,"lng":4.64555549621582},"countryCode":"NL"},{"uicCode":"8400603","stationCode":"SSH","name":"Sassenheim","coordinate":{"lat":52.215278,"lng":4.517222},"countryCode":"NL"},{"uicCode":"8400390","stationCode":"LEDN","name":"Leiden Centraal","coordinate":{"lat":52.1661109924316,"lng":4.48166656494141},"countryCode":"NL"}],"direction":"ONE_WAY"},"consequence":{"section":{"stations":[{"uicCode":"8400561","stationCode":"SHL","name":"Schiphol Airport","coordinate":{"lat":52.3094444274902,"lng":4.76194429397583},"countryCode":"NL"},{"uicCode":"8400332","stationCode":"HFD","name":"Hoofddorp","coordinate":{"lat":52.2933349609375,"lng":4.70055532455444},"countryCode":"NL"},{"uicCode":"8400460","stationCode":"NVP","name":"Nieuw Vennep","coordinate":{"lat":52.2588882446289,"lng":4.64555549621582},"countryCode":"NL"},{"uicCode":"8400603","stationCode":"SSH","name":"Sassenheim","coordinate":{"lat":52.215278,"lng":4.517222},"countryCode":"NL"},{"uicCode":"8400390","stationCode":"LEDN","name":"Leiden Centraal","coordinate":{"lat":52.1661109924316,"lng":4.48166656494141},"countryCode":"NL"}],"direction":"ONE_WAY"},"description":"geen treinen","level":"LESS_TRAINS"},"sectionType":"NL"}],"timespans":[{"start":"2023-09-17T02:30:00+0200","end":"2023-09-17T06:30:00+0200","period":"Zondag 17-09-2023 02:30 uur t/m zondag 17-09-2023 06:30 uur.","situation":{"label":"Door werkzaamheden: van Leiden Centraal naar Schiphol Airport rijden er geen treinen."},"cause":{"label":"werkzaamheden"},"additionalTravelTime":{"label":"De extra reistijd is ongeveer 60 minuten.","shortLabel":"extra reistijd 60 min.","minimumDurationInMinutes":60,"maximumDurationInMinutes":60},"advices":["Er rijden geen treinen van Leiden Centraal naar Schiphol Airport, wel treinen in de andere richting.","van Leiden C. naar Schiphol Airport reist u via Amsterdam C."]}],"alternativeTransportTimespans":[]},{"id":"7003864","type":"MAINTENANCE","registrationTime":"2023-08-14T12:02:16+0200","releaseTime":"2023-08-14T12:02:16+0200","local":false,"title":"Arnhem - Winterswijk.","titleSections":[[{"type":"STATION","value":"Arnhem C."},{"type":"ICON","value":"MAINTENANCE"},{"type":"STATION","value":"Zevenaar"},{"type":"STATION","value":"Winterswijk"}]],"isActive":false,"start":"2023-09-17T06:50:00+0200","end":"2023-09-17T18:20:00+0200","period":"Zondag 17-09-2023 06:50 uur t/m zondag 17-09-2023 18:20 uur.","impact":{"value":3},"summaryAdditionalTravelTime":{"label":"De extra reistijd kan oplopen tot 30 minuten.","shortLabel":"Extra reistijd tot 30 min.","maximumDurationInMinutes":30},"publicationSections":[{"section":{"stations":[{"uicCode":"8400071","stationCode":"AH","name":"Arnhem Centraal","coordinate":{"lat":51.9850006103516,"lng":5.89916658401489},"countryCode":"NL"},{"uicCode":"8400072","stationCode":"AHP","name":"Arnhem Velperpoort","coordinate":{"lat":51.985279083252,"lng":5.91944456100464},"countryCode":"NL"},