[{"id":"6024667","type":"DISRUPTION","registrationTime":"2023-07-27T09:26:01+0200","releaseTime":"2023-07-27T09:26:01+0200","local":false,"title":"Roosendaal-Vlissingen","titleSections":[[{"type":"STATION","value":"Roosendaal"},{"type":"ICON","value":"DISRUPTION"},{"type":"STATION","value":"Vlissingen"}]],"topic":"disruption_6024667_nl","isActive":true,"start":"2023-07-27T05:29:57+0200","end":"2023-07-27T11:00:00+0200","phase":{"id":"1b","label":"Gevolgen bekend"},"impact":{"value":2},"expectedDuration":{"description":"Dit duurt tot ongeveer 11:00 uur.","endTime":"2023-07-27T11:00:00+0200"},"summaryAdditionalTravelTime":{"label":"De extra reistijd kan oplopen tot 30 minuten.","shortLabel":"Extra reistijd tot 30 min.","maximumDurationInMinutes":30},"publicationSections":[{"section":{"stations":[{"uicCode":"8400526","stationCode":"RSD","name":"Roosendaal","coordinate":{"lat":51.5402793884277,"lng":4.45833349227905},"countryCode":"NL"},{"uicCode":"8400108","stationCode":"BGN","name":"Bergen op Zoom","coordinate":{"lat":51.4938888549805,"lng":4.29611110687256},"countryCode":"NL"},{"uicCode":"8400521","stationCode":"RB","name":"Rilland-Bath","coordinate":{"lat":51.422779083252,"lng":4.16111087799072},"countryCode":"NL"},{"uicCode":"8400367","stationCode":"KBD","name":"Krabbendijke","coordinate":{"lat":51.4333343505859,"lng":4.11694431304932},"countryCode":"NL"},{"uicCode":"8400370","stationCode":"KRG","name":"Kruiningen-Yerseke","coordinate":{"lat":51.4650001525879,"lng":4.03722238540649},"countryCode":"NL"},{"uicCode":"8400354","stationCode":"BZL","name":"Kapelle-Biezelinge","coordinate":{"lat":51.4808349609375,"lng":3.95611119270325},"countryCode":"NL"},{"uicCode":"8400253","stationCode":"GS","name":"Goes","coordinate":{"lat":51.4980545043945,"lng":3.89055562019348},"countryCode":"NL"},{"uicCode":"8400069","stationCode":"ARN","name":"Arnemuiden","coordinate":{"lat":51.5016670227051,"lng":3.66916656494141},"countryCode":"NL"},{"uicCode":"8400436","stationCode":"MDB","name":"Middelburg","coordinate":{"lat":51.4947204589844,"lng":3.61722230911255},"countryCode":"NL"},{"uicCode":"8400653","stationCode":"VSS","name":"Vlissingen Souburg","coordinate":{"lat":51.4647216796875,"lng":3.59527778625488},"countryCode":"NL"},{"uicCode":"8400652","stationCode":"VS","name":"Vlissingen","coordinate":{"lat":51.4458351135254,"lng":3.59527778625488},"countryCode":"NL"}],"direction":"BOTH"},"consequence":{"section":{"stations":[{"uicCode":"8400526","stationCode":"RSD","name":"Roosendaal","coordinate":{"lat":51.5402793884277,"lng":4.45833349227905},"countryCode":"NL"},{"uicCode":"8400108","stationCode":"BGN","name":"Bergen op Zoom","coordinate":{"lat":51.4938888549805,"lng":4.29611110687256},"countryCode":"NL"},{"uicCode":"8400521","stationCode":"RB","name":"Rilland-Bath","coordinate":{"lat":51.422779083252,"lng":4.16111087799072},"countryCode":"NL"},{"uicCode":"8400367","stationCode":"KBD","name":"Krabbendijke","coordinate":{"lat":51.4333343505859,"lng":4.11694431304932},"countryCode":"NL"},{"uicCode":"8400370","stationCode":"KRG","name":"Kruiningen-Yerseke","coordinate":{"lat":51.4650001525879,"lng":4.03722238540649},"countryCode":"NL"},{"uicCode":"8400354","stationCode":"BZL","name":"Kapelle-Biezelinge","coordinate":{"lat":51.4808349609375,"lng":3.95611119270325},"countryCode":"NL"},{"uicCode":"8400253","stationCode":"GS","name":"Goes","coordinate":{"lat":51.4980545043945,"lng":3.89055562019348},"countryCode":"NL"},{"uicCode":"8400069","stationCode":"ARN","name":"Arnemuiden","coordinate":{"lat":51.5016670227051,"lng":3.66916656494141},"countryCode":"NL"},{"uicCode":"8400436","stationCode":"MDB","name":"Middelburg","coordinate":{"lat":51.4947204589844,"lng":3.61722230911255},"countryCode":"NL"},{"uicCode":"8400653","stationCode":"VSS","name":"Vlissingen Souburg","coordinate":{"lat":51.4647216796875,"lng":3.59527778625488},"countryCode":"NL"},{"uicCode":"8400652","stationCode":"VS","name":"Vlissingen","coordinate":{"lat":51.4458351135254,"lng":3.59527778625488},"countryCode":"NL"}],"direction":"ONE_WAY"},"description":"minder treinen","level":"LESS_TRAINS"},"sectionType":"NL"}],"timespans":[{"start":"2023-07-27T05:29:57+0200","end":"2023-07-27T11:00:00+0200","situation":{"label":"Tussen Roosendaal en Vlissingen rijden er minder treinen door een sein- en wisselstoring."},"cause":{"label":"Sein- en wisselstoring"},"additionalTravelTime":{"label":"De extra reistijd kan oplopen tot 30 minuten.","shortLabel":"Extra reistijd tot 30 min.","maximumDurationInMinutes":30},"advices":[]}],"alternativeTransportTimespans":[]},{"id":"6024668","type":"DISRUPTION","registrationTime":"2023-07-27T09:28:06+0200","releaseTime":"2023-07-27T09:28:06+0200","local":false,"title":"Breda-Roosendaal","titleSections":[[{"type":"STATION","value":"Breda"},{"type":"ICON","value":"DISRUPTION"},{"type":"STATION","value":"Roosendaal"}]],"topic":"disruption_6024668_nl","isActive":true,"start":"2023-07-27T07:31:24+0200","end":"2023-07-27T11:30:00+0200","phase":{"id":"3","label":"Vervangend vervoer"},"impact":{"value":3},"expectedDuration":{"description":"Dit duurt tot ongeveer 11:30 uur.","endTime":"2023-07-27T11:30:00+0200"},"publicationSections":[{"section":{"stations":[{"uicCode":"8400131","stationCode":"BD","name":"Breda","coordinate":{"lat":51.5955543518066,"lng":4.78000020980835},"countryCode":"NL"},{"uicCode":"8400218","stationCode":"ETN","name":"Etten-Leur","coordinate":{"lat":51.5750007629395,"lng":4.63583326339722},"countryCode":"NL"},{"uicCode":"8400526","stationCode":"RSD","name":"Roosendaal","coordinate":{"lat":51.5402793884277,"lng":4.45833349227905},"countryCode":"NL"}],"direction":"BOTH"},"consequence":{"section":{"stations":[{"uicCode":"8400131","stationCode":"BD","name":"Breda","coordinate":{"lat":51.5955543518066,"lng":4.78000020980835},"countryCode":"NL"},{"uicCode":"8400218","stationCode":"ETN","name":"Etten-Leur","coordinate":{"lat":51.5750007629395,"lng":4.63583326339722},"countryCode":"NL"},{"uicCode":"8400526","stationCode":"RSD","name":"Roosendaal","coordinate":{"lat":51.5402793884277,"lng":4.45833349227905},"countryCode":"NL"}],"direction":"ONE_WAY"},"description":"geen treinen","level":"LESS_TRAINS"},"sectionType":"NL"}],"timespans":[{"start":"2023-07-27T07:31:24+0200","end":"2023-07-27T11:30:00+0200","situation":{"label":"Tussen Breda en Roosendaal rijden er geen treinen door een aanrijding."},"cause":{"label":"Aanrijding"},"alternativeTransport":{"label":"Er rijden stopbussen.","shortLabel":"Er rijden stopbussen"},"advices":[]}],"alternativeTransportTimespans":[{"start":"2023-07-27T07:31:24+0200","end":"2023-07-27T11:30:00+0200","alternativeTransport":{"location":[{"station":{"uicCode":"8400131","stationCode":"BD","name":"Breda","coordinate":{"lat":51.5955543518066,"lng":4.78000020980835},"countryCode":"NL"},"description":"vanaf de Belcrumzijde"},{"station":{"uicCode":"8400218","stationCode":"ETN","name":"Etten-Leur","coordinate":{"lat":51.5750007629395,"lng":4.63583326339722},"countryCode":"NL"},"description":"vanaf de voorzijde van het station"}],"label":"Er rijden stopbussen tussen Breda en Etten-Leur.","shortLabel":"Er rijden stopbussen: Breda, Etten-Leur"}},{"start":"2023-07-27T07:31:24+0200","end":"2023-07-27T11:30:00+0200","alternativeTransport":{"location":[{"station":{"uicCode":"8400526","stationCode":"RSD","name":"Roosendaal","coordinate":{"lat":51.5402793884277,"lng":4.45833349227905},"countryCode":"NL"},"description":"vanaf de voorzijde van het station"},{"station":{"uicCode":"8400218","stationCode":"ETN","name":"Etten-Leur","coordinate":{"lat":51.5750007629395,"lng":4.63583326339722},"countryCode":"NL"},"description":"vanaf de voorzijde van het station"}],"label":"Er rijden stopbussen tussen Roosendaal en Etten-Leur.","shortLabel":"Er rijden stopbussen: Roosendaal, Etten-Leur"}}]},{"id":"6024669","type":"DISRUPTION","registrationTime":"2023-07-27T09:46:42+0200","releaseTime":"2023-07-27T09:46:42+0200","local":false,"title":"Dordrecht-Breda","titleSections":[[{"type":"STATION","value":"Dordrecht"},{"type":"STATION","value":"Lage Zwaluwe"},{"type":"ICON","value":"DISRUPTION"},{"type":"STATION","value":"Breda"}]],"topic":"disruption_6024669_nl","isActive":true,"start":"2023-07-27T09:39:14+0200","end":"2023-07-27T10:45:00+0200","phase":{"id":"1b","label":"Gevolgen bekend"},"impact":{"value":2},"expectedDuration":{"description":"Dit duurt tot ongeveer 10:45 uur.","endTime":"2023-07-27T10:45:00+0200"},"publicationSections":[{"section":{"stations":[{"uicCode":"8400180","stationCode":"DDR","name":"Dordrecht","coordinate":{"lat":51.8072204589844,"lng":4.66833353042603},"countryCode":"NL"},{"uicCode":"8400181","stationCode":"DDZD","name":"Dordrecht Zuid","coordinate":{"lat":51.7900009155273,"lng":4.67138910293579},"countryCode":"NL"},{"uicCode":"8400382","stationCode":"ZLW","name":"Lage Zwaluwe","coordinate":{"lat":51.6911125183105,"lng":4.66305541992188},"countryCode":"NL"},{"uicCode":"8400132","stationCode":"BDPB","name":"Breda-Prinsenbeek","coordinate":{"lat":51.606388092041,"lng":4.72083330154419},"countryCode":"NL"},{"uicCode":"8400131","stationCode":"BD","name":"Breda","coordinate":{"lat":51.5955543518066,"lng":4.78000020980835},"countryCode":"NL"}],"direction":"BOTH"},"consequence":{"section":{"stations":[{"uicCode":"8400382","stationCode":"ZLW","name":"Lage Zwaluwe","coordinate":{"lat":51.6911125183105,"lng":4.66305541992188},"countryCode":"NL"},{"uicCode":"8400132","stationCode":"BDPB","name":"Breda-Prinsenbeek","coordinate":{"lat":51.606388092041,"lng":4.72083330154419},"countryCode":"NL"},{"uicCode":"8400131","stationCode":"BD","name":"Breda","coordinate":{"lat":51.5955543518066,"lng":4.78000020980835},"countryCode":"NL"}],"direction":"ONE_WAY"},"description":"verstoring treindienst","level":"LESS_TRAINS"},"sectionType":"NL"}],"timespans":[{"start":"2023-07-27T09:39:14+0200","end":"2023-07-27T10:45:00+0200","situation":{"label":"Tussen Lage Zwaluwe en Breda is er een verstoring in de treindienst door een defecte trein."},"cause":{"label":"Defecte trein"},"advices":[]}],"alternativeTransportTimespans":[]},{"id":"6024670","type":"DISRUPTION","registrationTime":"2023-07-27T09:48:00+0200","releaseTime":"2023-07-27T09:48:00+0200","local":false,"title":"Halfweg-Zwanenburg-Zandvoort aan Zee","titleSections":[[{"type":"STATION","value":"Halfweg-Zw."},{"type":"STATION","value":"Spaarnwoude"},{"type":"ICON","value":"DISRUPTION"},{"type":"STATION","value":"Haarlem"},{"type":"STATION","value":"Zandvoort"}]],"topic":"disruption_6024670_nl","isActive":true,"start":"2023-07-27T09:43:11+0200","end":"2023-07-27T11:30:00+0200","phase":{"id":"1b","label":"Gevolgen bekend"},"impact":{"value":3},"expectedDuration":{"description":"Dit duurt tot ongeveer 11:30 uur.","endTime":"2023-07-27T11:30:00+0200"},"publicationSections":[{"section":{"stations":[{"uicCode":"8400400","stationCode":"HWZB","name":"Halfweg-Zwanenburg","coordinate":{"lat":52.385935,"lng":4.747165},"countryCode":"NL"},{"uicCode":"8400270","stationCode":"HLMS","name":"Haarlem Spaarnwoude","coordinate":{"lat":52.3827781677246,"lng":4.67305564880371},"countryCode":"NL"},{"uicCode":"8400285","stationCode":"HLM","name":"Haarlem","coordinate":{"lat":52.3877792358398,"lng":4.63833332061768},"countryCode":"NL"},{"uicCode":"8400501","stationCode":"OVN","name":"Overveen","coordinate":{"lat":52.3911094665527,"lng":4.6061110496521},"countryCode":"NL"},{"uicCode":"8400733","stationCode":"ZVT","name":"Zandvoort aan Zee","coordinate":{"lat":52.3752784729004,"lng":4.53277778625488},"countryCode":"NL"}],"direction":"BOTH"},"consequence":{"section":{"stations":[{"uicCode":"8400270","stationCode":"HLMS","name":"Haarlem Spaarnwoude","coordinate":{"lat":52.3827781677246,"lng":4.67305564880371},"countryCode":"NL"},{"uicCode":"8400285","stationCode":"HLM","name":"Haarlem","coordinate":{"lat":52.3877792358398,"lng":4.63833332061768},"countryCode":"NL"}],"direction":"ONE_WAY"},"description":"verstoring treindienst","level":"LESS_TRAINS"},"sectionType":"NL"}],"timespans":[{"start":"2023-07-27T09:43:11+0200","end":"2023-07-27T11:30:00+0200","situation":{"label":"Tussen Haarlem Spaarnwoude en Haarlem is er een verstoring in de treindienst door een beschadigde spoorbrug."},"cause":{"label":"Beschadigde spoorbrug"},"advices":[]}],"alternativeTransportTimespans":[]},{"id":"2b4b71ae-a70b-45f6-b64e-61f628d3026f","title":"Werkzaamheden: van/naar Rotterdam Blaak","topic":"disruption_2b4b71ae-a70b-45f6-b64e-61f628d3026f_nl","description":"Door werkzaamheden van zondag 30 juli t/m zondag 6 augustus stoppen geen treinen in Rotterdam Blaak.","priority":"PRIO_3","lastUpdated":"2023-07-27T02:07:00+0200","bodyItems":[{"content":{"text":"<p>Er rijden taxibusjes tussen Rotterdam Blaak en Rotterdam Centraal. Plan je reis vooraf.</p>"},"type":"TEXT"}],"buttons":{"position":["BOTTOM"],"items":[{"label":"Plan je reis","type":"PLANNER","accessibilityLabel":"Plan je reis","url":"https://www.ns.nl/reisplanner"}]},"url":"https://www.ns.nl/reisinformatie/calamiteiten/werkzaamheden-van-naar-rotterdam-blaak.html","type":"CALAMITY","isActive":true},{"id":"7003766","type":"MAINTENANCE","registrationTime":"2023-07-14T09:24:12+0200","releaseTime":"2023-07-14T09:24:12+0200","local":false,"title":"Maastricht - Hasselt.","titleSections":[[{"type":"STATION","value":"Maastricht"},{"type":"STATION","value":"Liège-Guillemins"},{"type":"ICON","value":"MAINTENANCE"},{"type":"STATION","value":"Hasselt"}]],"isActive":true,"start":"2023-07-17T04:00:00+0200","end":"2023-08-28T02:00:00+0200","period":"Maandag 17-07-2023 04:00 uur t/m maandag 28-08-2023 02:00 uur.","impact":{"value":2},"summaryAdditionalTravelTime":{"label":"De extra reistijd kan oplopen tot 30 minuten.","shortLabel":"Extra reistijd tot 30 min.","maximumDurationInMinutes":30},"publicationSections":[{"section":{"stations":[{"uicCode":"8400424","stationCode":"MT","name":"Maastricht","coordinate":{"lat":50.8502769470215,"lng":5.70555543899536},"countryCode":"NL"},{"uicCode":"8400426","stationCode":"MTR","name":"Maastricht Randwyck","coordinate":{"lat":50.8386116027832,"lng":5.71722221374512},"countryCode":"NL"},{"uicCode":"8400219","stationCode":"EDN","name":"Eijsden","coordinate":{"lat":50.7719459533691,"lng":5.71000003814697},"countryCode":"NL"},{"uicCode":"8846201","stationCode":"FVS","name":"Visé","coordinate":{"lat":50.73781,"lng":5.69232},"countryCode":"B"},{"uicCode":"8843901","stationCode":"BRESSX","name":"Bressoux","coordinate":{"lat":50.643829,"lng":5.6112542},"countryCode":"B"},{"uicCode":"8841004","stationCode":"LUIK","name":"Liège-Guillemins","coordinate":{"lat":50.62436,"lng":5.56648},"countryCode":"B"},{"uicCode":"8841558","stationCode":"FLJ","name":"Liège-Carré","coordinate":{"lat":50.64051,"lng":5.56197},"countryCode":"B"},{"uicCode":"8841525","stationCode":"FLGP","name":"Liège-Saint-Lambert","coordinate":{"lat":50.64648,"lng":5.57072},"countryCode":"B"},{"uicCode":"8831005","stationCode":"FHS","name":"Hasselt","coordinate":{"lat":50.930555,"lng":5.3275},"countryCode":"B"}],"direction":"BOTH"},"consequence":{"section":{"stations":[{"uicCode":"8841004","stationCode":"LUIK","name":"Liège-Guillemins","coordinate":{"lat":50.62436,"lng":5.56648},"countryCode":"B"},{"uicCode":"8841558","stationCode":"FLJ","name":"Liège-Carré","coordinate":{"lat":50.64051,"lng":5.56197},"countryCode":"B"},{"uicCode":"8841525","stationCode":"FLGP","name":"Liège-Saint-Lambert","coordinate":{"lat":50.64648,"lng":5.57072},"countryCode":"B"},{"uicCode":"8831005","stationCode":"FHS","name":"Hasselt","coordinate":{"lat":50.930555,"lng":5.3275},"countryCode":"B"}],"direction":"ONE_WAY"},"description":"dienstregeling aangepast","level":"LESS_TRAINS"},"sectionType":"NEIGHBORING_COUNTRY"}],"timespans":[{"start":"2023-07-17T04:00:00+0200","end":"2023-08-28T02:00:00+0200","period":"Maandag 17-07-2023 04:00 uur t/m maandag 28-08-2023 02:00 uur.","situation":{"label":"Door werkzaamheden: tussen Liège-Guillemins en Hasselt is de dienstregeling aangepast."},"cause":{"label":"werkzaamheden"},"additionalTravelTime":{"label":"De extra reistijd kan oplopen tot 30 minuten.","shortLabel":"Extra reistijd tot 30 min.","maximumDurationInMinutes":30},"advices":[]}],"alternativeTransportTimespans":[]},{"id":"7003700","type":"MAINTENANCE","registrationTime":"2023-07-10T13:58:24+0200","releaseTime":"2023-07-10T13:58:24+0200","local":false,"title":"Apeldoorn.","titleSections":[[{"type":"STATION","value":"Apeldoorn"}]],"isActive":true,"start":"2023-07-20T04:00:00+0200","end":"2023-08-07T02:00:00+0200","period":"Donderdag 20-07-2023 04:00 uur t/m maandag 07-08-2023 02:00 uur.","impact":{"value":5},"summaryAdditionalTravelTime":{"label":"De extra reistijd kan oplopen tot 30 minuten.","shortLabel":"Extra reistijd tot 30 min.","maximumDurationInMinutes":30},"publicationSections":[{"section":{"stations":[{"uicCode":"8400055","stationCode":"AMF","name":"Amersfoort Centraal","coordinate":{"lat":52.1538887023926,"lng":5.37055540084839},"countryCode":"NL"},{"uicCode":"8400490","stationCode":"HVL","name":"Hoevelaken","coordinate":{"lat":52.16652,"lng":5.45718},"countryCode":"NL"},{"uicCode":"8400066","stationCode":"APD","name":"Apeldoorn","coordinate":{"lat":52.2091674804687,"lng":5.97027778625488},"countryCode":"NL"},{"uicCode":"8400229","stationCode":"APDO","name":"Apeldoorn Osseveld","coordinate":{"lat":52.2152786254883,"lng":6.00444459915161},"countryCode":"NL"},{"uicCode":"8400599","stationCode":"TWL","name":"Twello","coordinate":{"lat":52.2377777099609,"lng":6.09861087799072},"countryCode":"NL"},{"uicCode":"8400173","stationCode":"DV","name":"Deventer","coordinate":{"lat":52.2574996948242,"lng":6.16055536270142},"countryCode":"NL"}],"direction":"BOTH"},"consequence":{"section":{"stations":[{"uicCode":"8400066","stationCode":"APD","name":"Apeldoorn","coordinate":{"lat":52.2091674804687,"lng":5.97027778625488},"countryCode":"NL"}],"direction":"ONE_WAY"},"description":"rijden bussen","level":"LESS_TRAINS"},"sectionType":"NL"},{"section":{"stations":[{"uicCode":"8400066","stationCode":"APD","name":"Apeldoorn","coordinate":{"lat":52.2091674804687,"lng":5.97027778625488},"countryCode":"NL"},{"uicCode":"8400233","stationCode":"APDM","name":"Apeldoorn De Maten","coordinate":{"lat":52.2052764892578,"lng":6.00055551528931},"countryCode":"NL"},{"uicCode":"8400361","stationCode":"KBK","name":"Klarenbeek","coordinate":{"lat":52.1780548095703,"lng":6.08361101150513},"countryCode":"NL"},{"uicCode":"8400668","stationCode":"VEM","name":"Voorst-Empe","coordinate":{"lat":52.1575012207031,"lng":6.14361095428467},"countryCode":"NL"},{"uicCode":"8400744","stationCode":"ZP","name":"Zutphen","coordinate":{"lat":52.1452789306641,"lng":6.19416666030884},"countryCode":"NL"}],"direction":"BOTH"},"consequence":{"section":{"stations":[{"uicCode":"8400066","stationCode":"APD","name":"Apeldoorn","coordinate":{"lat":52.2091674804687,"lng":5.97027778625488},"countryCode":"NL"}],"direction":"ONE_WAY"},"description":"rijden bussen","level":"LESS_TRAINS"},"sectionType":"NL"}],"timespans":[{"start":"2023-07-20T04:00:00+0200","end":"2023-08-07T02:00:00+0200","period":"Donderdag 20-07-2023 04:00 uur t/m maandag 07-08-2023 02:00 uur.","situation":{"label":"Door werkzaamheden: van, via en naar Apeldoorn rijden er bussen."},"cause":{"label":"werkzaamheden"},"additionalTravelTime":{"label":"De extra reistijd kan oplopen tot 30 minuten.","shortLabel":"Extra reistijd tot 30 min.","maximumDurationInMinutes":30},"alternativeTransport":{"label":"maak gebruik van het vervangende vervoer","shortLabel":"gebruik het vervangende vervoer"},"advices":["Tussen Amersfoort C. en Deventer reist u via Zwolle"]}],"alternativeTransportTimespans":[{"start":"2023-07-20T04:00:00+0200","end":"2023-08-07T02:00:00+0200","alternativeTransport":{"location":[{"station":{"uicCode":"8400066","stationCode":"APD","name":"Apeldoorn","coordinate":{"lat":52.2091674804687,"lng":5.97027778625488},"countryCode":"NL"},"description":"vanaf de voorzijde van het station"},{"station":{"uicCode":"8400173","stationCode":"DV","name":"Deventer","coordinate":{"lat":52.2574996948242,"lng":6.16055536270142},"countryCode":"NL"},"description":"vanaf de Stationsstraat"}],"label":"Er rijden snelbussen tussen Apeldoorn en Deventer.","shortLabel":"Er rijden snelbussen Apeldoorn - Deventer"}},{"start":"2023-07-20T04:00:00+0200","end":"2023-08-07T02:00:00+0200","alternativeTransport":{"location":[{"station":{"uicCode":"8400055","stationCode":"AMF","name":"Amersfoort Centraal","coordinate":{"lat":52.1538887023926,"lng":5.37055540084839},"countryCode":"NL"},"description":"vanaf het busstation, centrumzijde"},{"station":{"uicCode":"8400066","stationCode":"APD","name":"Apeldoorn","coordinate":{"lat":52.2091674804687,"lng":5.97027778625488},"countryCode":"NL"},"description":"vanaf de voorzijde van het station"}],"label":"Er rijden snelbussen tussen Amersfoort Centraal en Apeldoorn.","shortLabel":"Er rijden snelbussen Amersfoort C. - Apeldoorn"}},{"start":"2023-07-20T04:00:00+0200","end":"2023-08-07T02:00:00+0200","alternativeTransport":{"location":[{"station":{"uicCode":"8400066","stationCode":"APD","name":"Apeldoorn","coordinate":{"lat":52.2091674804687,"lng":5.97027778625488},"countryCode":"NL"},"description":"vanaf de voorzijde van het station"},{"station":{"uicCode":"8400229","stationCode":"APDO","name":"Apeldoorn Osseveld","coordinate":{"lat":52.2152786254883,"lng":6.00444459915161},"countryCode":"NL"},"description":"vanaf de NS Bushalte"},{"station":{"uicCode":"8400599","stationCode":"TWL","name":"Twello","coordinate":{"lat":52.2377777099609,"lng":6.09861087799072},"countryCode":"NL"},"description":"vanaf de NS Bushalte"},{"station":{"uicCode":"8400173","stationCode":"DV","name":"Deventer","coordinate":{"lat":52.2574996948242,"lng":6.16055536270142},"countryCode":"NL"},"description":"vanaf de Stationsstraat"}],"label":"Er rijden stopbussen tussen Apeldoorn, Apeldoorn Osseveld, Twello en Deventer.","shortLabel":"Er rijden stopbussen Apeldoorn - Osseveld - Twello - Deventer"}},{"start":"2023-07-20T04:00:00+0200","end":"2023-08-07T02:00:00+0200","alternativeTransport":{"location":[{"station":{"uicCode":"8400066","stationCode":"APD","name":"Apeldoorn","coordinate":{"lat":52.2091674804687,"lng":5.97027778625488},"countryCode":"NL"},"description":"vanaf de voorzijde van het station"},{"station":{"uicCode":"8400233","stationCode":"APDM","name":"Apeldoorn De Maten","coordinate":{"lat":52.2052764892578,"lng":6.00055551528931},"countryCode":"NL"},"description":"vanaf de Laan van Zonnehoeve, bij het rode Arriva-bord"},{"station":{"uicCode":"8400668","stationCode":"VEM","name":"Voorst-Empe","coordinate":{"lat":52.1575012207031,"lng":6.14361095428467},"countryCode":"NL"},"description":"vanaf de Provinciale weg"},{"station":{"uicCode":"8400744","stationCode":"ZP","name":"Zutphen","coordinate":{"lat":52.1452789306641,"lng":6.19416666030884},"countryCode":"NL"},"description":"vanaf de achterzijde van het station"}],"label":"Er rijden stopbussen tussen Apeldoorn, Apeldoorn De Maten, Voorst-Empe en Zutphen.","shortLabel":"Er rijden stopbussen Apeldoorn - De Maten - Voorst-Empe - Zutphen"}},{"start":"2023-07-20T04:00:00+0200","end":"2023-08-07T02:00:00+0200","alternativeTransport":{"location":[{"station":{"uicCode":"8400668","stationCode":"VEM","name":"Voorst-Empe","coordinate":{"lat":52.1575012207031,"lng":6.14361095428467},"countryCode":"NL"},"description":"vanaf de Provinciale weg"},{"station":{"uicCode":"8400361","stationCode":"KBK","name":"Klarenbeek","coordinate":{"lat":52.1780548095703,"lng":6.08361101150513},"countryCode":"NL"},"description":"vanaf de parkeerplaats"}],"label":"Er rijden taxibusjes tussen Voorst-Empe en Klarenbeek.","shortLabel":"Er rijden taxibusjes Voorst-Empe - Klarenbeek"}}]},{"id":"7003753","type":"MAINTENANCE","registrationTime":"2023-07-23T08:42:44+0200","releaseTime":"2023-07-23T08:42:44+0200","local":false,"title":"Amsterdam - Hannover - Berlin.","titleSections":[[{"type":"STATION","value":"Amsterdam C."},{"type":"ICON","value":"MAINTENANCE"},{"type":"STATION","value":"Deventer"},{"type":"STATION","value":"Berlin Hbf"}]],"isActive":true,"start":"2023-07-20T04:00:00+0200","end":"2023-08-07T02:00:00+0200","period":"Donderdag 20-07-2023 04:00 uur t/m maandag 07-08-2023 02:00 uur.","impact":{"value":2},"summaryAdditionalTravelTime":{"label":"U heeft geen langere reistijd.","shortLabel":"Geen extra reistijd"},"publicationSections":[{"section":{"stations":[{"uicCode":"8400058","stationCode":"ASD","name":"Amsterdam Centraal","coordinate":{"lat":52.3788871765137,"lng":4.90027761459351},"countryCode":"NL"},{"uicCode":"8400060","stationCode":"ASDM","name":"Amsterdam Muiderpoort","coordinate":{"lat":52.3605537414551,"lng":4.93111133575439},"countryCode":"NL"},{"uicCode":"8400235","stationCode":"ASSP","name":"Amsterdam Science Park","coordinate":{"lat":52.35526,"lng":4.94651},"countryCode":"NL"},{"uicCode":"8400165","stationCode":"DMN","name":"Diemen","coordinate":{"lat":52.34515,"lng":4.967566},"countryCode":"NL"},{"uicCode":"8400685","stationCode":"WP","name":"Weesp","coordinate":{"lat":52.3127784729004,"lng":5.04305553436279},"countryCode":"NL"},{"uicCode":"8400452","stationCode":"NDB","name":"Naarden-Bussum","coordinate":{"lat":52.2802772521973,"lng":5.15694427490234},"countryCode":"NL"},{"uicCode":"8400145","stationCode":"BSMZ","name":"Bussum Zuid","coordinate":{"lat":52.2658348083496,"lng":5.16305541992188},"countryCode":"NL"},{"uicCode":"8400324","stationCode":"HVSM","name":"Hilversum Media Park","coordinate":{"lat":52.2380561828613,"lng":5.17388868331909},"countryCode":"NL"},{"uicCode":"8400322","stationCode":"HVS","name":"Hilversum","coordinate":{"lat":52.2258338928223,"lng":5.18194437026978},"countryCode":"NL"},{"uicCode":"8400086","stationCode":"BRN","name":"Baarn","coordinate":{"lat":52.2083320617676,"lng":5.28083324432373},"countryCode":"NL"},{"uicCode":"8400055","stationCode":"AMF","name":"Amersfoort Centraal","coordinate":{"lat":52.1538887023926,"lng":5.37055540084839},"countryCode":"NL"},{"uicCode":"8400490","stationCode":"HVL","name":"Hoevelaken","coordinate":{"lat":52.16652,"lng":5.45718},"countryCode":"NL"},{"uicCode":"8400066","stationCode":"APD","name":"Apeldoorn","coordinate":{"lat":52.2091674804687,"lng":5.97027778625488},"countryCode":"NL"},{"uicCode":"8400229","stationCode":"APDO","name":"Apeldoorn Osseveld","coordinate":{"lat":52.2152786254883,"lng":6.00444459915161},"countryCode":"NL"},{"uicCode":"8400599","stationCode":"TWL","name":"Twello","coordinate":{"lat":52.2377777099609,"lng":6.09861087799072},"countryCode":"NL"},{"uicCode":"8400173","stationCode":"DV","name":"Deventer","coordinate":{"lat":52.2574996948242,"lng":6.16055536270142},"countryCode":"NL"},{"uicCode":"8400185","stationCode":"DVC","name":"Deventer Colmschate","coordinate":{"lat":52.2502784729004,"lng":6.21444463729858},"countryCode":"NL"},{"uicCode":"8400328","stationCode":"HON","name":"Holten","coordinate":{"lat":52.2838897705078,"lng":6.42027759552002},"countryCode":"NL"},{"uicCode":"8400538","stationCode":"RSN","name":"Rijssen","coordinate":{"lat":52.3122215270996,"lng":6.52027797698975},"countryCode":"NL"},{"uicCode":"8400691","stationCode":"WDN","name":"Wierden","coordinate":{"lat":52.3613891601562,"lng":6.59166669845581},"countryCode":"NL"},{"uicCode":"8400051","stationCode":"AML","name":"Almelo","coordinate":{"lat":52.3580551147461,"lng":6.65388870239258},"countryCode":"NL"},{"uicCode":"8400520","stationCode":"AMRI","name":"Almelo de Riet","coordinate":{"lat":52.3419456481934,"lng":6.66666650772095},"countryCode":"NL"},{"uicCode":"8400124","stationCode":"BN","name":"Borne","coordinate":{"lat":52.2988891601562,"lng":6.74805545806885},"countryCode":"NL"},{"uicCode":"8400316","stationCode":"HGL","name":"Hengelo","coordinate":{"lat":52.2616653442383,"lng":6.79388904571533},"countryCode":"NL"},{"uicCode":"8400312","stationCode":"HGLO","name":"Hengelo Oost","coordinate":{"lat":52.2688903808594,"lng":6.81944465637207},"countryCode":"NL"},{"uicCode":"8400483","stationCode":"ODZ","name":"Oldenzaal","coordinate":{"lat":52.3063888549805,"lng":6.93472242355347},"countryCode":"NL"},{"uicCode":"8021156","stationCode":"BH","name":"Bad Bentheim","coordinate":{"lat":52.309685595156,"lng":7.15853691101074},"countryCode":"D"},{"uicCode":"8021067","stationCode":"RHEINE","name":"Rheine","coordinate":{"lat":52.276299,"lng":7.434255},"countryCode":"D"},{"uicCode":"8021025","stationCode":"OSNH","name":"Osnabrück Hbf","coordinate":{"lat":52.272851,"lng":8.061781},"countryCode":"D"},{"uicCode":"8013552","stationCode":"HANN","name":"Hannover Hbf","coordinate":{"lat":52.3770401,"lng":9.7416759},"countryCode":"D"},{"uicCode":"8065969","stationCode":"BERHBL","name":"Berlin Hbf","coordinate":{"lat":52.52503,"lng":13.36946},"countryCode":"D"}],"direction":"BOTH"},"consequence":{"section":{"stations":[{"uicCode":"8400058","stationCode":"ASD","name":"Amsterdam Centraal","coordinate":{"lat":52.3788871765137,"lng":4.90027761459351},"countryCode":"NL"},{"uicCode":"8400060","stationCode":"ASDM","name":"Amsterdam Muiderpoort","coordinate":{"lat":52.3605537414551,"lng":4.93111133575439},"countryCode":"NL"},{"uicCode":"8400235","stationCode":"ASSP","name":"Amsterdam Science Park","coordinate":{"lat":52.35526,"lng":4.94651},"countryCode":"NL"},{"uicCode":"8400165","stationCode":"DMN","name":"Diemen","coordinate":{"lat":52.34515,"lng":4.967566},"countryCode":"NL"},{"uicCode":"8400685","stationCode":"WP","name":"Weesp","coordinate":{"lat":52.3127784729004,"lng":5.04305553436279},"countryCode":"NL"},{"uicCode":"8400452","stationCode":"NDB","name":"Naarden-Bussum","coordinate":{"lat":52.2802772521973,"lng":5.15694427490234},"countryCode":"NL"},{"uicCode":"8400145","stationCode":"BSMZ","name":"Bussum Zuid","coordinate":{"lat":52.2658348083496,"lng":5.16305541992188},"countryCode":"NL"},{"uicCode":"8400324","stationCode":"HVSM","name":"Hilversum Media Park","coordinate":{"lat":52.2380561828613,"lng":5.17388868331909},"countryCode":"NL"},{"uicCode":"8400322","stationCode":"HVS","name":"Hilversum","coordinate":{"lat":52.2258338928223,"lng":5.18194437026978},"countryCode":"NL"},{"uicCode":"8400086","stationCode":"BRN","name":"Baarn","coordinate":{"lat":52.2083320617676,"lng":5.28083324432373},"countryCode":"NL"},{"uicCode":"8400055","stationCode":"AMF","name":"Amersfoort Centraal","coordinate":{"lat":52.1538887023926,"lng":5.37055540084839},"countryCode":"NL"},{"uicCode":"8400490","stationCode":"HVL","name":"Hoevelaken","coordinate":{"lat":52.16652,"lng":5.45718},"countryCode":"NL"},{"uicCode":"8400066","stationCode":"APD","name":"Apeldoorn","coordinate":{"lat":52.2091674804687,"lng":5.97027778625488},"countryCode":"NL"},{"uicCode":"8400229","stationCode":"APDO","name":"Apeldoorn Osseveld","coordinate":{"lat":52.2152786254883,"lng":6.00444459915161},"countryCode":"NL"},{"uicCode":"8400599","stationCode":"TWL","name":"Twello","coordinate":{"lat":52.2377777099609,"lng":6.09861087799072},"countryCode":"NL"},{"uicCode":"8400173","stationCode":"DV","name":"Deventer","coordinate":{"lat":52.2574996948242,"lng":6.16055536270142},"countryCode":"NL"}],"direction":"ONE_WAY"},"description":"aangepaste internationale dienstregeling","level":"LESS_TRAINS"},"sectionType":"NEIGHBORING_COUNTRY"}],"timespans":[{"start":"2023-07-20T04:00:00+0200","end":"2023-08-07T02:00:00+0200","period":"Donderdag 20-07-2023 04:00 uur t/m maandag 07-08-2023 02:00 uur.","situation":{"label":"Door werkzaamheden: tussen Amsterdam Centraal en Deventer is de internationale dienstregeling aangepast."},"cause":{"label":"werkzaamheden"},"additionalTravelTime":{"label":"U heeft geen langere reistijd.","shortLabel":"Geen extra reistijd"},"advices":["Dit kan gevolgen hebben voor uw reis. Plan uw reis in de app."]}],"alternativeTransportTimespans":[]},{"id":"7003726","type":"MAINTENANCE","registrationTime":"2023-07-26T15:41:13+0200","releaseTime":"2023-07-26T15:41:13+0200","local":false,"title":"Den Haag - Rotterdam.","titleSections":[[{"type":"STATION","value":"Den Haag HS"},{"type":"ICON","value":"MAINTENANCE"},{"type":"STATION","value":"Schiedam C."},{"type":"STATION","value":"Rotterdam C."}]],"isActive":true,"start":"2023-07-26T01:00:00+0200","end":"2023-07-28T05:15:00+0200","period":"Woensdag 26-07-2023 01:00 uur t/m vrijdag 28-07-2023 05:15 uur.","impact":{"value":4},"summaryAdditionalTravelTime":{"label":"De extra reistijd is ongeveer 30 minuten.","shortLabel":"Extra reistijd 30 min.","minimumDurationInMinutes":30,"maximumDurationInMinutes":30},"publicationSections":[{"section":{"stations":[{"uicCode":"8400280","stationCode":"GV","name":"Den Haag HS","coordinate":{"lat":52.0697212219238,"lng":4.32250022888184},"countryCode":"NL"},{"uicCode":"8400279","stationCode":"GVMW","name":"Den Haag Moerwijk","coordinate":{"lat":52.0538902282715,"lng":4.3086109161377},"countryCode":"NL"},{"uicCode":"8400505","stationCode":"RSW","name":"Rijswijk","coordinate":{"lat":52.039722442627,"lng":4.31916666030884},"countryCode":"NL"},{"uicCode":"8400170","stationCode":"DT","name":"Delft","coordinate":{"lat":52.0066680908203,"lng":4.35638904571533},"countryCode":"NL"},{"uicCode":"8400166","stationCode":"DTCP","name":"Delft Campus","coordinate":{"lat":51.9908332824707,"lng":4.36472225189209},"countryCode":"NL"},{"uicCode":"8400553","stationCode":"SDM","name":"Schiedam Centrum","coordinate":{"lat":51.9212438128032,"lng":4.4089937210083},"countryCode":"NL"},{"uicCode":"8400530","stationCode":"RTD","name":"Rotterdam Centraal","coordinate":{"lat":51.9249992370605,"lng":4.46888875961304},"countryCode":"NL"}],"direction":"BOTH"},"consequence":{"section":{"stations":[{"uicCode":"8400280","stationCode":"GV","name":"Den Haag HS","coordinate":{"lat":52.0697212219238,"lng":4.32250022888184},"countryCode":"NL"},{"uicCode":"8400279","stationCode":"GVMW","name":"Den Haag Moerwijk","coordinate":{"lat":52.0538902282715,"lng":4.3086109161377},"countryCode":"NL"},{"uicCode":"8400505","stationCode":"RSW","name":"Rijswijk","coordinate":{"lat":52.039722442627,"lng":4.31916666030884},"countryCode":"NL"},{"uicCode":"8400170","stationCode":"DT","name":"Delft","coordinate":{"lat":52.0066680908203,"lng":4.35638904571533},"countryCode":"NL"},{"uicCode":"8400166","stationCode":"DTCP","name":"Delft Campus","coordinate":{"lat":51.9908332824707,"lng":4.36472225189209},"countryCode":"NL"},{"uicCode":"8400553","stationCode":"SDM","name":"Schiedam Centrum","coordinate":{"lat":51.9212438128032,"lng":4.4089937210083},"countryCode":"NL"}],"direction":"ONE_WAY"},"description":"rijden bussen","level":"LESS_TRAINS"},"sectionType":"NL"}],"timespans":[{"start":"2023-07-26T01:00:00+0200","end":"2023-07-28T05:15:00+0200","period":"Woensdag 26-07-2023 01:00 uur t/m vrijdag 28-07-2023 05:15 uur.","situation":{"label":"Door werkzaamheden: tussen Den Haag HS en Schiedam Centrum rijden er bussen."},"cause":{"label":"werkzaamheden"},"additionalTravelTime":{"label":"De extra reistijd is ongeveer 30 minuten.","shortLabel":"Extra reistijd 30 min.","minimumDurationInMinutes":30,"maximumDurationInMinutes":30},"alternativeTransport":{"label":"er rijden stop- en snelbussen","shortLabel":"er rijden stop- en snelbussen"},"advices":["Tussen Den Haag C. en Rotterdam C. reist u via Gouda"]}],"alternativeTransportTimespans":[{"start":"2023-07-26T01:15:00+0200","end":"2023-07-26T05:35:00+0200","alternativeTransport":{"location":[{"station":{"uicCode":"8400280","stationCode":"GV","name":"Den Haag HS","coordinate":{"lat":52.0697212219238,"lng":4.32250022888184},"countryCode":"NL"},"description":"vanaf de achterzijde van het station"},{"station":{"uicCode":"8400170","stationCode":"DT","name":"Delft","coordinate":{"lat":52.0066680908203,"lng":4.35638904571533},"countryCode":"NL"},"description":"vanaf de voorzijde van het station, aan de Coenderstraat"},{"station":{"uicCode":"8400530","stationCode":"RTD","name":"Rotterdam Centraal","coordinate":{"lat":51.9249992370605,"lng":4.46888875961304},"countryCode":"NL"},"description":"vanaf de Conradstraat aan de centrumzijde"}],"label":"Er rijden snelbussen tussen Den Haag HS, Delft en Rotterdam Centraal.","shortLabel":"Er rijden snelbussen Den Haag HS - Delft - Rotterdam C."}},{"start":"2023-07-26T04:50:00+0200","end":"2023-07-27T01:45:00+0200","alternativeTransport":{"location":[{"station":{"uicCode":"8400280","stationCode":"GV","name":"Den Haag HS","coordinate":{"lat":52.0697212219238,"lng":4.32250022888184},"countryCode":"NL"},"description":"vanaf de achterzijde van het station"},{"station":{"uicCode":"8400279","stationCode":"GVMW","name":"Den Haag Moerwijk","coordinate":{"lat":52.0538902282715,"lng":4.3086109161377},"countryCode":"NL"},"description":"vanaf de bushalte"},{"station":{"uicCode":"8400505","stationCode":"RSW","name":"Rijswijk","coordinate":{"lat":52.039722442627,"lng":4.31916666030884},"countryCode":"NL"},"description":"vanaf de Sir Winston Churchilllaan"},{"station":{"uicCode":"8400170","stationCode":"DT","name":"Delft","coordinate":{"lat":52.0066680908203,"lng":4.35638904571533},"countryCode":"NL"},"description":"vanaf de voorzijde van het station, aan de Coenderstraat"},{"station":{"uicCode":"8400553","stationCode":"SDM","name":"Schiedam Centrum","coordinate":{"lat":51.9212438128032,"lng":4.4089937210083},"countryCode":"NL"},"description":"vanaf de Horvathweg"}],"label":"Er rijden stopbussen tussen Den Haag HS, Den Haag Moerwijk, Rijswijk, Delft en Schiedam Centrum.","shortLabel":"Er rijden stopbussen Den Haag HS - Moerwijk - Rijswijk - Delft - Schiedam C."}},{"start":"2023-07-26T04:50:00+0200","end":"2023-07-27T01:45:00+0200","alternativeTransport":{"location":[{"station":{"uicCode":"8400170","stationCode":"DT","name":"Delft","coordinate":{"lat":52.0066680908203,"lng":4.35638904571533},"countryCode":"NL"},"description":"vanaf de voorzijde van het station, aan de Coenderstraat"},{"station":{"uicCode":"8400166","stationCode":"DTCP","name":"Delft Campus","coordinate":{"lat":51.9908332824707,"lng":4.36472225189209},"countryCode":"NL"},"description":"vanaf het Stationsplein"}],"label":"Er rijden stopbussen tussen Delft en Delft Campus.","shortLabel":"Er rijden stopbussen Delft - Delft Campus"}},{"start":"2023-07-26T05:00:00+0200","end":"2023-07-26T05:55:00+0200","alternativeTransport":{"location":[{"station":{"uicCode":"8400170","stationCode":"DT","name":"Delft","coordinate":{"lat":52.0066680908203,"lng":4.35638904571533},"countryCode":"NL"},"description":"vanaf de voorzijde van het station, aan de Coenderstraat"},{"station":{"uicCode":"8400166","stationCode":"DTCP","name":"Delft Campus","coordinate":{"lat":51.9908332824707,"lng":4.36472225189209},"countryCode":"NL"},"description":"vanaf het Stationsplein"},{"station":{"uicCode":"8400553","stationCode":"SDM","name":"Schiedam Centrum","coordinate":{"lat":51.9212438128032,"lng":4.4089937210083},"countryCode":"NL"},"description":"vanaf de Horvathweg"}],"label":"Er rijden stopbussen tussen Delft, Delft Campus en Schiedam Centrum.","shortLabel":"Er rijden stopbussen Delft - Delft Campus - Schiedam C."}},{"start":"2023-07-27T00:50:00+0200","end":"2023-07-27T02:05:00+0200","alternativeTransport":{"location":[{"station":{"uicCode":"8400280","stationCode":"GV","name":"Den Haag HS","coordinate":{"lat":52.0697212219238,"lng":4.32250022888184},"countryCode":"NL"},"description":"vanaf de achterzijde van het station"},{"station":{"uicCode":"8400170","stationCode":"DT","name":"Delft","coordinate":{"lat":52.0066680908203,"lng":4.35638904571533},"countryCode":"NL"},"description":"vanaf de voorzijde van het station, aan de Coenderstraat"},{"station":{"uicCode":"8400553","stationCode":"SDM","name":"Schiedam Centrum","coordinate":{"lat":51.9212438128032,"lng":4.4089937210083},"countryCode":"NL"},"description":"vanaf de Horvathweg"}],"label":"Er rijden snelbussen van Den Haag HS, Delft naar Schiedam Centrum.","shortLabel":"Er rijden snelbussen Den Haag HS -> Delft -> Schiedam C."}},{"start":"2023-07-27T04:50:00+0200","end":"2023-07-28T01:45:00+0200","alternativeTransport":{"location":[{"station":{"uicCode":"8400280","stationCode":"GV","name":"Den Haag HS","coordinate":{"lat":52.0697212219238,"lng":4.32250022888184},"countryCode":"NL"},"description":"vanaf de achterzijde van het station"},{"station":{"uicCode":"8400279","stationCode":"GVMW","name":"Den Haag Moerwijk","coordinate":{"lat":52.0538902282715,"lng":4.3086109161377},"countryCode":"NL"},"description":"vanaf de bushalte"},{"station":{"uicCode":"8400505","stationCode":"RSW","name":"Rijswijk","coordinate":{"lat":52.039722442627,"lng":4.31916666030884},"countryCode":"NL"},"description":"vanaf de Sir Winston Churchilllaan"},{"station":{"uicCode":"8400170","stationCode":"DT","name":"Delft","coordinate":{"lat":52.0066680908203,"lng":4.35638904571533},"countryCode":"NL"},"description":"vanaf de voorzijde van het station, aan de Coenderstraat"},{"station":{"uicCode":"8400553","stationCode":"SDM","name":"Schiedam Centrum","coordinate":{"lat":51.9212438128032,"lng":4.4089937210083},"countryCode":"NL"},"description":"vanaf de Horvathweg"}],"label":"Er rijden stopbussen tussen Den Haag HS, Den Haag Moerwijk, Rijswijk, Delft en Schiedam Centrum.","shortLabel":"Er rijden stopbussen Den Haag HS - Moerwijk - Rijswijk - Delft - Schiedam C."}},{"start":"2023-07-27T04:50:00+0200","end":"2023-07-28T01:45:00+0200","alternativeTransport":{"location":[{"station":{"uicCode":"8400170","stationCode":"DT","name":"Delft","coordinate":{"lat":52.0066680908203,"lng":4.35638904571533},"countryCode":"NL"},"description":"vanaf de voorzijde van het station, aan de Coenderstraat"},{"station":{"uicCode":"8400166","stationCode":"DTCP","name":"Delft Campus","coordinate":{"lat":51.9908332824707,"lng":4.36472225189209},"countryCode":"NL"},"description":"vanaf het Stationsplein"}],"label":"Er rijden stopbussen tussen Delft en Delft Campus.","shortLabel":"Er rijden stopbussen Delft - Delft Campus"}},{"start":"2023-07-28T01:00:00+0200","end":"2023-07-28T05:15:00+0200","alternativeTransport":{"location":[{"station":{"uicCode":"8400280","stationCode":"GV","name":"Den Haag HS","coordinate":{"lat":52.0697212219238,"lng":4.32250022888184},"countryCode":"NL"},"description":"vanaf de achterzijde van het station"},{"station":{"uicCode":"8400170","stationCode":"DT","name":"Delft","coordinate":{"lat":52.0066680908203,"lng":4.35638904571533},"countryCode":"NL"},"description":"vanaf de voorzijde van het station, aan de Coenderstraat"},{"station":{"uicCode":"8400530","stationCode":"RTD","name":"Rotterdam Centraal","coordinate":{"lat":51.9249992370605,"lng":4.46888875961304},"countryCode":"NL"},"description":"vanaf de Conradstraat aan de centrumzijde"}],"label":"Er rijden snelbussen tussen Den Haag HS, Delft en Rotterdam Centraal.","shortLabel":"Er rijden snelbussen Den Haag HS - Delft - Rotterdam C."}}]},{"id":"7003731","type":"MAINTENANCE","registrationTime":"2023-07-26T14:40:42+0200","releaseTime":"2023-07-26T14:40:42+0200","local":false,"title":"Utrecht - Amersfoort; Utrecht - Baarn.","titleSections":[[{"type":"STATION","value":"Utrecht C."},{"type":"STATION","value":"Overvecht"},{"type":"ICON","value":"MAINTENANCE"},{"type":"STATION","value":"Amersfoort C."}],[{"type":"STATION","value":"Utrecht C."},{"type":"STATION","value":"Overvecht"},{"type":"ICON","value":"MAINTENANCE"},{"type":"STATION","value":"Soest"},{"type":"STATION","value":"Baarn"}],[{"type":"STATION","value":"Utrecht C."},{"type":"STATION","value":"Overvecht"},{"type":"ICON","value":"MAINTENANCE"},{"type":"STATION","value":"Baarn"}]],"isActive":true,"start":"2023-07-26T04:00:00+0200","end":"2023-07-31T02:00:00+0200","period":"Woensdag 26-07-2023 04:00 uur t/m maandag 31-07-2023 02:00 uur.","impact":{"value":5},"summaryAdditionalTravelTime":{"label":"De extra reistijd kan oplopen tot 30 minuten.","shortLabel":"Extra reistijd tot 30 min.","minimumDurationInMinutes":30,"maximumDurationInMinutes":30},"publicationSections":[{"section":{"stations":[{"uicCode":"8400621","stationCode":"UT","name":"Utrecht Centraal","coordinate":{"lat":52.0888900756836,"lng":5.11027765274048},"countryCode":"NL"},{"uicCode":"8400620","stationCode":"UTO","name":"Utrecht Overvecht","coordinate":{"lat":52.1100006103516,"lng":5.12472200393677},"countryCode":"NL"},{"uicCode":"8400114","stationCode":"BHV","name":"Bilthoven","coordinate":{"lat":52.1300010681152,"lng":5.20388889312744},"countryCode":"NL"},{"uicCode":"8400179","stationCode":"DLD","name":"Den Dolder","coordinate":{"lat":52.1402778625488,"lng":5.24277782440186},"countryCode":"NL"},{"uicCode":"8400055","stationCode":"AMF","name":"Amersfoort Centraal","coordinate":{"lat":52.1538887023926,"lng":5.37055540084839},"countryCode":"NL"}],"direction":"BOTH"},"consequence":{"section":{"stations":[{"uicCode":"8400620","stationCode":"UTO","name":"Utrecht Overvecht","coordinate":{"lat":52.1100006103516,"lng":5.12472200393677},"countryCode":"NL"},{"uicCode":"8400114","stationCode":"BHV","name":"Bilthoven","coordinate":{"lat":52.1300010681152,"lng":5.20388889312744},"countryCode":"NL"},{"uicCode":"8400179","stationCode":"DLD","name":"Den Dolder","coordinate":{"lat":52.1402778625488,"lng":5.24277782440186},"countryCode":"NL"},{"uicCode":"8400055","stationCode":"AMF","name":"Amersfoort Centraal","coordinate":{"lat":52.1538887023926,"lng":5.37055540084839},"countryCode":"NL"}],"direction":"ONE_WAY"},"description":"rijden bussen","level":"LESS_TRAINS"},"sectionType":"NL"},{"section":{"stations":[{"uicCode":"8400621","stationCode":"UT","name":"Utrecht Centraal","coordinate":{"lat":52.0888900756836,"lng":5.11027765274048},"countryCode":"NL"},{"uicCode":"8400620","stationCode":"UTO","name":"Utrecht Overvecht","coordinate":{"lat":52.1100006103516,"lng":5.12472200393677},"countryCode":"NL"},{"uicCode":"8400114","stationCode":"BHV","name":"Bilthoven","coordinate":{"lat":52.1300010681152,"lng":5.20388889312744},"countryCode":"NL"},{"uicCode":"8400179","stationCode":"DLD","name":"Den Dolder","coordinate":{"lat":52.1402778625488,"lng":5.24277782440186},"countryCode":"NL"},{"uicCode":"8400571","stationCode":"STZ","name":"Soest Zuid","coordinate":{"lat":52.1652793884277,"lng":5.30305576324463},"countryCode":"NL"},{"uicCode":"8400567","stationCode":"ST","name":"Soest","coordinate":{"lat":52.1733322143555,"lng":5.30999994277954},"countryCode":"NL"},{"uicCode":"8400569","stationCode":"SD","name":"Soestdijk","coordinate":{"lat":52.1836128234863,"lng":5.30000019073486},"countryCode":"NL"},{"uicCode":"8400086","stationCode":"BRN","name":"Baarn","coordinate":{"lat":52.2083320617676,"lng":5.28083324432373},"countryCode":"NL"}],"direction":"BOTH"},"consequence":{"section":{"stations":[{"uicCode":"8400620","stationCode":"UTO","name":"Utrecht Overvecht","coordinate":{"lat":52.1100006103516,"lng":5.12472200393677},"countryCode":"NL"},{"uicCode":"8400114","stationCode":"BHV","name":"Bilthoven","coordinate":{"lat":52.1300010681152,"lng":5.20388889312744},"countryCode":"NL"},{"uicCode":"8400179","stationCode":"DLD","name":"Den Dolder","coordinate":{"lat":52.1402778625488,"lng":5.24277782440186},"countryCode":"NL"},{"uicCode":"8400571","stationCode":"STZ","name":"Soest Zuid","coordinate":{"lat":52.1652793884277,"lng":5.30305576324463},"countryCode":"NL"},{"uicCode":"8400567","stationCode":"ST","name":"Soest","coordinate":{"lat":52.1733322143555,"lng":5.30999994277954},"countryCode":"NL"}],"direction":"ONE_WAY"},"description":"rijden bussen","level":"LESS_TRAINS"},"sectionType":"NL"},{"section":{"stations":[{"uicCode":"8400621","stationCode":"UT","name":"Utrecht Centraal","coordinate":{"lat":52.0888900756836,"lng":5.11027765274048},"countryCode":"NL"},{"uicCode":"8400620","stationCode":"UTO","name":"Utrecht Overvecht","coordinate":{"lat":52.1100006103516,"lng":5.12472200393677},"countryCode":"NL"},{"uicCode":"8400114","stationCode":"BHV","name":"Bilthoven","coordinate":{"lat":52.1300010681152,"lng":5.20388889312744},"countryCode":"NL"},{"uicCode":"8400179","stationCode":"DLD","name":"Den Dolder","coordinate":{"lat":52.1402778625488,"lng":5.24277782440186},"countryCode":"NL"},{"uicCode":"8400571","stationCode":"STZ","name":"Soest Zuid","coordinate":{"lat":52.1652793884277,"lng":5.30305576324463},"countryCode":"NL"},{"uicCode":"8400567","stationCode":"ST","name":"Soest","coordinate":{"lat":52.1733322143555,"lng":5.30999994277954},"countryCode":"NL"},{"uicCode":"8400569","stationCode":"SD","name":"Soestdijk","coordinate":{"lat":52.1836128234863,"lng":5.30000019073486},"countryCode":"NL"},{"uicCode":"8400086","stationCode":"BRN","name":"Baarn","coordinate":{"lat":52.2083320617676,"lng":5.28083324432373},"countryCode":"NL"}],"direction":"BOTH"},"consequence":{"section":{"stations":[{"uicCode":"8400620","stationCode":"UTO","name":"Utrecht Overvecht","coordinate":{"lat":52.1100006103516,"lng":5.12472200393677},"countryCode":"NL"},{"uicCode":"8400114","stationCode":"BHV","name":"Bilthoven","coordinate":{"lat":52.1300010681152,"lng":5.20388889312744},"countryCode":"NL"},{"uicCode":"8400179","stationCode":"DLD","name":"Den Dolder","coordinate":{"lat":52.1402778625488,"lng":5.24277782440186},"countryCode":"NL"},{"uicCode":"8400571","stationCode":"STZ","name":"Soest Zuid","coordinate":{"lat":52.1652793884277,"lng":5.30305576324463},"countryCode":"NL"},{"uicCode":"8400567","stationCode":"ST","name":"Soest","coordinate":{"lat":52.1733322143555,"lng":5.30999994277954},"countryCode":"NL"},{"uicCode":"8400569","stationCode":"SD","name":"Soestdijk","coordinate":{"lat":52.1836128234863,"lng":5.30000019073486},"countryCode":"NL"},{"uicCode":"8400086","stationCode":"BRN","name":"Baarn","coordinate":{"lat":52.2083320617676,"lng":5.28083324432373},"countryCode":"NL"}],"direction":"ONE_WAY"},"description":"rijden bussen","level":"LESS_TRAINS"},"sectionType":"NL"}],"timespans":[{"start":"2023-07-26T04:00:00+0200","end":"2023-07-29T03:00:00+0200","period":"Woensdag 26-07-2023 04:00 uur t/m zaterdag 29-07-2023 03:00 uur.","situation":{"label":"Door werkzaamheden: tussen Utrecht Overvecht en Amersfoort Centraal rijden er bussen en tussen Utrecht Overvecht en Soest rijden er bussen."},"cause":{"label":"werkzaamheden"},"additionalTravelTime":{"label":"De extra reistijd is ongeveer 30 minuten.","shortLabel":"Extra reistijd 30 min.","minimumDurationInMinutes":30,"maximumDurationInMinutes":30},"alternativeTransport":{"label":"er rijden stop- en snelbussen","shortLabel":"er rijden stop- en snelbussen"},"advices":["Let op! Ook tussen Amersfoort Centraal en Deventer zijn er werkzaamheden.","Tussen Utrecht C. en Baarn/Amersfoort C. reist u via Hilversum","Tussen Utrecht C. en Deventer reist u via Arnhem C."]},{"start":"2023-07-29T03:00:00+0200","end":"2023-07-31T02:00:00+0200","period":"Zaterdag 29-07-2023 03:00 uur t/m maandag 31-07-2023 02:00 uur.","situation":{"label":"Door werkzaamheden: tussen Utrecht Overvecht en Amersfoort Centraal rijden er bussen en tussen Utrecht Overvecht en Baarn rijden er bussen."},"cause":{"label":"werkzaamheden"},"additionalTravelTime":{"label":"De extra reistijd is ongeveer 30 minuten.","shortLabel":"Extra reistijd 30 min.","minimumDurationInMinutes":30,"maximumDurationInMinutes":30},"alternativeTransport":{"label":"er rijden stop- en snelbussen","shortLabel":"er rijden stop- en snelbussen"},"advices":["Tussen Utrecht C. en Baarn/Amersfoort C. reist u via Hilversum","Tussen Utrecht C. en Deventer reist u via Arnhem C."]}],"alternativeTransportTimespans":[{"start":"2023-07-26T04:00:00+0200","end":"2023-07-29T03:00:00+0200","alternativeTransport":{"location":[{"station":{"uicCode":"8400620","stationCode":"UTO","name":"Utrecht Overvecht","coordinate":{"lat":52.1100006103516,"lng":5.12472200393677},"countryCode":"NL"},"description":"vanaf de bushalte"},{"station":{"uicCode":"8400114","stationCode":"BHV","name":"Bilthoven","coordinate":{"lat":52.1300010681152,"lng":5.20388889312744},"countryCode":"NL"},"description":"vanaf de bushalte"},{"station":{"uicCode":"8400179","stationCode":"DLD","name":"Den Dolder","coordinate":{"lat":52.1402778625488,"lng":5.24277782440186},"countryCode":"NL"},"description":"vanaf de bushalte"},{"station":{"uicCode":"8400055","stationCode":"AMF","name":"Amersfoort Centraal","coordinate":{"lat":52.1538887023926,"lng":5.37055540084839},"countryCode":"NL"},"description":"vanaf het busstation, centrumzijde"}],"label":"Er rijden stopbussen tussen Utrecht Overvecht, Bilthoven, Den Dolder en Amersfoort Centraal.","shortLabel":"Er rijden stopbussen Overvecht - Bilthoven - Den Dolder - Amersfoort C."}},{"start":"2023-07-26T04:00:00+0200","end":"2023-07-29T03:00:00+0200","alternativeTransport":{"location":[{"station":{"uicCode":"8400620","stationCode":"UTO","name":"Utrecht Overvecht","coordinate":{"lat":52.1100006103516,"lng":5.12472200393677},"countryCode":"NL"},"description":"vanaf de bushalte"},{"station":{"uicCode":"8400114","stationCode":"BHV","name":"Bilthoven","coordinate":{"lat":52.1300010681152,"lng":5.20388889312744},"countryCode":"NL"},"description":"vanaf de bushalte"},{"station":{"uicCode":"8400179","stationCode":"DLD","name":"Den Dolder","coordinate":{"lat":52.1402778625488,"lng":5.24277782440186},"countryCode":"NL"},"description":"vanaf de bushalte"},{"station":{"uicCode":"8400571","stationCode":"STZ","name":"Soest Zuid","coordinate":{"lat":52.1652793884277,"lng":5.30305576324463},"countryCode":"NL"},"description":"vanaf het busstation"},{"station":{"uicCode":"8400567","stationCode":"ST","name":"Soest","coordinate":{"lat":52.1733322143555,"lng":5.30999994277954},"countryCode":"NL"},"description":"vanaf de bushalte"}],"label":"Er rijden stopbussen tussen Utrecht Overvecht, Bilthoven, Den Dolder, Soest Zuid en Soest.","shortLabel":"Er rijden stopbussen Overvecht - Bilthoven - Den Dolder - Soest Zuid - Soest"}},{"start":"2023-07-27T00:15:00+0200","end":"2023-07-27T01:10:00+0200","alternativeTransport":{"location":[{"station":{"uicCode":"8400621","stationCode":"UT","name":"Utrecht Centraal","coordinate":{"lat":52.0888900756836,"lng":5.11027765274048},"countryCode":"NL"},"description":"vanaf de Jaarbeurszijde"},{"station":{"uicCode":"8400055","stationCode":"AMF","name":"Amersfoort Centraal","coordinate":{"lat":52.1538887023926,"lng":5.37055540084839},"countryCode":"NL"},"description":"vanaf het busstation, centrumzijde"}],"label":"Er rijden snelbussen tussen Utrecht Centraal en Amersfoort Centraal.","shortLabel":"Er rijden snelbussen Utrecht C. - Amersfoort C."}},{"start":"2023-07-28T00:15:00+0200","end":"2023-07-28T01:10:00+0200","alternativeTransport":{"location":[{"station":{"uicCode":"8400621","stationCode":"UT","name":"Utrecht Centraal","coordinate":{"lat":52.0888900756836,"lng":5.11027765274048},"countryCode":"NL"},"description":"vanaf de Jaarbeurszijde"},{"station":{"uicCode":"8400055","stationCode":"AMF","name":"Amersfoort Centraal","coordinate":{"lat":52.1538887023926,"lng":5.37055540084839},"countryCode":"NL"},"description":"vanaf het busstation, centrumzijde"}],"label":"Er rijden snelbussen tussen Utrecht Centraal en Amersfoort Centraal.","shortLabel":"Er rijden snelbussen Utrecht C. - Amersfoort C."}},{"start":"2023-07-29T00:15:00+0200","end":"2023-07-29T03:10:00+0200","alternativeTransport":{"location":[{"station":{"uicCode":"8400621","stationCode":"UT","name":"Utrecht Centraal","coordinate":{"lat":52.0888900756836,"lng":5.11027765274048},"countryCode":"NL"},"description":"vanaf de Jaarbeurszijde"},{"station":{"uicCode":"8400055","stationCode":"AMF","name":"Amersfoort Centraal","coordinate":{"lat":52.1538887023926,"lng":5.37055540084839},"countryCode":"NL"},"description":"vanaf het busstation, centrumzijde"}],"label":"Er rijden snelbussen tussen Utrecht Centraal en Amersfoort Centraal.","shortLabel":"Er rijden snelbussen Utrecht C. - Amersfoort C."}},{"start":"2023-07-29T03:00:00+0200","end":"2023-07-31T02:00:00+0200","alternativeTransport":{"location":[{"station":{"uicCode":"8400620","stationCode":"UTO","name":"Utrecht Overvecht","coordinate":{"lat":52.1100006103516,"lng":5.12472200393677},"countryCode":"NL"},"description":"vanaf de bushalte"},{"station":{"uicCode":"8400114","stationCode":"BHV","name":"Bilthoven","coordinate":{"lat":52.1300010681152,"lng":5.20388889312744},"countryCode":"NL"},"description":"vanaf de bushalte"},{"station":{"uicCode":"8400179","stationCode":"DLD","name":"Den Dolder","coordinate":{"lat":52.1402778625488,"lng":5.24277782440186},"countryCode":"NL"},"description":"vanaf de bushalte"},{"station":{"uicCode":"8400055","stationCode":"AMF","name":"Amersfoort Centraal","coordinate":{"lat":52.1538887023926,"lng":5.37055540084839},"countryCode":"NL"},"description":"vanaf het busstation, centrumzijde"}],"label":"Er rijden stopbussen tussen Utrecht Overvecht, Bilthoven, Den Dolder en Amersfoort Centraal.","shortLabel":"Er rijden stopbussen Overvecht - Bilthoven - Den Dolder - Amersfoort C."}},{"start":"2023-07-29T03:00:00+0200","end":"2023-07-31T02:00:00+0200","alternativeTransport":{"location":[{"station":{"uicCode":"8400620","stationCode":"UTO","name":"Utrecht Overvecht","coordinate":{"lat":52.1100006103516,"lng":5.12472200393677},"countryCode":"NL"},"description":"vanaf de bushalte"},{"station":{"uicCode":"8400114","stationCode":"BHV","name":"Bilthoven","coordinate":{"lat":52.1300010681152,"lng":5.20388889312744},"countryCode":"NL"},"description":"vanaf de bushalte"},{"station":{"uicCode":"8400179","stationCode":"DLD","name":"Den Dolder","coordinate":{"lat":52.1402778625488,"lng":5.24277782440186},"countryCode":"NL"},"description":"vanaf de bushalte"},{"station":{"uicCode":"8400571","stationCode":"STZ","name":"Soest Zuid","coordinate":{"lat":52.1652793884277,"lng":5.30305576324463},"countryCode":"NL"},"description":"vanaf het busstation"},{"station":{"uicCode":"8400567","stationCode":"ST","name":"Soest","coordinate":{"lat":52.1733322143555,"lng":5.30999994277954},"countryCode":"NL"},"description":"vanaf de bushalte"},{"station":{"uicCode":"8400569","stationCode":"SD","name":"Soestdijk","coordinate":{"lat":52.1836128234863,"lng":5.30000019073486},"countryCode":"NL"},"description":"vanaf de bushalte"},{"station":{"uicCode":"8400086","stationCode":"BRN","name":"Baarn","coordinate":{"lat":52.2083320617676,"lng":5.28083324432373},"countryCode":"NL"},"description":"vanaf het Stationsplein"}],"label":"Er rijden stopbussen tussen Utrecht Overvecht, Bilthoven, Den Dolder, Soest Zuid, Soest, Soestdijk en Baarn.","shortLabel":"Er rijden stopbussen Overvecht - Bilthoven - Den Dolder - Soest Zuid - Soest - Soestdijk - Baarn"}},{"start":"2023-07-30T00:15:00+0200","end":"2023-07-30T03:10:00+0200","alternativeTransport":{"location":[{"station":{"uicCode":"8400621","stationCode":"UT","name":"Utrecht Centraal","coordinate":{"lat":52.0888900756836,"lng":5.11027765274048},"countryCode":"NL"},"description":"vanaf de Jaarbeurszijde"},{"station":{"uicCode":"8400055","stationCode":"AMF","name":"Amersfoort Centraal","coordinate":{"lat":52.1538887023926,"lng":5.37055540084839},"countryCode":"NL"},"description":"vanaf het busstation, centrumzijde"}],"label":"Er rijden snelbussen tussen Utrecht Centraal en Amersfoort Centraal.","shortLabel":"Er rijden snelbussen Utrecht C. - Amersfoort C."}},{"start":"2023-07-31T00:15:00+0200","end":"2023-07-31T01:10:00+0200","alternativeTransport":{"location":[{"station":{"uicCode":"8400621","stationCode":"UT","name":"Utrecht Centraal","coordinate":{"lat":52.0888900756836,"lng":5.11027765274048},"countryCode":"NL"},"description":"vanaf de Jaarbeurszijde"},{"station":{"uicCode":"8400055","stationCode":"AMF","name":"Amersfoort Centraal","coordinate":{"lat":52.1538887023926,"lng":5.37055540084839},"countryCode":"NL"},"description":"vanaf het busstation, centrumzijde"}],"label":"Er rijden snelbussen tussen Utrecht Centraal en Amersfoort Centraal.","shortLabel":"Er rijden snelbussen Utrecht C. - Amersfoort C."}}]},{"id":"7003592","type":"MAINTENANCE","registrationTime":"2023-06-30T11:17:59+0200","releaseTime":"2023-06-30T11:17:59+0200","local":false,"title":"Amsterdam - Brussel - London (HSL).","titleSections":[[{"type":"STATION","value":"Amsterdam C."},{"type":"ICON","value":"MAINTENANCE"},{"type":"STATION","value":"Rotterdam C."},{"type":"STATION","value":"London St. P Int"}]],"isActive":true,"start":"2023-07-26T06:00:00+0200","end":"2023-07-27T19:00:00+0200","period":"Woensdag 26-07-2023 06:00 uur t/m donderdag 27-07-2023 19:00 uur.","impact":{"value":2},"publicationSections":[{"section":{"stations":[{"uicCode":"8400058","stationCode":"ASD","name":"Amsterdam Centraal","coordinate":{"lat":52.3788871765137,"lng":4.90027761459351},"countryCode":"NL"},{"uicCode":"8400059","stationCode":"ASS","name":"Amsterdam Sloterdijk","coordinate":{"lat":52.3888893127441,"lng":4.83777761459351},"countryCode":"NL"},{"uicCode":"8400079","stationCode":"ASDL","name":"Amsterdam Lelylaan","coordinate":{"lat":52.3577766418457,"lng":4.83388900756836},"countryCode":"NL"},{"uicCode":"8400561","stationCode":"SHL","name":"Schiphol Airport","coordinate":{"lat":52.3094444274902,"lng":4.76194429397583},"countryCode":"NL"},{"uicCode":"8400332","stationCode":"HFD","name":"Hoofddorp","coordinate":{"lat":52.2933349609375,"lng":4.70055532455444},"countryCode":"NL"},{"uicCode":"8400530","stationCode":"RTD","name":"Rotterdam Centraal","coordinate":{"lat":51.9249992370605,"lng":4.46888875961304},"countryCode":"NL"},{"uicCode":"8400529","stationCode":"RTB","name":"Rotterdam Blaak","coordinate":{"lat":51.9202766418457,"lng":4.48888874053955},"countryCode":"NL"},{"uicCode":"8400533","stationCode":"RTZ","name":"Rotterdam Zuid","coordinate":{"lat":51.9044456481934,"lng":4.51027774810791},"countryCode":"NL"},{"uicCode":"8400542","stationCode":"RLB","name":"Rotterdam Lombardijen","coordinate":{"lat":51.8800010681152,"lng":4.53138875961304},"countryCode":"NL"},{"uicCode":"8400132","stationCode":"BDPB","name":"Breda-Prinsenbeek","coordinate":{"lat":51.606388092041,"lng":4.72083330154419},"countryCode":"NL"},{"uicCode":"8400131","stationCode":"BD","name":"Breda","coordinate":{"lat":51.5955543518066,"lng":4.78000020980835},"countryCode":"NL"},{"uicCode":"8821105","stationCode":"NDKP","name":"Noorderkempen","coordinate":{"lat":51.358088,"lng":4.633977},"countryCode":"B"},{"uicCode":"8821063","stationCode":"ATWLB","name":"Antwerpen-Luchtbal","coordinate":{"lat":51.2449375,"lng":4.4251543},"countryCode":"B"},{"uicCode":"8821006","stationCode":"ATW","name":"Antwerpen-Centraal","coordinate":{"lat":51.21686,"lng":4.421242},"countryCode":"B"},{"uicCode":"8821121","stationCode":"BERCH","name":"Antwerpen-Berchem","coordinate":{"lat":51.198914,"lng":4.4332},"countryCode":"B"},{"uicCode":"8822004","stationCode":"MECH","name":"Mechelen","coordinate":{"lat":51.01758,"lng":4.48313},"countryCode":"B"},{"uicCode":"8812005","stationCode":"BRUSN","name":"Brussel-Noord","coordinate":{"lat":50.859658,"lng":4.360854},"countryCode":"B"},{"uicCode":"8813003","stationCode":"BRUSC","name":"Brussel-Centraal","coordinate":{"lat":50.845175,"lng":4.357131},"countryCode":"B"},{"uicCode":"8814001","stationCode":"BRUSZ","name":"Brussel-Zuid Midi","coordinate":{"lat":50.836782,"lng":4.336922},"countryCode":"B"},{"uicCode":"8722326","stationCode":"LILLEE","name":"Lille Europe","coordinate":{"lat":50.639444,"lng":3.074722},"countryCode":"F"},{"uicCode":"7015400","stationCode":"STP","name":"London St. Pancras Int.","coordinate":{"lat":51.531437,"lng":-0.126136},"countryCode":"GB"}],"direction":"ONE_WAY"},"consequence":{"section":{"stations":[{"uicCode":"8400058","stationCode":"ASD","name":"Amsterdam Centraal","coordinate":{"lat":52.3788871765137,"lng":4.90027761459351},"countryCode":"NL"},{"uicCode":"8400059","stationCode":"ASS","name":"Amsterdam Sloterdijk","coordinate":{"lat":52.3888893127441,"lng":4.83777761459351},"countryCode":"NL"},{"uicCode":"8400079","stationCode":"ASDL","name":"Amsterdam Lelylaan","coordinate":{"lat":52.3577766418457,"lng":4.83388900756836},"countryCode":"NL"},{"uicCode":"8400561","stationCode":"SHL","name":"Schiphol Airport","coordinate":{"lat":52.3094444274902,"lng":4.76194429397583},"countryCode":"NL"},{"uicCode":"8400332","stationCode":"HFD","name":"Hoofddorp","coordinate":{"lat":52.2933349609375,"lng":4.70055532455444},"countryCode":"NL"},{"uicCode":"8400530","stationCode":"RTD","name":"Rotterdam Centraal","coordinate":{"lat":51.9249992370605,"lng":4.46888875961304},"countryCode":"NL"}],"direction":"ONE_WAY"},"description":"aangepaste internationale dienstregeling","level":"LESS_TRAINS"},"sectionType":"HSL"}],"timespans":[{"start":"2023-07-26T06:00:00+0200","end":"2023-07-27T19:00:00+0200","period":"Woensdag 26-07-2023 06:00 uur t/m donderdag 27-07-2023 19:00 uur.","situation":{"label":"Door werkzaamheden: van Amsterdam Centraal naar Rotterdam Centraal is de internationale dienstregeling aangepast."},"cause":{"label":"werkzaamheden"},"advices":["Eurostar stopt niet in Rotterdam Centraal."]}],"alternativeTransportTimespans":[]},{"id":"7003793","type":"MAINTENANCE","registrationTime":"2023-07-27T09:31:12+0200","releaseTime":"2023-07-27T09:31:12+0200","local":false,"title":"Amsterdam - Rotterdam - Brussel (HSL).","titleSections":[[{"type":"STATION","value":"Amsterdam C."},{"type":"STATION","value":"Schiphol Airport"},{"type":"ICON","value":"MAINTENANCE"},{"type":"STATION","value":"Breda"},{"type":"STATION","value":"Brussel-Z. Midi"}]],"isActive":true,"start":"2023-07-26T06:00:00+0200","end":"2023-07-27T23:59:00+0200","period":"Woensdag 26-07-2023 06:00 uur t/m donderdag 27-07-2023 23:59 uur.","impact":{"value":2},"summaryAdditionalTravelTime":{"label":"U heeft geen langere reistijd.","shortLabel":"Geen extra reistijd"},"publicationSections":[{"section":{"stations":[{"uicCode":"8400058","stationCode":"ASD","name":"Amsterdam Centraal","coordinate":{"lat":52.3788871765137,"lng":4.90027761459351},"countryCode":"NL"},{"uicCode":"8400059","stationCode":"ASS","name":"Amsterdam Sloterdijk","coordinate":{"lat":52.3888893127441,"lng":4.83777761459351},"countryCode":"NL"},{"uicCode":"8400079","stationCode":"ASDL","name":"Amsterdam Lelylaan","coordinate":{"lat":52.3577766418457,"lng":4.83388900756836},"countryCode":"NL"},{"uicCode":"8400561","stationCode":"SHL","name":"Schiphol Airport","coordinate":{"lat":52.3094444274902,"lng":4.76194429397583},"countryCode":"NL"},{"uicCode":"8400332","stationCode":"HFD","name":"Hoofddorp","coordinate":{"lat":52.2933349609375,"lng":4.70055532455444},"countryCode":"NL"},{"uicCode":"8400530","stationCode":"RTD","name":"Rotterdam Centraal","coordinate":{"lat":51.9249992370605,"lng":4.46888875961304},"countryCode":"NL"},{"uicCode":"8400529","stationCode":"RTB","name":"Rotterdam Blaak","coordinate":{"lat":51.9202766418457,"lng":4.48888874053955},"countryCode":"NL"},{"uicCode":"8400533","stationCode":"RTZ","name":"Rotterdam Zuid","coordinate":{"lat":51.9044456481934,"lng":4.51027774810791},"countryCode":"NL"},{"uicCode":"8400542","stationCode":"RLB","name":"Rotterdam Lombardijen","coordinate":{"lat":51.8800010681152,"lng":4.53138875961304},"countryCode":"NL"},{"uicCode":"8400132","stationCode":"BDPB","name":"Breda-Prinsenbeek","coordinate":{"lat":51.606388092041,"lng":4.72083330154419},"countryCode":"NL"},{"uicCode":"8400131","stationCode":"BD","name":"Breda","coordinate":{"lat":51.5955543518066,"lng":4.78000020980835},"countryCode":"NL"},{"uicCode":"8821105","stationCode":"NDKP","name":"Noorderkempen","coordinate":{"lat":51.358088,"lng":4.633977},"countryCode":"B"},{"uicCode":"8821063","stationCode":"ATWLB","name":"Antwerpen-Luchtbal","coordinate":{"lat":51.2449375,"lng":4.4251543},"countryCode":"B"},{"uicCode":"8821006","stationCode":"ATW","name":"Antwerpen-Centraal","coordinate":{"lat":51.21686,"lng":4.421242},"countryCode":"B"},{"uicCode":"8821121","stationCode":"BERCH","name":"Antwerpen-Berchem","coordinate":{"lat":51.198914,"lng":4.4332},"countryCode":"B"},{"uicCode":"8822004","stationCode":"MECH","name":"Mechelen","coordinate":{"lat":51.01758,"lng":4.48313},"countryCode":"B"},{"uicCode":"8812005","stationCode":"BRUSN","name":"Brussel-Noord","coordinate":{"lat":50.859658,"lng":4.360854},"countryCode":"B"},{"uicCode":"8813003","stationCode":"BRUSC","name":"Brussel-Centraal","coordinate":{"lat":50.845175,"lng":4.357131},"countryCode":"B"},{"uicCode":"8814001","stationCode":"BRUSZ","name":"Brussel-Zuid Midi","coordinate":{"lat":50.836782,"lng":4.336922},"countryCode":"B"}],"direction":"ONE_WAY"},"consequence":{"section":{"stations":[{"uicCode":"8400561","stationCode":"SHL","name":"Schiphol Airport","coordinate":{"lat":52.3094444274902,"lng":4.76194429397583},"countryCode":"NL"},{"uicCode":"8400332","stationCode":"HFD","name":"Hoofddorp","coordinate":{"lat":52.2933349609375,"lng":4.70055532455444},"countryCode":"NL"},{"uicCode":"8400530","stationCode":"RTD","name":"Rotterdam Centraal","coordinate":{"lat":51.9249992370605,"lng":4.46888875961304},"countryCode":"NL"},{"uicCode":"8400529","stationCode":"RTB","name":"Rotterdam Blaak","coordinate":{"lat":51.9202766418457,"lng":4.48888874053955},"countryCode":"NL"},{"uicCode":"8400533","stationCode":"RTZ","name":"Rotterdam Zuid","coordinate":{"lat":51.9044456481934,"lng":4.51027774810791},"countryCode":"NL"},{"uicCode":"8400542","stationCode":"RLB","name":"Rotterdam Lombardijen","coordinate":{"lat":51.8800010681152,"lng":4.53138875961304},"countryCode":"NL"},{"uicCode":"8400132","stationCode":"BDPB","name":"Breda-Prinsenbeek","coordinate":{"lat":51.606388092041,"lng":4.72083330154419},"countryCode":"NL"},{"uicCode":"8400131","stationCode":"BD","name":"Breda","coordinate":{"lat":51.5955543518066,"lng":4.78000020980835},"countryCode":"NL"}],"direction":"ONE_WAY"},"description":"dienstregeling aangepast","level":"LESS_TRAINS"},"sectionType":"HSL"}],"timespans":[{"start":"2023-07-26T06:00:00+0200","end":"2023-07-27T23:59:00+0200","period":"Woensdag 26-07-2023 06:00 uur t/m donderdag 27-07-2023 23:59 uur.","situation":{"label":"Door een aangepaste dienstregeling: van Schiphol Airport naar Breda is de dienstregeling aangepast."},"cause":{"label":"aangepaste dienstregeling"},"additionalTravelTime":{"label":"U heeft geen langere reistijd.","shortLabel":"Geen extra reistijd"},"advices":["Intercity Brussel naar Brussel Zuid stopt niet in Rotterdam Centraal.","Van Rotterdam C. naar Antwerpen-C./Brussel-Z. Midi reist u via Breda"]}],"alternativeTransportTimespans":[]},{"id":"7003759","type":"MAINTENANCE","registrationTime":"2023-07-13T09:55:14+0200","releaseTime":"2023-07-13T09:55:14+0200","local":false,"title":"Venlo - Mönchengladbach - Düsseldorf.","titleSections":[[{"type":"STATION","value":"Venlo"},{"type":"STATION","value":"Mönchengladbach"},{"type":"ICON","value":"MAINTENANCE"},{"type":"STATION","value":"Düsseldorf Hbf"}]],"isActive":true,"start":"2023-07-27T05:00:00+0200","end":"2023-07-30T23:00:00+0200","period":"Donderdag 27-07-2023 05:00 uur t/m zondag 30-07-2023 23:00 uur.","impact":{"value":2},"summaryAdditionalTravelTime":{"label":"U heeft geen langere reistijd.","shortLabel":"Geen extra reistijd"},"publicationSections":[{"section":{"stations":[{"uicCode":"8400644","stationCode":"VL","name":"Venlo","coordinate":{"lat":51.3636093139648,"lng":6.17277765274048},"countryCode":"NL"},{"uicCode":"8015130","stationCode":"KN","name":"Kaldenkirchen","coordinate":{"lat":51.327184,"lng":6.203225},"countryCode":"D"},{"uicCode":"8015129","stationCode":"KBRY","name":"Breyell","coordinate":{"lat":51.294615,"lng":6.241174},"countryCode":"D"},{"uicCode":"8015128","stationCode":"KBOI","name":"Boisheim","coordinate":{"lat":51.274323,"lng":6.274591},"countryCode":"D"},{"uicCode":"8015125","stationCode":"KDUL","name":"Dülken","coordinate":{"lat":51.257149,"lng":6.33793},"countryCode":"D"},{"uicCode":"8015122","stationCode":"VIERS","name":"Viersen","coordinate":{"lat":51.25516,"lng":6.40388},"countryCode":"D"},{"uicCode":"8015165","stationCode":"MCGB","name":"Mönchengladbach Hbf","coordinate":{"lat":51.196583,"lng":6.446111},"countryCode":"D"},{"uicCode":"8015149","stationCode":"NEUSS","name":"Neuss Hbf","coordinate":{"lat":51.20444,"lng":6.68468},"countryCode":"D"},{"uicCode":"8008094","stationCode":"DUSSEL","name":"Düsseldorf Hbf","coordinate":{"lat":51.220146,"lng":6.793137},"countryCode":"D"}],"direction":"BOTH"},"consequence":{"section":{"stations":[{"uicCode":"8015165","stationCode":"MCGB","name":"Mönchengladbach Hbf","coordinate":{"lat":51.196583,"lng":6.446111},"countryCode":"D"},{"uicCode":"8015149","stationCode":"NEUSS","name":"Neuss Hbf","coordinate":{"lat":51.20444,"lng":6.68468},"countryCode":"D"},{"uicCode":"8008094","stationCode":"DUSSEL","name":"Düsseldorf Hbf","coordinate":{"lat":51.220146,"lng":6.793137},"countryCode":"D"}],"direction":"ONE_WAY"},"description":"dienstregeling aangepast","level":"LESS_TRAINS"},"sectionType":"NEIGHBORING_COUNTRY"}],"timespans":[{"start":"2023-07-27T05:00:00+0200","end":"2023-07-30T23:00:00+0200","period":"Donderdag 27-07-2023 05:00 uur t/m zondag 30-07-2023 23:00 uur.","situation":{"label":"Door werkzaamheden: tussen Mönchengladbach Hbf en Düsseldorf Hbf is de dienstregeling aangepast."},"cause":{"label":"werkzaamheden"},"additionalTravelTime":{"label":"U heeft geen langere reistijd.","shortLabel":"Geen extra reistijd"},"advices":[]}],"alternativeTransportTimespans":[]},{"id":"7003680","type":"MAINTENANCE","registrationTime":"2023-07-07T10:40:24+0200","releaseTime":"2023-07-07T10:40:24+0200","local":false,"title":"Alkmaar - Den Helder; Alkmaar - Hoorn.; Haarlem - Alkmaar","titleSections":[[{"type":"STATION","value":"Alkmaar"},{"type":"ICON","value":"MAINTENANCE"},{"type":"STATION","value":"Heerhugowaard"},{"type":"STATION","value":"Den Helder"}],[{"type":"STATION","value":"Alkmaar"},{"type":"ICON","value":"MAINTENANCE"},{"type":"STATION","value":"Heerhugowaard"},{"type":"STATION","value":"Hoorn"}],[{"type":"STATION","value":"Haarlem"},{"type":"STATION","value":"Uitgeest"},{"type":"ICON","value":"MAINTENANCE"},{"type":"STATION","value":"Alkmaar"}]],"isActive":false,"start":"2023-07-28T05:00:00+0200","end":"2023-07-31T01:45:00+0200","period":"Vrijdag 28-07-2023 05:00 uur t/m maandag 31-07-2023 01:45 uur.","impact":{"value":4},"summaryAdditionalTravelTime":{"label":"De extra reistijd kan oplopen tot 30 minuten.","shortLabel":"Extra reistijd tot 30 min.","minimumDurationInMinutes":15,"maximumDurationInMinutes":30},"publicationSections":[{"section":{"stations":[{"uicCode":"8400050","stationCode":"AMR","name":"Alkmaar","coordinate":{"lat":52.6377792358398,"lng":4.73972225189209},"countryCode":"NL"},{"uicCode":"8400052","stationCode":"AMRN","name":"Alkmaar Noord","coordinate":{"lat":52.6438903808594,"lng":4.76416683197022},"countryCode":"NL"},{"uicCode":"8400306","stationCode":"HWD","name":"Heerhugowaard","coordinate":{"lat":52.6697235107422,"lng":4.82277774810791},"countryCode":"NL"},{"uicCode":"8400549","stationCode":"SGN","name":"Schagen","coordinate":{"lat":52.7844429016113,"lng":4.80527782440186},"countryCode":"NL"},{"uicCode":"8400065","stationCode":"ANA","name":"Anna Paulowna","coordinate":{"lat":52.8672218322754,"lng":4.81111097335815},"countryCode":"NL"},{"uicCode":"8400303","stationCode":"HDRZ","name":"Den Helder Zuid","coordinate":{"lat":52.9324989318848,"lng":4.76416683197022},"countryCode":"NL"},{"uicCode":"8400311","stationCode":"HDR","name":"Den Helder","coordinate":{"lat":52.9552764892578,"lng":4.76111125946045},"countryCode":"NL"}],"direction":"BOTH"},"consequence":{"section":{"stations":[{"uicCode":"8400050","stationCode":"AMR","name":"Alkmaar","coordinate":{"lat":52.6377792358398,"lng":4.73972225189209},"countryCode":"NL"},{"uicCode":"8400052","stationCode":"AMRN","name":"Alkmaar Noord","coordinate":{"lat":52.6438903808594,"lng":4.76416683197022},"countryCode":"NL"},{"uicCode":"8400306","stationCode":"HWD","name":"Heerhugowaard","coordinate":{"lat":52.6697235107422,"lng":4.82277774810791},"countryCode":"NL"}],"direction":"ONE_WAY"},"description":"rijden bussen","level":"LESS_TRAINS"},"sectionType":"NL"},{"section":{"stations":[{"uicCode":"8400050","stationCode":"AMR","name":"Alkmaar","coordinate":{"lat":52.6377792358398,"lng":4.73972225189209},"countryCode":"NL"},{"uicCode":"8400052","stationCode":"AMRN","name":"Alkmaar Noord","coordinate":{"lat":52.6438903808594,"lng":4.76416683197022},"countryCode":"NL"},{"uicCode":"8400306","stationCode":"HWD","name":"Heerhugowaard","coordinate":{"lat":52.6697235107422,"lng":4.82277774810791},"countryCode":"NL"},{"uicCode":"8400480","stationCode":"OBD","name":"Obdam","coordinate":{"lat":52.6780548095703,"lng":4.90722227096558},"countryCode":"NL"},{"uicCode":"8400337","stationCode":"HN","name":"Hoorn","coordinate":{"lat":52.6447219848633,"lng":5.05555534362793},"countryCode":"NL"}],"direction":"BOTH"},"consequence":{"section":{"stations":[{"uicCode":"8400050","stationCode":"AMR","name":"Alkmaar","coordinate":{"lat":52.6377792358398,"lng":4.73972225189209},"countryCode":"NL"},{"uicCode":"8400052","stationCode":"AMRN","name":"Alkmaar Noord","coordinate":{"lat":52.6438903808594,"lng":4.76416683197022},"countryCode":"NL"},{"uicCode":"8400306","stationCode":"HWD","name":"Heerhugowaard","coordinate":{"lat":52.6697235107422,"lng":4.82277774810791},"countryCode":"NL"}],"direction":"ONE_WAY"},"description":"rijden bussen","level":"LESS_TRAINS"},"sectionType":"NL"},{"section":{"stations":[{"uicCode":"8400285","stationCode":"HLM","name":"Haarlem","coordinate":{"lat":52.3877792358398,"lng":4.63833332061768},"countryCode":"NL"},{"uicCode":"8400118","stationCode":"BLL","name":"Bloemendaal","coordinate":{"lat":52.404167175293,"lng":4.62750005722046},"countryCode":"NL"},{"uicCode":"8400544","stationCode":"SPTZ","name":"Santpoort Zuid","coordinate":{"lat":52.4197235107422,"lng":4.63138866424561},"countryCode":"NL"},{"uicCode":"8400543","stationCode":"SPTN","name":"Santpoort Noord","coordinate":{"lat":52.4338874816895,"lng":4.63250017166138},"countryCode":"NL"},{"uicCode":"8400183","stationCode":"DRH","name":"Driehuis","coordinate":{"lat":52.4425010681152,"lng":4.63805532455444},"countryCode":"NL"},{"uicCode":"8400113","stationCode":"BV","name":"Beverwijk","coordinate":{"lat":52.4783325195313,"lng":4.65666675567627},"countryCode":"NL"},{"uicCode":"8400317","stationCode":"HK","name":"Heemskerk","coordinate":{"lat":52.4952774047852,"lng":4.68694448471069},"countryCode":"NL"},{"uicCode":"8400615","stationCode":"UTG","name":"Uitgeest","coordinate":{"lat":52.5216674804687,"lng":4.70166683197022},"countryCode":"NL"},{"uicCode":"8400151","stationCode":"CAS","name":"Castricum","coordinate":{"lat":52.5458335876465,"lng":4.65861129760742},"countryCode":"NL"},{"uicCode":"8400309","stationCode":"HLO","name":"Heiloo","coordinate":{"lat":52.5994453430176,"lng":4.70055532455444},"countryCode":"NL"},{"uicCode":"8400050","stationCode":"AMR","name":"Alkmaar","coordinate":{"lat":52.6377792358398,"lng":4.73972225189209},"countryCode":"NL"}],"direction":"BOTH"},"consequence":{"section":{"stations":[{"uicCode":"8400615","stationCode":"UTG","name":"Uitgeest","coordinate":{"lat":52.5216674804687,"lng":4.70166683197022},"countryCode":"NL"},{"uicCode":"8400151","stationCode":"CAS","name":"Castricum","coordinate":{"lat":52.5458335876465,"lng":4.65861129760742},"countryCode":"NL"},{"uicCode":"8400309","stationCode":"HLO","name":"Heiloo","coordinate":{"lat":52.5994453430176,"lng":4.70055532455444},"countryCode":"NL"},{"uicCode":"8400050","stationCode":"AMR","name":"Alkmaar","coordinate":{"lat":52.6377792358398,"lng":4.73972225189209},"countryCode":"NL"}],"direction":"ONE_WAY"},"description":"rijden bussen","level":"LESS_TRAINS"},"sectionType":"NL"}],"timespans":[{"start":"2023-07-28T05:00:00+0200","end":"2023-07-29T00:00:00+0200","period":"Vrijdag 28-07-2023 05:00 uur t/m zaterdag 29-07-2023 00:00 uur.","situation":{"label":"Door werkzaamheden: tussen Alkmaar en Heerhugowaard rijden er bussen."},"cause":{"label":"werkzaamheden"},"additionalTravelTime":{"label":"De extra reistijd is ongeveer 15 minuten.","shortLabel":"Extra reistijd 15 min.","minimumDurationInMinutes":15,"maximumDurationInMinutes":15},"advices":["Treinen stoppen niet in Heiloo. Reis met de NS-bus vanaf Castricum of vanaf Alkmaar.","Tussen Zaandam en Heerhugowaard reist u via Hoorn"]},{"start":"2023-07-29T00:00:00+0200","end":"2023-07-31T01:45:00+0200","period":"Zaterdag 29-07-2023 00:00 uur t/m maandag 31-07-2023 01:45 uur.","situation":{"label":"Door werkzaamheden: tussen Alkmaar en Heerhugowaard rijden er bussen en tussen Uitgeest en Alkmaar rijden er bussen."},"cause":{"label":"werkzaamheden"},"additionalTravelTime":{"label":"De extra reistijd ligt tussen 15 en 30 minuten.","shortLabel":"Extra reistijd: 15-30 min.","minimumDurationInMinutes":15,"maximumDurationInMinutes":30},"alternativeTransport":{"label":"er rijden stopbussen","shortLabel":"er rijden stopbussen"},"advices":["Tussen Zaandam en Heerhugowaard reist u via Hoorn"]}],"alternativeTransportTimespans":[{"start":"2023-07-28T05:30:00+0200","end":"2023-07-29T01:25:00+0200","alternativeTransport":{"location":[{"station":{"uicCode":"8400151","stationCode":"CAS","name":"Castricum","coordinate":{"lat":52.5458335876465,"lng":4.65861129760742},"countryCode":"NL"},"description":"vanaf de voorzijde van het station"},{"station":{"uicCode":"8400309","stationCode":"HLO","name":"Heiloo","coordinate":{"lat":52.5994453430176,"lng":4.70055532455444},"countryCode":"NL"},"description":"vanaf de voorzijde van het station"},{"station":{"uicCode":"8400050","stationCode":"AMR","name":"Alkmaar","coordinate":{"lat":52.6377792358398,"lng":4.73972225189209},"countryCode":"NL"},"description":"vanaf de achterzijde van het station"},{"station":{"uicCode":"8400052","stationCode":"AMRN","name":"Alkmaar Noord","coordinate":{"lat":52.6438903808594,"lng":4.76416683197022},"countryCode":"NL"},"description":"vanaf het busstation"},{"station":{"uicCode":"8400306","stationCode":"HWD","name":"Heerhugowaard","coordinate":{"lat":52.6697235107422,"lng":4.82277774810791},"countryCode":"NL"},"description":"vanaf het busstation"}],"label":"Er rijden stopbussen tussen Castricum, Heiloo, Alkmaar, Alkmaar Noord en Heerhugowaard.","shortLabel":"Er rijden stopbussen Castricum - Heiloo - Alkmaar - Alkmaar Noord - Heerhugowaard"}},{"start":"2023-07-29T00:00:00+0200","end":"2023-07-29T02:15:00+0200","alternativeTransport":{"location":[{"station":{"uicCode":"8400615","stationCode":"UTG","name":"Uitgeest","coordinate":{"lat":52.5216674804687,"lng":4.70166683197022},"countryCode":"NL"},"description":"vanaf de achterzijde van het station"},{"station":{"uicCode":"8400151","stationCode":"CAS","name":"Castricum","coordinate":{"lat":52.5458335876465,"lng":4.65861129760742},"countryCode":"NL"},"description":"vanaf de voorzijde van het station"},{"station":{"uicCode":"8400309","stationCode":"HLO","name":"Heiloo","coordinate":{"lat":52.5994453430176,"lng":4.70055532455444},"countryCode":"NL"},"description":"vanaf de voorzijde van het station"},{"station":{"uicCode":"8400050","stationCode":"AMR","name":"Alkmaar","coordinate":{"lat":52.6377792358398,"lng":4.73972225189209},"countryCode":"NL"},"description":"vanaf de achterzijde van het station"},{"station":{"uicCode":"8400052","stationCode":"AMRN","name":"Alkmaar Noord","coordinate":{"lat":52.6438903808594,"lng":4.76416683197022},"countryCode":"NL"},"description":"vanaf het busstation"},{"station":{"uicCode":"8400306","stationCode":"HWD","name":"Heerhugowaard","coordinate":{"lat":52.6697235107422,"lng":4.82277774810791},"countryCode":"NL"},"description":"vanaf het busstation"}],"label":"Er rijden stopbussen tussen Uitgeest, Castricum, Heiloo, Alkmaar, Alkmaar Noord en Heerhugowaard.","shortLabel":"Er rijden stopbussen Uitgeest - Castricum - Heiloo - Alkmaar - Alkmaar Noord - Heerhugowaard"}},{"start":"2023-07-29T06:15:00+0200","end":"2023-07-31T01:45:00+0200","alternativeTransport":{"location":[{"station":{"uicCode":"8400615","stationCode":"UTG","name":"Uitgeest","coordinate":{"lat":52.5216674804687,"lng":4.70166683197022},"countryCode":"NL"},"description":"vanaf de achterzijde van het station"},{"station":{"uicCode":"8400151","stationCode":"CAS","name":"Castricum","coordinate":{"lat":52.5458335876465,"lng":4.65861129760742},"countryCode":"NL"},"description":"vanaf de voorzijde van het station"},{"station":{"uicCode":"8400309","stationCode":"HLO","name":"Heiloo","coordinate":{"lat":52.5994453430176,"lng":4.70055532455444},"countryCode":"NL"},"description":"vanaf de voorzijde van het station"},{"station":{"uicCode":"8400050","stationCode":"AMR","name":"Alkmaar","coordinate":{"lat":52.6377792358398,"lng":4.73972225189209},"countryCode":"NL"},"description":"vanaf de achterzijde van het station"},{"station":{"uicCode":"8400052","stationCode":"AMRN","name":"Alkmaar Noord","coordinate":{"lat":52.6438903808594,"lng":4.76416683197022},"countryCode":"NL"},"description":"vanaf het busstation"},{"station":{"uicCode":"8400306","stationCode":"HWD","name":"Heerhugowaard","coordinate":{"lat":52.6697235107422,"lng":4.82277774810791},"countryCode":"NL"},"description":"vanaf het busstation"}],"label":"Er rijden stopbussen tussen Uitgeest, Castricum, Heiloo, Alkmaar, Alkmaar Noord en Heerhugowaard.","shortLabel":"Er rijden stopbussen Uitgeest - Castricum - Heiloo - Alkmaar - Alkmaar Noord - Heerhugowaard"}}]},{"id":"7003769","type":"MAINTENANCE","registrationTime":"2023-07-14T12:21:49+0200","releaseTime":"2023-07-14T12:21:49+0200","local":false,"title":"Dordrecht - Geldermalsen.","titleSections":[[{"type":"STATION","value":"Dordrecht"},{"type":"STATION","value":"Gorinchem"},{"type":"ICON","value":"MAINTENANCE"},{"type":"STATION","value":"Geldermalsen"}]],"isActive":false,"start":"2023-07-29T00:00:00+0200","end":"2023-07-31T02:00:00+0200","period":"Zaterdag 29-07-2023 00:00 uur t/m maandag 31-07-2023 02:00 uur.","impact":{"value":4},"summaryAdditionalTravelTime":{"label":"De extra reistijd is ongeveer 30 minuten.","shortLabel":"Extra reistijd 30 min.","minimumDurationInMinutes":30,"maximumDurationInMinutes":30},"publicationSections":[{"section":{"stations":[{"uicCode":"8400180","stationCode":"DDR","name":"Dordrecht","coordinate":{"lat":51.8072204589844,"lng":4.66833353042603},"countryCode":"NL"},{"uicCode":"8400186","stationCode":"DDRS","name":"Dordrecht Stadspolders","coordinate":{"lat":51.801944732666,"lng":4.71666669845581},"countryCode":"NL"},{"uicCode":"8400497","stationCode":"SDTB","name":"Sliedrecht Baanhoek","coordinate":{"lat":51.829722,"lng":4.743333},"countryCode":"NL"},{"uicCode":"8400565","stationCode":"SDT","name":"Sliedrecht","coordinate":{"lat":51.8297233581543,"lng":4.77833318710327},"countryCode":"NL"},{"uicCode":"8400438","stationCode":"HBZM","name":"Hardinxveld Blauwe Zoom","coordinate":{"lat":51.82944,"lng":4.815663},"countryCode":"NL"},{"uicCode":"8400295","stationCode":"GND","name":"Hardinxveld-Giessendam","coordinate":{"lat":51.8305549621582,"lng":4.83583354949951},"countryCode":"NL"},{"uicCode":"8400236","stationCode":"BHDV","name":"Boven-Hardinxveld","coordinate":{"lat":51.832222,"lng":4.878056},"countryCode":"NL"},{"uicCode":"8400256","stationCode":"GR","name":"Gorinchem","coordinate":{"lat":51.8338890075684,"lng":4.96833324432373},"countryCode":"NL"},{"uicCode":"8400068","stationCode":"AKL","name":"Arkel","coordinate":{"lat":51.8719444274902,"lng":4.99277782440186},"countryCode":"NL"},{"uicCode":"8400386","stationCode":"LDM","name":"Leerdam","coordinate":{"lat":51.8947219848633,"lng":5.09138870239258},"countryCode":"NL"},{"uicCode":"8400097","stationCode":"BSD","name":"Beesd","coordinate":{"lat":51.8994445800781,"lng":5.19444465637207},"countryCode":"NL"},{"uicCode":"8400244","stationCode":"GDM","name":"Geldermalsen","coordinate":{"lat":51.88301,"lng":5.27127},"countryCode":"NL"}],"direction":"BOTH"},"consequence":{"section":{"stations":[{"uicCode":"8400256","stationCode":"GR","name":"Gorinchem","coordinate":{"lat":51.8338890075684,"lng":4.96833324432373},"countryCode":"NL"},{"uicCode":"8400068","stationCode":"AKL","name":"Arkel","coordinate":{"lat":51.8719444274902,"lng":4.99277782440186},"countryCode":"NL"},{"uicCode":"8400386","stationCode":"LDM","name":"Leerdam","coordinate":{"lat":51.8947219848633,"lng":5.09138870239258},"countryCode":"NL"},{"uicCode":"8400097","stationCode":"BSD","name":"Beesd","coordinate":{"lat":51.8994445800781,"lng":5.19444465637207},"countryCode":"NL"},{"uicCode":"8400244","stationCode":"GDM","name":"Geldermalsen","coordinate":{"lat":51.88301,"lng":5.27127},"countryCode":"NL"}],"direction":"ONE_WAY"},"description":"rijden bussen","level":"LESS_TRAINS"},"sectionType":"NL"}],"timespans":[{"start":"2023-07-29T00:00:00+0200","end":"2023-07-31T02:00:00+0200","period":"Zaterdag 29-07-2023 00:00 uur t/m maandag 31-07-2023 02:00 uur.","situation":{"label":"Door werkzaamheden: tussen Gorinchem en Geldermalsen rijden er bussen."},"cause":{"label":"werkzaamheden"},"additionalTravelTime":{"label":"De extra reistijd is ongeveer 30 minuten.","shortLabel":"Extra reistijd 30 min.","minimumDurationInMinutes":30,"maximumDurationInMinutes":30},"alternativeTransport":{"label":"er rijden stopbussen","shortLabel":"er rijden stopbussen"},"advices":["Let op! Tussen Dordrecht en Gorinchem geldt de zomerdienstregeling.","Tussen Arkel en Leerdam/Geldermalsen reist u via Gorinchem"]}],"alternativeTransportTimespans":[{"start":"2023-07-29T00:00:00+0200","end":"2023-07-31T02:00:00+0200","alternativeTransport":{"location":[{"station":{"uicCode":"8400256","stationCode":"GR","name":"Gorinchem","coordinate":{"lat":51.8338890075684,"lng":4.96833324432373},"countryCode":"NL"},"description":"vanaf de voorzijde van het station"},{"station":{"uicCode":"8400386","stationCode":"LDM","name":"Leerdam","coordinate":{"lat":51.8947219848633,"lng":5.09138870239258},"countryCode":"NL"},"description":"vanaf de bushalte"},{"station":{"uicCode":"8400097","stationCode":"BSD","name":"Beesd","coordinate":{"lat":51.8994445800781,"lng":5.19444465637207},"countryCode":"NL"},"description":"vanaf de Parkweg bij het tankstation"},{"station":{"uicCode":"8400244","stationCode":"GDM","name":"Geldermalsen","coordinate":{"lat":51.88301,"lng":5.27127},"countryCode":"NL"},"description":"vanaf de bushalte"}],"label":"Er rijden stopbussen tussen Gorinchem, Leerdam, Beesd en Geldermalsen.","shortLabel":"Er rijden stopbussen Gorinchem - Leerdam - Beesd - Geldermalsen"}},{"start":"2023-07-29T00:00:00+0200","end":"2023-07-31T02:00:00+0200","alternativeTransport":{"location":[{"station":{"uicCode":"8400256","stationCode":"GR","name":"Gorinchem","coordinate":{"lat":51.8338890075684,"lng":4.96833324432373},"countryCode":"NL"},"description":"vanaf de voorzijde van het station"},{"station":{"uicCode":"8400068","stationCode":"AKL","name":"Arkel","coordinate":{"lat":51.8719444274902,"lng":4.99277782440186},"countryCode":"NL"},"description":"vanaf de bushalte"}],"label":"Er rijden stopbussen tussen Gorinchem en Arkel.","shortLabel":"Er rijden stopbussen Gorinchem - Arkel"}}]},{"id":"7003599","type":"MAINTENANCE","registrationTime":"2023-07-14T10:26:12+0200","releaseTime":"2023-07-14T10:26:12+0200","local":false,"title":"Heerlen - Aachen Hbf.","titleSections":[[{"type":"STATION","value":"Heerlen"},{"type":"ICON","value":"MAINTENANCE"},{"type":"STATION","value":"Aachen Hbf"}]],"isActive":false,"start":"2023-07-29T05:30:00+0200","end":"2023-07-30T21:30:00+0200","period":"Zaterdag 29-07-2023 05:30 uur t/m zondag 30-07-2023 21:30 uur.","impact":{"value":2},"summaryAdditionalTravelTime":{"label":"De extra reistijd kan oplopen tot 30 minuten.","shortLabel":"Extra reistijd tot 30 min.","maximumDurationInMinutes":30},"publicationSections":[{"section":{"stations":[{"uicCode":"8400307","stationCode":"HRL","name":"Heerlen","coordinate":{"lat":50.8908348083496,"lng":5.97499990463257},"countryCode":"NL"},{"uicCode":"8400548","stationCode":"LG","name":"Landgraaf","coordinate":{"lat":50.8963890075684,"lng":6.01916646957398},"countryCode":"NL"},{"uicCode":"8400234","stationCode":"EGHM","name":"Eygelshoven Markt","coordinate":{"lat":50.8960498196442,"lng":6.0602474212646396},"countryCode":"NL"},{"uicCode":"8015190","stationCode":"HZ","name":"Herzogenrath","coordinate":{"lat":50.870916,"lng":6.094486},"countryCode":"D"},{"uicCode":"8015345","stationCode":"AHBF","name":"Aachen Hbf","coordinate":{"lat":50.7678,"lng":6.091499},"countryCode":"D"}],"direction":"BOTH"},"consequence":{"section":{"stations":[{"uicCode":"8400307","stationCode":"HRL","name":"Heerlen","coordinate":{"lat":50.8908348083496,"lng":5.97499990463257},"countryCode":"NL"},{"uicCode":"8400548","stationCode":"LG","name":"Landgraaf","coordinate":{"lat":50.8963890075684,"lng":6.01916646957398},"countryCode":"NL"},{"uicCode":"8400234","stationCode":"EGHM","name":"Eygelshoven Markt","coordinate":{"lat":50.8960498196442,"lng":6.0602474212646396},"countryCode":"NL"},{"uicCode":"8015190","stationCode":"HZ","name":"Herzogenrath","coordinate":{"lat":50.870916,"lng":6.094486},"countryCode":"D"},{"uicCode":"8015345","stationCode":"AHBF","name":"Aachen Hbf","coordinate":{"lat":50.7678,"lng":6.091499},"countryCode":"D"}],"direction":"ONE_WAY"},"description":"rijden bussen","level":"LESS_TRAINS"},"sectionType":"NEIGHBORING_COUNTRY"}],"timespans":[{"start":"2023-07-29T05:30:00+0200","end":"2023-07-30T21:30:00+0200","period":"Zaterdag 29-07-2023 05:30 uur t/m zondag 30-07-2023 21:30 uur.","situation":{"label":"Door werkzaamheden: tussen Heerlen en Aachen Hbf rijden er bussen."},"cause":{"label":"werkzaamheden"},"additionalTravelTime":{"label":"De extra reistijd kan oplopen tot 30 minuten.","shortLabel":"Extra reistijd tot 30 min.","maximumDurationInMinutes":30},"alternativeTransport":{"label":"er rijden stopbussen","shortLabel":"er rijden stopbussen"},"advices":[]}],"alternativeTransportTimespans":[{"start":"2023-07-29T05:30:00+0200","end":"2023-07-30T21:30:00+0200","alternativeTransport":{"location":[{"station":{"uicCode":"8400307","stationCode":"HRL","name":"Heerlen","coordinate":{"lat":50.8908348083496,"lng":5.97499990463257},"countryCode":"NL"},"description":"vanaf de achterzijde van het station"},{"station":{"uicCode":"8400548","stationCode":"LG","name":"Landgraaf","coordinate":{"lat":50.8963890075684,"lng":6.01916646957398},"countryCode":"NL"},"description":"vanaf de voorzijde van het station"},{"station":{"uicCode":"8400234","stationCode":"EGHM","name":"Eygelshoven Markt","coordinate":{"lat":50.8960498196442,"lng":6.0602474212646396},"countryCode":"NL"},"description":"vanaf de voorzijde van het station"}],"label":"Er rijden stopbussen tussen Heerlen, Landgraaf, Eygelshoven Markt, Herzogenrath, Aachen West en Aachen Hbf.","shortLabel":"Er rijden stopbussen Heerlen - Landgraaf - Eygelshoven Mrkt - Herzogenrath - Aachen West - Aachen Hbf"}}]},{"id":"7003727","type":"MAINTENANCE","registrationTime":"2023-07-04T09:20:26+0200","releaseTime":"2023-07-04T09:20:26+0200","local":false,"title":"Nijmegen - 's-Hertogenbosch.","titleSections":[[{"type":"STATION","value":"Nijmegen"},{"type":"ICON","value":"MAINTENANCE"},{"type":"STATION","value":"'s-Hertogenbosch"}]],"isActive":false,"start":"2023-07-29T06:00:00+0200","end":"2023-07-29T23:59:00+0200","period":"Zaterdag 29-07-2023 06:00 uur t/m zaterdag 29-07-2023 23:59 uur.","impact":{"value":2},"summaryAdditionalTravelTime":{"label":"U heeft geen langere reistijd.","shortLabel":"Geen extra reistijd"},"publicationSections":[{"section":{"stations":[{"uicCode":"8400470","stationCode":"NM","name":"Nijmegen","coordinate":{"lat":51.8436126708984,"lng":5.85222244262695},"countryCode":"NL"},{"uicCode":"8400477","stationCode":"NMGO","name":"Nijmegen Goffert","coordinate":{"lat":51.8273,"lng":5.822722},"countryCode":"NL"},{"uicCode":"8400475","stationCode":"NMD","name":"Nijmegen Dukenburg","coordinate":{"lat":51.8241653442383,"lng":5.79555559158325},"countryCode":"NL"},{"uicCode":"8400710","stationCode":"WC","name":"Wijchen","coordinate":{"lat":51.8116683959961,"lng":5.73083353042603},"countryCode":"NL"},{"uicCode":"8400515","stationCode":"RVS","name":"Ravenstein","coordinate":{"lat":51.7941665649414,"lng":5.63583326339722},"countryCode":"NL"},{"uicCode":"8400495","stationCode":"O","name":"Oss","coordinate":{"lat":51.7655563354492,"lng":5.53222227096558},"countryCode":"NL"},{"uicCode":"8400496","stationCode":"OW","name":"Oss West","coordinate":{"lat":51.758056640625,"lng":5.50555562973022},"countryCode":"NL"},{"uicCode":"8400524","stationCode":"RS","name":"Rosmalen","coordinate":{"lat":51.7147216796875,"lng":5.36805534362793},"countryCode":"NL"},{"uicCode":"8400320","stationCode":"HTO","name":"'s-Hertogenbosch Oost","coordinate":{"lat":51.700553894043,"lng":5.3183331489563},"countryCode":"NL"},{"uicCode":"8400319","stationCode":"HT","name":"'s-Hertogenbosch","coordinate":{"lat":51.69048,"lng":5.29362},"countryCode":"NL"}],"direction":"BOTH"},"consequence":{"section":{"stations":[{"uicCode":"8400470","stationCode":"NM","name":"Nijmegen","coordinate":{"lat":51.8436126708984,"lng":5.85222244262695},"countryCode":"NL"},{"uicCode":"8400477","stationCode":"NMGO","name":"Nijmegen Goffert","coordinate":{"lat":51.8273,"lng":5.822722},"countryCode":"NL"},{"uicCode":"8400475","stationCode":"NMD","name":"Nijmegen Dukenburg","coordinate":{"lat":51.8241653442383,"lng":5.79555559158325},"countryCode":"NL"},{"uicCode":"8400710","stationCode":"WC","name":"Wijchen","coordinate":{"lat":51.8116683959961,"lng":5.73083353042603},"countryCode":"NL"},{"uicCode":"8400515","stationCode":"RVS","name":"Ravenstein","coordinate":{"lat":51.7941665649414,"lng":5.63583326339722},"countryCode":"NL"},{"uicCode":"8400495","stationCode":"O","name":"Oss","coordinate":{"lat":51.7655563354492,"lng":5.53222227096558},"countryCode":"NL"},{"uicCode":"8400496","stationCode":"OW","name":"Oss West","coordinate":{"lat":51.758056640625,"lng":5.50555562973022},"countryCode":"NL"},{"uicCode":"8400524","stationCode":"RS","name":"Rosmalen","coordinate":{"lat":51.7147216796875,"lng":5.36805534362793},"countryCode":"NL"},{"uicCode":"8400320","stationCode":"HTO","name":"'s-Hertogenbosch Oost","coordinate":{"lat":51.700553894043,"lng":5.3183331489563},"countryCode":"NL"},{"uicCode":"8400319","stationCode":"HT","name":"'s-Hertogenbosch","coordinate":{"lat":51.69048,"lng":5.29362},"countryCode":"NL"}],"direction":"ONE_WAY"},"description":"dienstregeling aangepast","level":"LESS_TRAINS"},"sectionType":"NL"}],"timespans":[{"start":"2023-07-29T06:00:00+0200","end":"2023-07-29T23:59:00+0200","period":"Zaterdag 29-07-2023 06:00 uur t/m zaterdag 29-07-2023 23:59 uur.","situation":{"label":"Door werkzaamheden: tussen Nijmegen en 's-Hertogenbosch is de dienstregeling aangepast."},"cause":{"label":"werkzaamheden"},"additionalTravelTime":{"label":"U heeft geen langere reistijd.","shortLabel":"Geen extra reistijd"},"advices":["Sprinters Nijmegen-'s-Hertogenbosch rijden 1x per uur met aangepaste vertrektijden."]}],"alternativeTransportTimespans":[]},{"id":"7003678","type":"MAINTENANCE","registrationTime":"2023-06-29T08:42:19+0200","releaseTime":"2023-06-29T08:42:19+0200","local":false,"title":"Amsterdam - Utrecht; Amsterdam - Gouda.","titleSections":[[{"type":"STATION","value":"Amsterdam C."},{"type":"ICON","value":"MAINTENANCE"},{"type":"STATION","value":"Utrecht C."}],[{"type":"STATION","value":"Amsterdam C."},{"type":"STATION","value":"Muiderpoort"},{"type":"ICON","value":"MAINTENANCE"},{"type":"STATION","value":"Woerden"},{"type":"STATION","value":"Gouda"}]],"isActive":false,"start":"2023-07-29T22:45:00+0200","end":"2023-07-30T00:45:00+0200","period":"Zaterdag 29-07-2023 22:45 uur t/m zondag 30-07-2023 00:45 uur.","impact":{"value":2},"summaryAdditionalTravelTime":{"label":"U heeft geen langere reistijd.","shortLabel":"Geen extra reistijd"},"publicationSections":[{"section":{"stations":[{"uicCode":"8400058","stationCode":"ASD","name":"Amsterdam Centraal","coordinate":{"lat":52.3788871765137,"lng":4.90027761459351},"countryCode":"NL"},{"uicCode":"8400060","stationCode":"ASDM","name":"Amsterdam Muiderpoort","coordinate":{"lat":52.3605537414551,"lng":4.93111133575439},"countryCode":"NL"},{"uicCode":"8400057","stationCode":"ASA","name":"Amsterdam Amstel","coordinate":{"lat":52.3466682434082,"lng":4.91777801513672},"countryCode":"NL"},{"uicCode":"8400194","stationCode":"DVD","name":"Duivendrecht","coordinate":{"lat":52.3233337402344,"lng":4.93638896942139},