[{"id":"6024386","type":"DISRUPTION","registrationTime":"2023-07-10T13:06:57+0200","releaseTime":"2023-07-10T13:06:57+0200","local":false,"title":"Arnhem-Duisburg-Düsseldorf","titleSections":[[{"type":"STATION","value":"Arnhem C."},{"type":"ICON","value":"DISRUPTION"},{"type":"STATION","value":"Emmerich"},{"type":"STATION","value":"Düsseldorf Hbf"}]],"topic":"disruption_6024386_nl","isActive":true,"start":"2023-07-10T11:49:15+0200","end":"2023-07-10T15:00:00+0200","phase":{"id":"3","label":"Vervangend vervoer"},"impact":{"value":2},"expectedDuration":{"description":"Dit duurt tot ongeveer 15:00 uur.","endTime":"2023-07-10T15:00:00+0200"},"summaryAdditionalTravelTime":{"label":"De extra reistijd is meer dan 60 minuten.","shortLabel":"Extra reistijd meer dan 60 min.","minimumDurationInMinutes":60},"publicationSections":[{"section":{"stations":[{"uicCode":"8400071","stationCode":"AH","name":"Arnhem Centraal","coordinate":{"lat":51.9850006103516,"lng":5.89916658401489},"countryCode":"NL"},{"uicCode":"8400072","stationCode":"AHP","name":"Arnhem Velperpoort","coordinate":{"lat":51.985279083252,"lng":5.91944456100464},"countryCode":"NL"},{"uicCode":"8400688","stationCode":"WTV","name":"Westervoort","coordinate":{"lat":51.96286,"lng":5.9695},"countryCode":"NL"},{"uicCode":"8400193","stationCode":"DVN","name":"Duiven","coordinate":{"lat":51.9433326721191,"lng":6.01472234725952},"countryCode":"NL"},{"uicCode":"8400735","stationCode":"ZV","name":"Zevenaar","coordinate":{"lat":51.9230537414551,"lng":6.07194423675537},"countryCode":"NL"},{"uicCode":"8033415","stationCode":"EL","name":"Emmerich-Elten","coordinate":{"lat":51.8743,"lng":6.15417},"countryCode":"D"},{"uicCode":"8010288","stationCode":"EM","name":"Emmerich","coordinate":{"lat":51.834283,"lng":6.255718},"countryCode":"D"},{"uicCode":"8010275","stationCode":"WESEL","name":"Wesel","coordinate":{"lat":51.655833,"lng":6.627222},"countryCode":"D"},{"uicCode":"8010263","stationCode":"OBERH","name":"Oberhausen Hbf","coordinate":{"lat":51.47512,"lng":6.852038},"countryCode":"D"},{"uicCode":"8010316","stationCode":"DUISB","name":"Duisburg Hbf","coordinate":{"lat":51.4297785713316,"lng":6.77590370178222},"countryCode":"D"},{"uicCode":"8039904","stationCode":"KDFFH","name":"Düsseldorf Flughafen","coordinate":{"lat":51.292009,"lng":6.786836},"countryCode":"D"},{"uicCode":"8008094","stationCode":"DUSSEL","name":"Düsseldorf Hbf","coordinate":{"lat":51.220146,"lng":6.793137},"countryCode":"D"}],"direction":"BOTH"},"consequence":{"section":{"stations":[{"uicCode":"8400071","stationCode":"AH","name":"Arnhem Centraal","coordinate":{"lat":51.9850006103516,"lng":5.89916658401489},"countryCode":"NL"},{"uicCode":"8400072","stationCode":"AHP","name":"Arnhem Velperpoort","coordinate":{"lat":51.985279083252,"lng":5.91944456100464},"countryCode":"NL"},{"uicCode":"8400688","stationCode":"WTV","name":"Westervoort","coordinate":{"lat":51.96286,"lng":5.9695},"countryCode":"NL"},{"uicCode":"8400193","stationCode":"DVN","name":"Duiven","coordinate":{"lat":51.9433326721191,"lng":6.01472234725952},"countryCode":"NL"},{"uicCode":"8400735","stationCode":"ZV","name":"Zevenaar","coordinate":{"lat":51.9230537414551,"lng":6.07194423675537},"countryCode":"NL"},{"uicCode":"8033415","stationCode":"EL","name":"Emmerich-Elten","coordinate":{"lat":51.8743,"lng":6.15417},"countryCode":"D"},{"uicCode":"8010288","stationCode":"EM","name":"Emmerich","coordinate":{"lat":51.834283,"lng":6.255718},"countryCode":"D"}],"direction":"ONE_WAY"},"description":"geen treinen","level":"LESS_TRAINS"},"sectionType":"NEIGHBORING_COUNTRY"}],"timespans":[{"start":"2023-07-10T11:49:15+0200","end":"2023-07-10T15:00:00+0200","situation":{"label":"Tussen Arnhem Centraal en Emmerich rijden er geen treinen door spoorproblemen in het buitenland."},"cause":{"label":"Spoorproblemen buitenland"},"additionalTravelTime":{"label":"De extra reistijd is meer dan 60 minuten.","shortLabel":"Extra reistijd meer dan 60 min.","minimumDurationInMinutes":60},"alternativeTransport":{"label":"Er rijden stopbussen.","shortLabel":"Er rijden stopbussen"},"advices":[]}],"alternativeTransportTimespans":[{"start":"2023-07-10T11:49:15+0200","end":"2023-07-10T15:00:00+0200","alternativeTransport":{"location":[{"station":{"uicCode":"8400071","stationCode":"AH","name":"Arnhem Centraal","coordinate":{"lat":51.9850006103516,"lng":5.89916658401489},"countryCode":"NL"},"description":"vanaf het streekbusstation"},{"station":{"uicCode":"8400735","stationCode":"ZV","name":"Zevenaar","coordinate":{"lat":51.9230537414551,"lng":6.07194423675537},"countryCode":"NL"},"description":"vanaf het stationsplein bij de Kiss & Ride plaatsen, aan beide zijden van de weg"}],"label":"Er rijden stopbussen tussen Arnhem Centraal, Zevenaar en Emmerich.","shortLabel":"Er rijden stopbussen: Arnhem C., Zevenaar, Emmerich"}}]},{"id":"6024387","type":"DISRUPTION","registrationTime":"2023-07-10T13:28:45+0200","releaseTime":"2023-07-10T13:28:45+0200","local":false,"title":"'s-Hertogenbosch-Tilburg","titleSections":[[{"type":"STATION","value":"'s-Hertogenbosch"},{"type":"ICON","value":"DISRUPTION"},{"type":"STATION","value":"Tilburg"}]],"topic":"disruption_6024387_nl","isActive":true,"start":"2023-07-10T13:27:18+0200","end":"2023-07-10T16:30:00+0200","phase":{"id":"1b","label":"Gevolgen bekend"},"impact":{"value":3},"expectedDuration":{"description":"Dit duurt tot ongeveer 16:30 uur.","endTime":"2023-07-10T16:30:00+0200"},"publicationSections":[{"section":{"stations":[{"uicCode":"8400319","stationCode":"HT","name":"'s-Hertogenbosch","coordinate":{"lat":51.69048,"lng":5.29362},"countryCode":"NL"},{"uicCode":"8400597","stationCode":"TB","name":"Tilburg","coordinate":{"lat":51.5605545043945,"lng":5.08361101150513},"countryCode":"NL"}],"direction":"BOTH"},"consequence":{"section":{"stations":[{"uicCode":"8400319","stationCode":"HT","name":"'s-Hertogenbosch","coordinate":{"lat":51.69048,"lng":5.29362},"countryCode":"NL"},{"uicCode":"8400597","stationCode":"TB","name":"Tilburg","coordinate":{"lat":51.5605545043945,"lng":5.08361101150513},"countryCode":"NL"}],"direction":"ONE_WAY"},"description":"verstoring treindienst","level":"LESS_TRAINS"},"sectionType":"NL"}],"timespans":[{"start":"2023-07-10T13:27:18+0200","end":"2023-07-10T16:30:00+0200","situation":{"label":"Tussen 's-Hertogenbosch en Tilburg is er een verstoring in de treindienst door een seinstoring."},"cause":{"label":"Seinstoring"},"advices":[]}],"alternativeTransportTimespans":[]},{"id":"e8e1217e-4886-4f07-942c-1f46219e82ba","title":"Alphen a/d Rijn-Gouda","topic":"disruption_e8e1217e-4886-4f07-942c-1f46219e82ba_nl","description":"Door werkzaamheden rijden van donderdag 13 t/m zondag 16 juli geen treinen tussen Alphen a/d Rijn en Gouda.","priority":"PRIO_3","lastUpdated":"2023-07-10T01:51:00+0200","bodyItems":[{"content":{"text":"<p>Er rijden bussen tussen Alphen a/d Rijn en Gouda. Plan je reis vooraf.</p>"},"type":"TEXT"}],"buttons":{"position":["BOTTOM"],"items":[{"label":"Plan je reis","type":"PLANNER","accessibilityLabel":"Plan je reis","url":"https://www.ns.nl/reisplanner"}]},"url":"https://www.ns.nl/reisinformatie/calamiteiten/wahs-alphen-gouda.html","type":"CALAMITY","isActive":true},{"id":"7003716","type":"MAINTENANCE","registrationTime":"2023-07-04T09:15:15+0200","releaseTime":"2023-07-04T09:15:15+0200","local":false,"title":"Heerlen - Aachen Hbf.","titleSections":[[{"type":"STATION","value":"Heerlen"},{"type":"ICON","value":"MAINTENANCE"},{"type":"STATION","value":"Aachen Hbf"}]],"isActive":true,"start":"2023-07-07T23:30:00+0200","end":"2023-07-14T06:30:00+0200","period":"Vrijdag 07-07-2023 23:30 uur t/m vrijdag 14-07-2023 06:30 uur.","impact":{"value":2},"summaryAdditionalTravelTime":{"label":"De extra reistijd kan oplopen tot 30 minuten.","shortLabel":"Extra reistijd tot 30 min.","minimumDurationInMinutes":30,"maximumDurationInMinutes":30},"publicationSections":[{"section":{"stations":[{"uicCode":"8400307","stationCode":"HRL","name":"Heerlen","coordinate":{"lat":50.8908348083496,"lng":5.97499990463257},"countryCode":"NL"},{"uicCode":"8400548","stationCode":"LG","name":"Landgraaf","coordinate":{"lat":50.8963890075684,"lng":6.01916646957398},"countryCode":"NL"},{"uicCode":"8400234","stationCode":"EGHM","name":"Eygelshoven Markt","coordinate":{"lat":50.8960498196442,"lng":6.0602474212646396},"countryCode":"NL"},{"uicCode":"8015190","stationCode":"HZ","name":"Herzogenrath","coordinate":{"lat":50.870916,"lng":6.094486},"countryCode":"D"},{"uicCode":"8015345","stationCode":"AHBF","name":"Aachen Hbf","coordinate":{"lat":50.7678,"lng":6.091499},"countryCode":"D"}],"direction":"BOTH"},"consequence":{"section":{"stations":[{"uicCode":"8400307","stationCode":"HRL","name":"Heerlen","coordinate":{"lat":50.8908348083496,"lng":5.97499990463257},"countryCode":"NL"},{"uicCode":"8400548","stationCode":"LG","name":"Landgraaf","coordinate":{"lat":50.8963890075684,"lng":6.01916646957398},"countryCode":"NL"},{"uicCode":"8400234","stationCode":"EGHM","name":"Eygelshoven Markt","coordinate":{"lat":50.8960498196442,"lng":6.0602474212646396},"countryCode":"NL"},{"uicCode":"8015190","stationCode":"HZ","name":"Herzogenrath","coordinate":{"lat":50.870916,"lng":6.094486},"countryCode":"D"},{"uicCode":"8015345","stationCode":"AHBF","name":"Aachen Hbf","coordinate":{"lat":50.7678,"lng":6.091499},"countryCode":"D"}],"direction":"ONE_WAY"},"description":"rijden bussen","level":"LESS_TRAINS"},"sectionType":"NEIGHBORING_COUNTRY"}],"timespans":[{"start":"2023-07-10T23:30:00+0200","end":"2023-07-11T06:30:00+0200","period":"Maandag 10-07-2023 23:30 uur t/m dinsdag 11-07-2023 06:30 uur.","situation":{"label":"Door werkzaamheden: tussen Heerlen en Aachen Hbf rijden er bussen."},"cause":{"label":"werkzaamheden"},"additionalTravelTime":{"label":"De extra reistijd is ongeveer 30 minuten.","shortLabel":"Extra reistijd 30 min.","minimumDurationInMinutes":30,"maximumDurationInMinutes":30},"alternativeTransport":{"label":"er rijden stopbussen","shortLabel":"er rijden stopbussen"},"advices":[]},{"start":"2023-07-11T23:30:00+0200","end":"2023-07-12T06:30:00+0200","period":"Dinsdag 11-07-2023 23:30 uur t/m woensdag 12-07-2023 06:30 uur.","situation":{"label":"Door werkzaamheden: tussen Heerlen en Aachen Hbf rijden er bussen."},"cause":{"label":"werkzaamheden"},"additionalTravelTime":{"label":"De extra reistijd is ongeveer 30 minuten.","shortLabel":"Extra reistijd 30 min.","minimumDurationInMinutes":30,"maximumDurationInMinutes":30},"alternativeTransport":{"label":"er rijden stopbussen","shortLabel":"er rijden stopbussen"},"advices":[]},{"start":"2023-07-12T23:30:00+0200","end":"2023-07-13T06:30:00+0200","period":"Woensdag 12-07-2023 23:30 uur t/m donderdag 13-07-2023 06:30 uur.","situation":{"label":"Door werkzaamheden: tussen Heerlen en Aachen Hbf rijden er bussen."},"cause":{"label":"werkzaamheden"},"additionalTravelTime":{"label":"De extra reistijd is ongeveer 30 minuten.","shortLabel":"Extra reistijd 30 min.","minimumDurationInMinutes":30,"maximumDurationInMinutes":30},"alternativeTransport":{"label":"er rijden stopbussen","shortLabel":"er rijden stopbussen"},"advices":[]},{"start":"2023-07-13T23:30:00+0200","end":"2023-07-14T06:30:00+0200","period":"Donderdag 13-07-2023 23:30 uur t/m vrijdag 14-07-2023 06:30 uur.","situation":{"label":"Door werkzaamheden: tussen Heerlen en Aachen Hbf rijden er bussen."},"cause":{"label":"werkzaamheden"},"additionalTravelTime":{"label":"De extra reistijd is ongeveer 30 minuten.","shortLabel":"Extra reistijd 30 min.","minimumDurationInMinutes":30,"maximumDurationInMinutes":30},"alternativeTransport":{"label":"er rijden stopbussen","shortLabel":"er rijden stopbussen"},"advices":[]}],"alternativeTransportTimespans":[{"start":"2023-07-07T23:30:00+0200","end":"2023-07-08T07:30:00+0200","alternativeTransport":{"location":[{"station":{"uicCode":"8400307","stationCode":"HRL","name":"Heerlen","coordinate":{"lat":50.8908348083496,"lng":5.97499990463257},"countryCode":"NL"},"description":"vanaf de achterzijde van het station"},{"station":{"uicCode":"8400548","stationCode":"LG","name":"Landgraaf","coordinate":{"lat":50.8963890075684,"lng":6.01916646957398},"countryCode":"NL"},"description":"vanaf de voorzijde van het station"},{"station":{"uicCode":"8400234","stationCode":"EGHM","name":"Eygelshoven Markt","coordinate":{"lat":50.8960498196442,"lng":6.0602474212646396},"countryCode":"NL"},"description":"vanaf de voorzijde van het station"}],"label":"Er rijden stopbussen tussen Heerlen, Landgraaf, Eygelshoven Markt, Herzogenrath, Aachen West en Aachen Hbf.","shortLabel":"Er rijden stopbussen Heerlen - Landgraaf - Eygelshoven Mrkt - Herzogenrath - Aachen West - Aachen Hbf"}},{"start":"2023-07-08T22:30:00+0200","end":"2023-07-09T08:30:00+0200","alternativeTransport":{"location":[{"station":{"uicCode":"8400307","stationCode":"HRL","name":"Heerlen","coordinate":{"lat":50.8908348083496,"lng":5.97499990463257},"countryCode":"NL"},"description":"vanaf de achterzijde van het station"},{"station":{"uicCode":"8400548","stationCode":"LG","name":"Landgraaf","coordinate":{"lat":50.8963890075684,"lng":6.01916646957398},"countryCode":"NL"},"description":"vanaf de voorzijde van het station"},{"station":{"uicCode":"8400234","stationCode":"EGHM","name":"Eygelshoven Markt","coordinate":{"lat":50.8960498196442,"lng":6.0602474212646396},"countryCode":"NL"},"description":"vanaf de voorzijde van het station"}],"label":"Er rijden stopbussen tussen Heerlen, Landgraaf, Eygelshoven Markt, Herzogenrath, Aachen West en Aachen Hbf.","shortLabel":"Er rijden stopbussen Heerlen - Landgraaf - Eygelshoven Mrkt - Herzogenrath - Aachen West - Aachen Hbf"}},{"start":"2023-07-09T23:30:00+0200","end":"2023-07-10T06:30:00+0200","alternativeTransport":{"location":[{"station":{"uicCode":"8400307","stationCode":"HRL","name":"Heerlen","coordinate":{"lat":50.8908348083496,"lng":5.97499990463257},"countryCode":"NL"},"description":"vanaf de achterzijde van het station"},{"station":{"uicCode":"8400548","stationCode":"LG","name":"Landgraaf","coordinate":{"lat":50.8963890075684,"lng":6.01916646957398},"countryCode":"NL"},"description":"vanaf de voorzijde van het station"},{"station":{"uicCode":"8400234","stationCode":"EGHM","name":"Eygelshoven Markt","coordinate":{"lat":50.8960498196442,"lng":6.0602474212646396},"countryCode":"NL"},"description":"vanaf de voorzijde van het station"}],"label":"Er rijden stopbussen tussen Heerlen, Landgraaf, Eygelshoven Markt, Herzogenrath, Aachen West en Aachen Hbf.","shortLabel":"Er rijden stopbussen Heerlen - Landgraaf - Eygelshoven Mrkt - Herzogenrath - Aachen West - Aachen Hbf"}},{"start":"2023-07-10T23:30:00+0200","end":"2023-07-11T06:30:00+0200","alternativeTransport":{"location":[{"station":{"uicCode":"8400307","stationCode":"HRL","name":"Heerlen","coordinate":{"lat":50.8908348083496,"lng":5.97499990463257},"countryCode":"NL"},"description":"vanaf de achterzijde van het station"},{"station":{"uicCode":"8400548","stationCode":"LG","name":"Landgraaf","coordinate":{"lat":50.8963890075684,"lng":6.01916646957398},"countryCode":"NL"},"description":"vanaf de voorzijde van het station"},{"station":{"uicCode":"8400234","stationCode":"EGHM","name":"Eygelshoven Markt","coordinate":{"lat":50.8960498196442,"lng":6.0602474212646396},"countryCode":"NL"},"description":"vanaf de voorzijde van het station"}],"label":"Er rijden stopbussen tussen Heerlen, Landgraaf, Eygelshoven Markt, Herzogenrath, Aachen West en Aachen Hbf.","shortLabel":"Er rijden stopbussen Heerlen - Landgraaf - Eygelshoven Mrkt - Herzogenrath - Aachen West - Aachen Hbf"}},{"start":"2023-07-11T23:30:00+0200","end":"2023-07-12T06:30:00+0200","alternativeTransport":{"location":[{"station":{"uicCode":"8400307","stationCode":"HRL","name":"Heerlen","coordinate":{"lat":50.8908348083496,"lng":5.97499990463257},"countryCode":"NL"},"description":"vanaf de achterzijde van het station"},{"station":{"uicCode":"8400548","stationCode":"LG","name":"Landgraaf","coordinate":{"lat":50.8963890075684,"lng":6.01916646957398},"countryCode":"NL"},"description":"vanaf de voorzijde van het station"},{"station":{"uicCode":"8400234","stationCode":"EGHM","name":"Eygelshoven Markt","coordinate":{"lat":50.8960498196442,"lng":6.0602474212646396},"countryCode":"NL"},"description":"vanaf de voorzijde van het station"}],"label":"Er rijden stopbussen tussen Heerlen, Landgraaf, Eygelshoven Markt, Herzogenrath, Aachen West en Aachen Hbf.","shortLabel":"Er rijden stopbussen Heerlen - Landgraaf - Eygelshoven Mrkt - Herzogenrath - Aachen West - Aachen Hbf"}},{"start":"2023-07-12T23:30:00+0200","end":"2023-07-13T06:30:00+0200","alternativeTransport":{"location":[{"station":{"uicCode":"8400307","stationCode":"HRL","name":"Heerlen","coordinate":{"lat":50.8908348083496,"lng":5.97499990463257},"countryCode":"NL"},"description":"vanaf de achterzijde van het station"},{"station":{"uicCode":"8400548","stationCode":"LG","name":"Landgraaf","coordinate":{"lat":50.8963890075684,"lng":6.01916646957398},"countryCode":"NL"},"description":"vanaf de voorzijde van het station"},{"station":{"uicCode":"8400234","stationCode":"EGHM","name":"Eygelshoven Markt","coordinate":{"lat":50.8960498196442,"lng":6.0602474212646396},"countryCode":"NL"},"description":"vanaf de voorzijde van het station"}],"label":"Er rijden stopbussen tussen Heerlen, Landgraaf, Eygelshoven Markt, Herzogenrath, Aachen West en Aachen Hbf.","shortLabel":"Er rijden stopbussen Heerlen - Landgraaf - Eygelshoven Mrkt - Herzogenrath - Aachen West - Aachen Hbf"}},{"start":"2023-07-13T23:30:00+0200","end":"2023-07-14T06:30:00+0200","alternativeTransport":{"location":[{"station":{"uicCode":"8400307","stationCode":"HRL","name":"Heerlen","coordinate":{"lat":50.8908348083496,"lng":5.97499990463257},"countryCode":"NL"},"description":"vanaf de achterzijde van het station"},{"station":{"uicCode":"8400548","stationCode":"LG","name":"Landgraaf","coordinate":{"lat":50.8963890075684,"lng":6.01916646957398},"countryCode":"NL"},"description":"vanaf de voorzijde van het station"},{"station":{"uicCode":"8400234","stationCode":"EGHM","name":"Eygelshoven Markt","coordinate":{"lat":50.8960498196442,"lng":6.0602474212646396},"countryCode":"NL"},"description":"vanaf de voorzijde van het station"}],"label":"Er rijden stopbussen tussen Heerlen, Landgraaf, Eygelshoven Markt, Herzogenrath, Aachen West en Aachen Hbf.","shortLabel":"Er rijden stopbussen Heerlen - Landgraaf - Eygelshoven Mrkt - Herzogenrath - Aachen West - Aachen Hbf"}}]},{"id":"7003684","type":"MAINTENANCE","registrationTime":"2023-06-27T07:11:15+0200","releaseTime":"2023-06-27T07:11:15+0200","local":false,"title":"Amsterdam - Hannover - Berlin.","titleSections":[[{"type":"STATION","value":"Amsterdam C."},{"type":"ICON","value":"MAINTENANCE"},{"type":"STATION","value":"Bad Bentheim"},{"type":"STATION","value":"Berlin Hbf"}]],"isActive":true,"start":"2023-07-08T04:00:00+0200","end":"2023-07-17T02:00:00+0200","period":"Zaterdag 08-07-2023 04:00 uur t/m maandag 17-07-2023 02:00 uur.","impact":{"value":2},"summaryAdditionalTravelTime":{"label":"De extra reistijd kan oplopen tot 30 minuten.","shortLabel":"Extra reistijd tot 30 min.","maximumDurationInMinutes":30},"publicationSections":[{"section":{"stations":[{"uicCode":"8400058","stationCode":"ASD","name":"Amsterdam Centraal","coordinate":{"lat":52.3788871765137,"lng":4.90027761459351},"countryCode":"NL"},{"uicCode":"8400060","stationCode":"ASDM","name":"Amsterdam Muiderpoort","coordinate":{"lat":52.3605537414551,"lng":4.93111133575439},"countryCode":"NL"},{"uicCode":"8400235","stationCode":"ASSP","name":"Amsterdam Science Park","coordinate":{"lat":52.35526,"lng":4.94651},"countryCode":"NL"},{"uicCode":"8400165","stationCode":"DMN","name":"Diemen","coordinate":{"lat":52.34515,"lng":4.967566},"countryCode":"NL"},{"uicCode":"8400685","stationCode":"WP","name":"Weesp","coordinate":{"lat":52.3127784729004,"lng":5.04305553436279},"countryCode":"NL"},{"uicCode":"8400452","stationCode":"NDB","name":"Naarden-Bussum","coordinate":{"lat":52.2802772521973,"lng":5.15694427490234},"countryCode":"NL"},{"uicCode":"8400145","stationCode":"BSMZ","name":"Bussum Zuid","coordinate":{"lat":52.2658348083496,"lng":5.16305541992188},"countryCode":"NL"},{"uicCode":"8400324","stationCode":"HVSM","name":"Hilversum Media Park","coordinate":{"lat":52.2380561828613,"lng":5.17388868331909},"countryCode":"NL"},{"uicCode":"8400322","stationCode":"HVS","name":"Hilversum","coordinate":{"lat":52.2258338928223,"lng":5.18194437026978},"countryCode":"NL"},{"uicCode":"8400086","stationCode":"BRN","name":"Baarn","coordinate":{"lat":52.2083320617676,"lng":5.28083324432373},"countryCode":"NL"},{"uicCode":"8400055","stationCode":"AMF","name":"Amersfoort Centraal","coordinate":{"lat":52.1538887023926,"lng":5.37055540084839},"countryCode":"NL"},{"uicCode":"8400490","stationCode":"HVL","name":"Hoevelaken","coordinate":{"lat":52.16652,"lng":5.45718},"countryCode":"NL"},{"uicCode":"8400066","stationCode":"APD","name":"Apeldoorn","coordinate":{"lat":52.2091674804687,"lng":5.97027778625488},"countryCode":"NL"},{"uicCode":"8400229","stationCode":"APDO","name":"Apeldoorn Osseveld","coordinate":{"lat":52.2152786254883,"lng":6.00444459915161},"countryCode":"NL"},{"uicCode":"8400599","stationCode":"TWL","name":"Twello","coordinate":{"lat":52.2377777099609,"lng":6.09861087799072},"countryCode":"NL"},{"uicCode":"8400173","stationCode":"DV","name":"Deventer","coordinate":{"lat":52.2574996948242,"lng":6.16055536270142},"countryCode":"NL"},{"uicCode":"8400185","stationCode":"DVC","name":"Deventer Colmschate","coordinate":{"lat":52.2502784729004,"lng":6.21444463729858},"countryCode":"NL"},{"uicCode":"8400328","stationCode":"HON","name":"Holten","coordinate":{"lat":52.2838897705078,"lng":6.42027759552002},"countryCode":"NL"},{"uicCode":"8400538","stationCode":"RSN","name":"Rijssen","coordinate":{"lat":52.3122215270996,"lng":6.52027797698975},"countryCode":"NL"},{"uicCode":"8400691","stationCode":"WDN","name":"Wierden","coordinate":{"lat":52.3613891601562,"lng":6.59166669845581},"countryCode":"NL"},{"uicCode":"8400051","stationCode":"AML","name":"Almelo","coordinate":{"lat":52.3580551147461,"lng":6.65388870239258},"countryCode":"NL"},{"uicCode":"8400520","stationCode":"AMRI","name":"Almelo de Riet","coordinate":{"lat":52.3419456481934,"lng":6.66666650772095},"countryCode":"NL"},{"uicCode":"8400124","stationCode":"BN","name":"Borne","coordinate":{"lat":52.2988891601562,"lng":6.74805545806885},"countryCode":"NL"},{"uicCode":"8400316","stationCode":"HGL","name":"Hengelo","coordinate":{"lat":52.2616653442383,"lng":6.79388904571533},"countryCode":"NL"},{"uicCode":"8400312","stationCode":"HGLO","name":"Hengelo Oost","coordinate":{"lat":52.2688903808594,"lng":6.81944465637207},"countryCode":"NL"},{"uicCode":"8400483","stationCode":"ODZ","name":"Oldenzaal","coordinate":{"lat":52.3063888549805,"lng":6.93472242355347},"countryCode":"NL"},{"uicCode":"8021156","stationCode":"BH","name":"Bad Bentheim","coordinate":{"lat":52.309685595156,"lng":7.15853691101074},"countryCode":"D"},{"uicCode":"8021067","stationCode":"RHEINE","name":"Rheine","coordinate":{"lat":52.276299,"lng":7.434255},"countryCode":"D"},{"uicCode":"8021025","stationCode":"OSNH","name":"Osnabrück Hbf","coordinate":{"lat":52.272851,"lng":8.061781},"countryCode":"D"},{"uicCode":"8013552","stationCode":"HANN","name":"Hannover Hbf","coordinate":{"lat":52.3770401,"lng":9.7416759},"countryCode":"D"},{"uicCode":"8065969","stationCode":"BERHBL","name":"Berlin Hbf","coordinate":{"lat":52.52503,"lng":13.36946},"countryCode":"D"}],"direction":"BOTH"},"consequence":{"section":{"stations":[{"uicCode":"8400058","stationCode":"ASD","name":"Amsterdam Centraal","coordinate":{"lat":52.3788871765137,"lng":4.90027761459351},"countryCode":"NL"},{"uicCode":"8400060","stationCode":"ASDM","name":"Amsterdam Muiderpoort","coordinate":{"lat":52.3605537414551,"lng":4.93111133575439},"countryCode":"NL"},{"uicCode":"8400235","stationCode":"ASSP","name":"Amsterdam Science Park","coordinate":{"lat":52.35526,"lng":4.94651},"countryCode":"NL"},{"uicCode":"8400165","stationCode":"DMN","name":"Diemen","coordinate":{"lat":52.34515,"lng":4.967566},"countryCode":"NL"},{"uicCode":"8400685","stationCode":"WP","name":"Weesp","coordinate":{"lat":52.3127784729004,"lng":5.04305553436279},"countryCode":"NL"},{"uicCode":"8400452","stationCode":"NDB","name":"Naarden-Bussum","coordinate":{"lat":52.2802772521973,"lng":5.15694427490234},"countryCode":"NL"},{"uicCode":"8400145","stationCode":"BSMZ","name":"Bussum Zuid","coordinate":{"lat":52.2658348083496,"lng":5.16305541992188},"countryCode":"NL"},{"uicCode":"8400324","stationCode":"HVSM","name":"Hilversum Media Park","coordinate":{"lat":52.2380561828613,"lng":5.17388868331909},"countryCode":"NL"},{"uicCode":"8400322","stationCode":"HVS","name":"Hilversum","coordinate":{"lat":52.2258338928223,"lng":5.18194437026978},"countryCode":"NL"},{"uicCode":"8400086","stationCode":"BRN","name":"Baarn","coordinate":{"lat":52.2083320617676,"lng":5.28083324432373},"countryCode":"NL"},{"uicCode":"8400055","stationCode":"AMF","name":"Amersfoort Centraal","coordinate":{"lat":52.1538887023926,"lng":5.37055540084839},"countryCode":"NL"},{"uicCode":"8400490","stationCode":"HVL","name":"Hoevelaken","coordinate":{"lat":52.16652,"lng":5.45718},"countryCode":"NL"},{"uicCode":"8400066","stationCode":"APD","name":"Apeldoorn","coordinate":{"lat":52.2091674804687,"lng":5.97027778625488},"countryCode":"NL"},{"uicCode":"8400229","stationCode":"APDO","name":"Apeldoorn Osseveld","coordinate":{"lat":52.2152786254883,"lng":6.00444459915161},"countryCode":"NL"},{"uicCode":"8400599","stationCode":"TWL","name":"Twello","coordinate":{"lat":52.2377777099609,"lng":6.09861087799072},"countryCode":"NL"},{"uicCode":"8400173","stationCode":"DV","name":"Deventer","coordinate":{"lat":52.2574996948242,"lng":6.16055536270142},"countryCode":"NL"},{"uicCode":"8400185","stationCode":"DVC","name":"Deventer Colmschate","coordinate":{"lat":52.2502784729004,"lng":6.21444463729858},"countryCode":"NL"},{"uicCode":"8400328","stationCode":"HON","name":"Holten","coordinate":{"lat":52.2838897705078,"lng":6.42027759552002},"countryCode":"NL"},{"uicCode":"8400538","stationCode":"RSN","name":"Rijssen","coordinate":{"lat":52.3122215270996,"lng":6.52027797698975},"countryCode":"NL"},{"uicCode":"8400691","stationCode":"WDN","name":"Wierden","coordinate":{"lat":52.3613891601562,"lng":6.59166669845581},"countryCode":"NL"},{"uicCode":"8400051","stationCode":"AML","name":"Almelo","coordinate":{"lat":52.3580551147461,"lng":6.65388870239258},"countryCode":"NL"},{"uicCode":"8400520","stationCode":"AMRI","name":"Almelo de Riet","coordinate":{"lat":52.3419456481934,"lng":6.66666650772095},"countryCode":"NL"},{"uicCode":"8400124","stationCode":"BN","name":"Borne","coordinate":{"lat":52.2988891601562,"lng":6.74805545806885},"countryCode":"NL"},{"uicCode":"8400316","stationCode":"HGL","name":"Hengelo","coordinate":{"lat":52.2616653442383,"lng":6.79388904571533},"countryCode":"NL"},{"uicCode":"8400312","stationCode":"HGLO","name":"Hengelo Oost","coordinate":{"lat":52.2688903808594,"lng":6.81944465637207},"countryCode":"NL"},{"uicCode":"8400483","stationCode":"ODZ","name":"Oldenzaal","coordinate":{"lat":52.3063888549805,"lng":6.93472242355347},"countryCode":"NL"},{"uicCode":"8021156","stationCode":"BH","name":"Bad Bentheim","coordinate":{"lat":52.309685595156,"lng":7.15853691101074},"countryCode":"D"}],"direction":"ONE_WAY"},"description":"aangepaste internationale dienstregeling","level":"LESS_TRAINS"},"sectionType":"NEIGHBORING_COUNTRY"}],"timespans":[{"start":"2023-07-08T04:00:00+0200","end":"2023-07-17T02:00:00+0200","period":"Zaterdag 08-07-2023 04:00 uur t/m maandag 17-07-2023 02:00 uur.","situation":{"label":"Door werkzaamheden: tussen Amsterdam Centraal en Bad Bentheim is de internationale dienstregeling aangepast."},"cause":{"label":"werkzaamheden"},"additionalTravelTime":{"label":"De extra reistijd kan oplopen tot 30 minuten.","shortLabel":"Extra reistijd tot 30 min.","maximumDurationInMinutes":30},"alternativeTransport":{"label":"er rijden bussen","shortLabel":"er rijden bussen"},"advices":["Dit kan gevolgen hebben voor uw reis. Plan uw reis in de (Internationale) app."]}],"alternativeTransportTimespans":[{"start":"2023-07-08T04:00:00+0200","end":"2023-07-17T02:00:00+0200","alternativeTransport":{"location":[{"station":{"uicCode":"8400051","stationCode":"AML","name":"Almelo","coordinate":{"lat":52.3580551147461,"lng":6.65388870239258},"countryCode":"NL"},"description":"vanaf de voorzijde van het station"},{"station":{"uicCode":"8400316","stationCode":"HGL","name":"Hengelo","coordinate":{"lat":52.2616653442383,"lng":6.79388904571533},"countryCode":"NL"},"description":"vanaf de voorzijde van het station"}],"label":"Er rijden bussen tussen Almelo, Hengelo en Bad Bentheim.","shortLabel":"Er rijden bussen Almelo - Hengelo - Bad Bentheim"}},{"start":"2023-07-08T04:00:00+0200","end":"2023-07-17T02:00:00+0200","alternativeTransport":{"location":[{"station":{"uicCode":"8400538","stationCode":"RSN","name":"Rijssen","coordinate":{"lat":52.3122215270996,"lng":6.52027797698975},"countryCode":"NL"},"description":"vanaf het P+R-terrein"}],"label":"Er rijden bussen tussen Rijssen en Bad Bentheim.","shortLabel":"Er rijden bussen Rijssen - Bad Bentheim"}}]},{"id":"7003676","type":"MAINTENANCE","registrationTime":"2023-07-03T14:03:29+0200","releaseTime":"2023-07-03T14:03:29+0200","local":false,"title":"Almelo.","titleSections":[[{"type":"STATION","value":"Almelo"}]],"isActive":true,"start":"2023-07-08T04:00:00+0200","end":"2023-07-17T02:00:00+0200","period":"Zaterdag 08-07-2023 04:00 uur t/m maandag 17-07-2023 02:00 uur.","impact":{"value":5},"summaryAdditionalTravelTime":{"label":"De extra reistijd kan oplopen tot 30 minuten.","shortLabel":"Extra reistijd tot 30 min.","maximumDurationInMinutes":30},"publicationSections":[{"section":{"stations":[{"uicCode":"8400051","stationCode":"AML","name":"Almelo","coordinate":{"lat":52.3580551147461,"lng":6.65388870239258},"countryCode":"NL"},{"uicCode":"8400664","stationCode":"VZ","name":"Vriezenveen","coordinate":{"lat":52.40203,"lng":6.60041},"countryCode":"NL"},{"uicCode":"8400164","stationCode":"DA","name":"Daarlerveen","coordinate":{"lat":52.4407702,"lng":6.5759947},"countryCode":"NL"},{"uicCode":"8400666","stationCode":"VHP","name":"Vroomshoop","coordinate":{"lat":52.4571921,"lng":6.5696679},"countryCode":"NL"},{"uicCode":"8400428","stationCode":"MRB","name":"Mariënberg","coordinate":{"lat":52.5094451904297,"lng":6.57527780532837},"countryCode":"NL"},{"uicCode":"8400293","stationCode":"HDB","name":"Hardenberg","coordinate":{"lat":52.5727767944336,"lng":6.62861108779907},"countryCode":"NL"}],"direction":"BOTH"},"consequence":{"section":{"stations":[{"uicCode":"8400051","stationCode":"AML","name":"Almelo","coordinate":{"lat":52.3580551147461,"lng":6.65388870239258},"countryCode":"NL"}],"direction":"ONE_WAY"},"description":"rijden bussen","level":"LESS_TRAINS"},"sectionType":"NL"},{"section":{"stations":[{"uicCode":"8400747","stationCode":"ZL","name":"Zwolle","coordinate":{"lat":52.5047225952148,"lng":6.09194421768188},"countryCode":"NL"},{"uicCode":"8400310","stationCode":"HNO","name":"Heino","coordinate":{"lat":52.4272232055664,"lng":6.22111129760742},"countryCode":"NL"},{"uicCode":"8400513","stationCode":"RAT","name":"Raalte","coordinate":{"lat":52.3916664123535,"lng":6.27750015258789},"countryCode":"NL"},{"uicCode":"8400472","stationCode":"NVD","name":"Nijverdal","coordinate":{"lat":52.366111,"lng":6.462},"countryCode":"NL"},{"uicCode":"8400691","stationCode":"WDN","name":"Wierden","coordinate":{"lat":52.3613891601562,"lng":6.59166669845581},"countryCode":"NL"},{"uicCode":"8400051","stationCode":"AML","name":"Almelo","coordinate":{"lat":52.3580551147461,"lng":6.65388870239258},"countryCode":"NL"},{"uicCode":"8400520","stationCode":"AMRI","name":"Almelo de Riet","coordinate":{"lat":52.3419456481934,"lng":6.66666650772095},"countryCode":"NL"},{"uicCode":"8400124","stationCode":"BN","name":"Borne","coordinate":{"lat":52.2988891601562,"lng":6.74805545806885},"countryCode":"NL"},{"uicCode":"8400316","stationCode":"HGL","name":"Hengelo","coordinate":{"lat":52.2616653442383,"lng":6.79388904571533},"countryCode":"NL"},{"uicCode":"8400221","stationCode":"ESK","name":"Enschede Kennispark","coordinate":{"lat":52.2374992370605,"lng":6.83888912200928},"countryCode":"NL"},{"uicCode":"8400212","stationCode":"ES","name":"Enschede","coordinate":{"lat":52.2224998474121,"lng":6.8899998664856},"countryCode":"NL"}],"direction":"BOTH"},"consequence":{"section":{"stations":[{"uicCode":"8400051","stationCode":"AML","name":"Almelo","coordinate":{"lat":52.3580551147461,"lng":6.65388870239258},"countryCode":"NL"}],"direction":"ONE_WAY"},"description":"rijden bussen","level":"LESS_TRAINS"},"sectionType":"NL"},{"section":{"stations":[{"uicCode":"8400173","stationCode":"DV","name":"Deventer","coordinate":{"lat":52.2574996948242,"lng":6.16055536270142},"countryCode":"NL"},{"uicCode":"8400185","stationCode":"DVC","name":"Deventer Colmschate","coordinate":{"lat":52.2502784729004,"lng":6.21444463729858},"countryCode":"NL"},{"uicCode":"8400328","stationCode":"HON","name":"Holten","coordinate":{"lat":52.2838897705078,"lng":6.42027759552002},"countryCode":"NL"},{"uicCode":"8400538","stationCode":"RSN","name":"Rijssen","coordinate":{"lat":52.3122215270996,"lng":6.52027797698975},"countryCode":"NL"},{"uicCode":"8400691","stationCode":"WDN","name":"Wierden","coordinate":{"lat":52.3613891601562,"lng":6.59166669845581},"countryCode":"NL"},{"uicCode":"8400051","stationCode":"AML","name":"Almelo","coordinate":{"lat":52.3580551147461,"lng":6.65388870239258},"countryCode":"NL"},{"uicCode":"8400520","stationCode":"AMRI","name":"Almelo de Riet","coordinate":{"lat":52.3419456481934,"lng":6.66666650772095},"countryCode":"NL"},{"uicCode":"8400124","stationCode":"BN","name":"Borne","coordinate":{"lat":52.2988891601562,"lng":6.74805545806885},"countryCode":"NL"},{"uicCode":"8400316","stationCode":"HGL","name":"Hengelo","coordinate":{"lat":52.2616653442383,"lng":6.79388904571533},"countryCode":"NL"},{"uicCode":"8400221","stationCode":"ESK","name":"Enschede Kennispark","coordinate":{"lat":52.2374992370605,"lng":6.83888912200928},"countryCode":"NL"},{"uicCode":"8400212","stationCode":"ES","name":"Enschede","coordinate":{"lat":52.2224998474121,"lng":6.8899998664856},"countryCode":"NL"}],"direction":"BOTH"},"consequence":{"section":{"stations":[{"uicCode":"8400051","stationCode":"AML","name":"Almelo","coordinate":{"lat":52.3580551147461,"lng":6.65388870239258},"countryCode":"NL"}],"direction":"ONE_WAY"},"description":"rijden bussen","level":"LESS_TRAINS"},"sectionType":"NL"}],"timespans":[{"start":"2023-07-08T04:00:00+0200","end":"2023-07-17T02:00:00+0200","period":"Zaterdag 08-07-2023 04:00 uur t/m maandag 17-07-2023 02:00 uur.","situation":{"label":"Door werkzaamheden: van, via en naar Almelo rijden er bussen."},"cause":{"label":"werkzaamheden"},"additionalTravelTime":{"label":"De extra reistijd kan oplopen tot 30 minuten.","shortLabel":"Extra reistijd tot 30 min.","maximumDurationInMinutes":30},"alternativeTransport":{"label":"er rijden stop- en snelbussen","shortLabel":"er rijden stop- en snelbussen"},"advices":[]}],"alternativeTransportTimespans":[{"start":"2023-07-08T04:00:00+0200","end":"2023-07-17T02:00:00+0200","alternativeTransport":{"location":[{"station":{"uicCode":"8400691","stationCode":"WDN","name":"Wierden","coordinate":{"lat":52.3613891601562,"lng":6.59166669845581},"countryCode":"NL"},"description":"vanaf de voorzijde van het station"},{"station":{"uicCode":"8400051","stationCode":"AML","name":"Almelo","coordinate":{"lat":52.3580551147461,"lng":6.65388870239258},"countryCode":"NL"},"description":"vanaf het busstation"},{"station":{"uicCode":"8400520","stationCode":"AMRI","name":"Almelo de Riet","coordinate":{"lat":52.3419456481934,"lng":6.66666650772095},"countryCode":"NL"},"description":"vanaf de voorzijde van het station"},{"station":{"uicCode":"8400124","stationCode":"BN","name":"Borne","coordinate":{"lat":52.2988891601562,"lng":6.74805545806885},"countryCode":"NL"},"description":"vanaf de voorzijde van het station"},{"station":{"uicCode":"8400316","stationCode":"HGL","name":"Hengelo","coordinate":{"lat":52.2616653442383,"lng":6.79388904571533},"countryCode":"NL"},"description":"vanaf de voorzijde van het station"}],"label":"Er rijden stopbussen tussen Wierden, Almelo, Almelo de Riet, Borne en Hengelo.","shortLabel":"Er rijden stopbussen Wierden - Almelo - de Riet - Borne - Hengelo"}},{"start":"2023-07-08T04:00:00+0200","end":"2023-07-17T02:00:00+0200","alternativeTransport":{"location":[{"station":{"uicCode":"8400538","stationCode":"RSN","name":"Rijssen","coordinate":{"lat":52.3122215270996,"lng":6.52027797698975},"countryCode":"NL"},"description":"vanaf het P+R-terrein"}],"label":"Er rijden snelbussen tussen Rijssen en Bad Bentheim.","shortLabel":"Er rijden snelbussen Rijssen - Bad Bentheim"}},{"start":"2023-07-08T04:00:00+0200","end":"2023-07-17T02:00:00+0200","alternativeTransport":{"location":[{"station":{"uicCode":"8400051","stationCode":"AML","name":"Almelo","coordinate":{"lat":52.3580551147461,"lng":6.65388870239258},"countryCode":"NL"},"description":"vanaf de voorzijde van het station"},{"station":{"uicCode":"8400316","stationCode":"HGL","name":"Hengelo","coordinate":{"lat":52.2616653442383,"lng":6.79388904571533},"countryCode":"NL"},"description":"vanaf de voorzijde van het station"}],"label":"Er rijden bussen tussen Almelo, Hengelo en Bad Bentheim.","shortLabel":"Er rijden bussen Almelo - Hengelo - Bad Bentheim"}},{"start":"2023-07-08T04:00:00+0200","end":"2023-07-17T02:00:00+0200","alternativeTransport":{"location":[{"station":{"uicCode":"8400538","stationCode":"RSN","name":"Rijssen","coordinate":{"lat":52.3122215270996,"lng":6.52027797698975},"countryCode":"NL"},"description":"vanaf het P+R-terrein"},{"station":{"uicCode":"8400691","stationCode":"WDN","name":"Wierden","coordinate":{"lat":52.3613891601562,"lng":6.59166669845581},"countryCode":"NL"},"description":"vanaf de voorzijde van het station"},{"station":{"uicCode":"8400051","stationCode":"AML","name":"Almelo","coordinate":{"lat":52.3580551147461,"lng":6.65388870239258},"countryCode":"NL"},"description":"vanaf de voorzijde van het station"},{"station":{"uicCode":"8400316","stationCode":"HGL","name":"Hengelo","coordinate":{"lat":52.2616653442383,"lng":6.79388904571533},"countryCode":"NL"},"description":"vanaf de voorzijde van het station"},{"station":{"uicCode":"8400212","stationCode":"ES","name":"Enschede","coordinate":{"lat":52.2224998474121,"lng":6.8899998664856},"countryCode":"NL"},"description":"vanaf de voorzijde van het station"}],"label":"Er rijden stopbussen tussen Rijssen, Wierden, Almelo, Hengelo en Enschede.","shortLabel":"Er rijden stopbussen Rijssen - Wierden - Almelo - Hengelo - Enschede"}},{"start":"2023-07-08T04:00:00+0200","end":"2023-07-17T02:00:00+0200","alternativeTransport":{"location":[{"station":{"uicCode":"8400051","stationCode":"AML","name":"Almelo","coordinate":{"lat":52.3580551147461,"lng":6.65388870239258},"countryCode":"NL"},"description":"vanaf het busstation"},{"station":{"uicCode":"8400664","stationCode":"VZ","name":"Vriezenveen","coordinate":{"lat":52.40203,"lng":6.60041},"countryCode":"NL"},"description":"vanaf de Hammerweg, nabij de spoorovergang"},{"station":{"uicCode":"8400164","stationCode":"DA","name":"Daarlerveen","coordinate":{"lat":52.4407702,"lng":6.5759947},"countryCode":"NL"},"description":"vanaf de doorgaande weg"},{"station":{"uicCode":"8400666","stationCode":"VHP","name":"Vroomshoop","coordinate":{"lat":52.4571921,"lng":6.5696679},"countryCode":"NL"},"description":"vanaf de achterzijde van 't station, t.h.v. Hoek Stobbelaan en Burg. Koetjeslaan"},{"station":{"uicCode":"8400428","stationCode":"MRB","name":"Mariënberg","coordinate":{"lat":52.5094451904297,"lng":6.57527780532837},"countryCode":"NL"},"description":"vanaf de voorzijde van het station"}],"label":"Er rijden stopbussen tussen Almelo, Vriezenveen, Daarlerveen, Vroomshoop en Mariënberg.","shortLabel":"Er rijden stopbussen Almelo - Vriezenveen - Daarlerveen - Vroomshoop - Mariënberg"}}]},{"id":"7003687","type":"MAINTENANCE","registrationTime":"2023-06-26T10:06:38+0200","releaseTime":"2023-06-26T10:06:38+0200","local":false,"title":"Amsterdam - Enkhuizen.","titleSections":[[{"type":"STATION","value":"Amsterdam C."},{"type":"STATION","value":"Hoorn"},{"type":"ICON","value":"MAINTENANCE"},{"type":"STATION","value":"Enkhuizen"}]],"isActive":true,"start":"2023-07-10T00:00:00+0200","end":"2023-07-14T02:00:00+0200","period":"Maandag 10-07-2023 00:00 uur t/m vrijdag 14-07-2023 02:00 uur.","impact":{"value":4},"summaryAdditionalTravelTime":{"label":"De extra reistijd is ongeveer 30 minuten.","shortLabel":"Extra reistijd 30 min.","minimumDurationInMinutes":30,"maximumDurationInMinutes":30},"publicationSections":[{"section":{"stations":[{"uicCode":"8400058","stationCode":"ASD","name":"Amsterdam Centraal","coordinate":{"lat":52.3788871765137,"lng":4.90027761459351},"countryCode":"NL"},{"uicCode":"8400059","stationCode":"ASS","name":"Amsterdam Sloterdijk","coordinate":{"lat":52.3888893127441,"lng":4.83777761459351},"countryCode":"NL"},{"uicCode":"8400731","stationCode":"ZD","name":"Zaandam","coordinate":{"lat":52.4388885498047,"lng":4.81361103057861},"countryCode":"NL"},{"uicCode":"8400728","stationCode":"ZDK","name":"Zaandam Kogerveld","coordinate":{"lat":52.4566650390625,"lng":4.82027769088745},"countryCode":"NL"},{"uicCode":"8400499","stationCode":"PMW","name":"Purmerend Weidevenne","coordinate":{"lat":52.4965906325416,"lng":4.93562936782836},"countryCode":"NL"},{"uicCode":"8400508","stationCode":"PMR","name":"Purmerend","coordinate":{"lat":52.5030555725098,"lng":4.95361089706421},"countryCode":"NL"},{"uicCode":"8400506","stationCode":"PMO","name":"Purmerend Overwhere","coordinate":{"lat":52.5113906860352,"lng":4.96833324432373},"countryCode":"NL"},{"uicCode":"8400337","stationCode":"HN","name":"Hoorn","coordinate":{"lat":52.6447219848633,"lng":5.05555534362793},"countryCode":"NL"},{"uicCode":"8400336","stationCode":"HNK","name":"Hoorn Kersenboogerd","coordinate":{"lat":52.6536102294922,"lng":5.08555555343628},"countryCode":"NL"},{"uicCode":"8400334","stationCode":"HKS","name":"Hoogkarspel","coordinate":{"lat":52.6905555725098,"lng":5.18388891220093},"countryCode":"NL"},{"uicCode":"8400127","stationCode":"BKG","name":"Bovenkarspel-Grootebroek","coordinate":{"lat":52.6949996948242,"lng":5.23777770996094},"countryCode":"NL"},{"uicCode":"8400230","stationCode":"BKF","name":"Bovenkarspel Flora","coordinate":{"lat":52.6961097717285,"lng":5.25277757644653},"countryCode":"NL"},{"uicCode":"8400210","stationCode":"EKZ","name":"Enkhuizen","coordinate":{"lat":52.6991653442383,"lng":5.28638887405396},"countryCode":"NL"}],"direction":"BOTH"},"consequence":{"section":{"stations":[{"uicCode":"8400337","stationCode":"HN","name":"Hoorn","coordinate":{"lat":52.6447219848633,"lng":5.05555534362793},"countryCode":"NL"},{"uicCode":"8400336","stationCode":"HNK","name":"Hoorn Kersenboogerd","coordinate":{"lat":52.6536102294922,"lng":5.08555555343628},"countryCode":"NL"},{"uicCode":"8400334","stationCode":"HKS","name":"Hoogkarspel","coordinate":{"lat":52.6905555725098,"lng":5.18388891220093},"countryCode":"NL"},{"uicCode":"8400127","stationCode":"BKG","name":"Bovenkarspel-Grootebroek","coordinate":{"lat":52.6949996948242,"lng":5.23777770996094},"countryCode":"NL"},{"uicCode":"8400230","stationCode":"BKF","name":"Bovenkarspel Flora","coordinate":{"lat":52.6961097717285,"lng":5.25277757644653},"countryCode":"NL"},{"uicCode":"8400210","stationCode":"EKZ","name":"Enkhuizen","coordinate":{"lat":52.6991653442383,"lng":5.28638887405396},"countryCode":"NL"}],"direction":"ONE_WAY"},"description":"rijden bussen","level":"LESS_TRAINS"},"sectionType":"NL"}],"timespans":[{"start":"2023-07-10T00:00:00+0200","end":"2023-07-14T02:00:00+0200","period":"Maandag 10-07-2023 00:00 uur t/m vrijdag 14-07-2023 02:00 uur.","situation":{"label":"Door werkzaamheden: tussen Hoorn en Enkhuizen rijden er bussen."},"cause":{"label":"werkzaamheden"},"additionalTravelTime":{"label":"De extra reistijd is ongeveer 30 minuten.","shortLabel":"Extra reistijd 30 min.","minimumDurationInMinutes":30,"maximumDurationInMinutes":30},"alternativeTransport":{"label":"maak gebruik van het vervangende vervoer","shortLabel":"gebruik het vervangende vervoer"},"advices":["Tussen Enkhuizen en Bovenkarspel-Gr./Bovenkarspel Fl. reist u via Hoogkarspel"]}],"alternativeTransportTimespans":[{"start":"2023-07-10T00:00:00+0200","end":"2023-07-14T02:00:00+0200","alternativeTransport":{"location":[{"station":{"uicCode":"8400337","stationCode":"HN","name":"Hoorn","coordinate":{"lat":52.6447219848633,"lng":5.05555534362793},"countryCode":"NL"},"description":"vanaf de voorzijde van het station"},{"station":{"uicCode":"8400336","stationCode":"HNK","name":"Hoorn Kersenboogerd","coordinate":{"lat":52.6536102294922,"lng":5.08555555343628},"countryCode":"NL"},"description":"vanaf de bushalte aan de Rijnweg"},{"station":{"uicCode":"8400334","stationCode":"HKS","name":"Hoogkarspel","coordinate":{"lat":52.6905555725098,"lng":5.18388891220093},"countryCode":"NL"},"description":"vanaf het Stationsplein"},{"station":{"uicCode":"8400210","stationCode":"EKZ","name":"Enkhuizen","coordinate":{"lat":52.6991653442383,"lng":5.28638887405396},"countryCode":"NL"},"description":"vanaf de voorzijde van het station"}],"label":"Er rijden bussen tussen Hoorn, Hoorn Kersenboogerd, Hoogkarspel en Enkhuizen.","shortLabel":"Er rijden bussen Hoorn - Kersenboogerd - Hoogkarspel - Enkhuizen"}},{"start":"2023-07-10T00:00:00+0200","end":"2023-07-14T02:00:00+0200","alternativeTransport":{"location":[{"station":{"uicCode":"8400334","stationCode":"HKS","name":"Hoogkarspel","coordinate":{"lat":52.6905555725098,"lng":5.18388891220093},"countryCode":"NL"},"description":"vanaf het Stationsplein"},{"station":{"uicCode":"8400127","stationCode":"BKG","name":"Bovenkarspel-Grootebroek","coordinate":{"lat":52.6949996948242,"lng":5.23777770996094},"countryCode":"NL"},"description":"vanaf de Burgemeester J.N. Stuifbergenlaan"},{"station":{"uicCode":"8400230","stationCode":"BKF","name":"Bovenkarspel Flora","coordinate":{"lat":52.6961097717285,"lng":5.25277757644653},"countryCode":"NL"},"description":"vanaf de doorgaande weg"}],"label":"Er rijden taxibusjes tussen Hoogkarspel, Bovenkarspel-Grootebroek en Bovenkarspel Flora.","shortLabel":"Er rijden taxibusjes Hoogkarspel - Bovenkarspel-Gr. - Bovenkarspel Fl."}}]},{"id":"7003636","type":"MAINTENANCE","registrationTime":"2023-07-04T09:13:33+0200","releaseTime":"2023-07-04T09:13:33+0200","local":false,"title":"Den Haag Centraal.","titleSections":[[{"type":"STATION","value":"Den Haag C."}]],"isActive":false,"start":"2023-07-11T01:00:00+0200","end":"2023-07-11T05:15:00+0200","period":"Dinsdag 11-07-2023 01:00 uur t/m dinsdag 11-07-2023 05:15 uur.","impact":{"value":2},"summaryAdditionalTravelTime":{"label":"U heeft geen langere reistijd.","shortLabel":"Geen extra reistijd"},"publicationSections":[{"section":{"stations":[{"uicCode":"8400390","stationCode":"LEDN","name":"Leiden Centraal","coordinate":{"lat":52.1661109924316,"lng":4.48166656494141},"countryCode":"NL"},{"uicCode":"8400188","stationCode":"DVNK","name":"De Vink","coordinate":{"lat":52.1472206115723,"lng":4.4563889503479},"countryCode":"NL"},{"uicCode":"8400659","stationCode":"VST","name":"Voorschoten","coordinate":{"lat":52.1252784729004,"lng":4.43249988555908},"countryCode":"NL"},{"uicCode":"8400278","stationCode":"GVM","name":"Den Haag Mariahoeve","coordinate":{"lat":52.0905570983887,"lng":4.36944437026978},"countryCode":"NL"},{"uicCode":"8400380","stationCode":"LAA","name":"Den Haag Laan v NOI","coordinate":{"lat":52.0786094665527,"lng":4.34277772903442},"countryCode":"NL"},{"uicCode":"8400282","stationCode":"GVC","name":"Den Haag Centraal","coordinate":{"lat":52.0802764892578,"lng":4.32499980926514},"countryCode":"NL"}],"direction":"BOTH"},"consequence":{"section":{"stations":[{"uicCode":"8400282","stationCode":"GVC","name":"Den Haag Centraal","coordinate":{"lat":52.0802764892578,"lng":4.32499980926514},"countryCode":"NL"}],"direction":"ONE_WAY"},"description":"dienstregeling aangepast","level":"LESS_TRAINS"},"sectionType":"NL"},{"section":{"stations":[{"uicCode":"8400282","stationCode":"GVC","name":"Den Haag Centraal","coordinate":{"lat":52.0802764892578,"lng":4.32499980926514},"countryCode":"NL"},{"uicCode":"8400280","stationCode":"GV","name":"Den Haag HS","coordinate":{"lat":52.0697212219238,"lng":4.32250022888184},"countryCode":"NL"},{"uicCode":"8400279","stationCode":"GVMW","name":"Den Haag Moerwijk","coordinate":{"lat":52.0538902282715,"lng":4.3086109161377},"countryCode":"NL"},{"uicCode":"8400505","stationCode":"RSW","name":"Rijswijk","coordinate":{"lat":52.039722442627,"lng":4.31916666030884},"countryCode":"NL"},{"uicCode":"8400170","stationCode":"DT","name":"Delft","coordinate":{"lat":52.0066680908203,"lng":4.35638904571533},"countryCode":"NL"},{"uicCode":"8400166","stationCode":"DTCP","name":"Delft Campus","coordinate":{"lat":51.9908332824707,"lng":4.36472225189209},"countryCode":"NL"},{"uicCode":"8400553","stationCode":"SDM","name":"Schiedam Centrum","coordinate":{"lat":51.9212438128032,"lng":4.4089937210083},"countryCode":"NL"},{"uicCode":"8400530","stationCode":"RTD","name":"Rotterdam Centraal","coordinate":{"lat":51.9249992370605,"lng":4.46888875961304},"countryCode":"NL"}],"direction":"BOTH"},"consequence":{"section":{"stations":[{"uicCode":"8400282","stationCode":"GVC","name":"Den Haag Centraal","coordinate":{"lat":52.0802764892578,"lng":4.32499980926514},"countryCode":"NL"}],"direction":"ONE_WAY"},"description":"dienstregeling aangepast","level":"LESS_TRAINS"},"sectionType":"NL"},{"section":{"stations":[{"uicCode":"8400258","stationCode":"GD","name":"Gouda","coordinate":{"lat":52.0175018310547,"lng":4.70444440841675},"countryCode":"NL"},{"uicCode":"8400135","stationCode":"LLZM","name":"Lansingerland-Zoetermeer","coordinate":{"lat":52.042222,"lng":4.517222},"countryCode":"NL"},{"uicCode":"8400740","stationCode":"ZTMO","name":"Zoetermeer Oost","coordinate":{"lat":52.0463905334473,"lng":4.49277782440186},"countryCode":"NL"},{"uicCode":"8400741","stationCode":"ZTM","name":"Zoetermeer","coordinate":{"lat":52.0475006103516,"lng":4.47722244262695},"countryCode":"NL"},{"uicCode":"8400379","stationCode":"YPB","name":"Den Haag Ypenburg","coordinate":{"lat":52.0552787780762,"lng":4.39222240447998},"countryCode":"NL"},{"uicCode":"8400658","stationCode":"VB","name":"Voorburg","coordinate":{"lat":52.0666656494141,"lng":4.3594446182251},"countryCode":"NL"},{"uicCode":"8400282","stationCode":"GVC","name":"Den Haag Centraal","coordinate":{"lat":52.0802764892578,"lng":4.32499980926514},"countryCode":"NL"}],"direction":"BOTH"},"consequence":{"section":{"stations":[{"uicCode":"8400282","stationCode":"GVC","name":"Den Haag Centraal","coordinate":{"lat":52.0802764892578,"lng":4.32499980926514},"countryCode":"NL"}],"direction":"ONE_WAY"},"description":"dienstregeling aangepast","level":"LESS_TRAINS"},"sectionType":"NL"}],"timespans":[{"start":"2023-07-11T01:00:00+0200","end":"2023-07-11T05:15:00+0200","period":"Dinsdag 11-07-2023 01:00 uur t/m dinsdag 11-07-2023 05:15 uur.","situation":{"label":"Door werkzaamheden: van, via en naar Den Haag Centraal is de dienstregeling aangepast."},"cause":{"label":"werkzaamheden"},"additionalTravelTime":{"label":"U heeft geen langere reistijd.","shortLabel":"Geen extra reistijd"},"advices":[]}],"alternativeTransportTimespans":[]},{"id":"7003709","type":"MAINTENANCE","registrationTime":"2023-06-23T10:18:31+0200","releaseTime":"2023-06-23T10:18:31+0200","local":false,"title":"Hengelo - Oldenzaal.","titleSections":[[{"type":"STATION","value":"Hengelo"},{"type":"ICON","value":"MAINTENANCE"},{"type":"STATION","value":"Oldenzaal"}]],"isActive":false,"start":"2023-07-11T05:00:00+0200","end":"2023-07-12T07:15:00+0200","period":"Dinsdag 11-07-2023 05:00 uur t/m woensdag 12-07-2023 07:15 uur.","impact":{"value":3},"summaryAdditionalTravelTime":{"label":"De extra reistijd kan oplopen tot 30 minuten.","shortLabel":"Extra reistijd tot 30 min.","maximumDurationInMinutes":30},"publicationSections":[{"section":{"stations":[{"uicCode":"8400316","stationCode":"HGL","name":"Hengelo","coordinate":{"lat":52.2616653442383,"lng":6.79388904571533},"countryCode":"NL"},{"uicCode":"8400312","stationCode":"HGLO","name":"Hengelo Oost","coordinate":{"lat":52.2688903808594,"lng":6.81944465637207},"countryCode":"NL"},{"uicCode":"8400483","stationCode":"ODZ","name":"Oldenzaal","coordinate":{"lat":52.3063888549805,"lng":6.93472242355347},"countryCode":"NL"}],"direction":"BOTH"},"consequence":{"section":{"stations":[{"uicCode":"8400316","stationCode":"HGL","name":"Hengelo","coordinate":{"lat":52.2616653442383,"lng":6.79388904571533},"countryCode":"NL"},{"uicCode":"8400312","stationCode":"HGLO","name":"Hengelo Oost","coordinate":{"lat":52.2688903808594,"lng":6.81944465637207},"countryCode":"NL"},{"uicCode":"8400483","stationCode":"ODZ","name":"Oldenzaal","coordinate":{"lat":52.3063888549805,"lng":6.93472242355347},"countryCode":"NL"}],"direction":"ONE_WAY"},"description":"rijden bussen","level":"LESS_TRAINS"},"sectionType":"NL"}],"timespans":[{"start":"2023-07-11T05:00:00+0200","end":"2023-07-11T09:15:00+0200","period":"Dinsdag 11-07-2023 05:00 uur t/m dinsdag 11-07-2023 09:15 uur.","situation":{"label":"Door werkzaamheden: tussen Hengelo en Oldenzaal rijden er bussen."},"cause":{"label":"werkzaamheden"},"additionalTravelTime":{"label":"De extra reistijd kan oplopen tot 30 minuten.","shortLabel":"Extra reistijd tot 30 min.","maximumDurationInMinutes":30},"alternativeTransport":{"label":"er rijden stopbussen","shortLabel":"er rijden stopbussen"},"advices":[]},{"start":"2023-07-11T22:45:00+0200","end":"2023-07-12T01:00:00+0200","period":"Dinsdag 11-07-2023 22:45 uur t/m woensdag 12-07-2023 01:00 uur.","situation":{"label":"Door werkzaamheden: tussen Hengelo en Oldenzaal rijden er bussen."},"cause":{"label":"werkzaamheden"},"additionalTravelTime":{"label":"De extra reistijd kan oplopen tot 30 minuten.","shortLabel":"Extra reistijd tot 30 min.","maximumDurationInMinutes":30},"alternativeTransport":{"label":"er rijden stopbussen","shortLabel":"er rijden stopbussen"},"advices":[]},{"start":"2023-07-12T05:00:00+0200","end":"2023-07-12T07:15:00+0200","period":"Woensdag 12-07-2023 05:00 uur t/m woensdag 12-07-2023 07:15 uur.","situation":{"label":"Door werkzaamheden: tussen Hengelo en Oldenzaal rijden er bussen."},"cause":{"label":"werkzaamheden"},"additionalTravelTime":{"label":"De extra reistijd kan oplopen tot 30 minuten.","shortLabel":"Extra reistijd tot 30 min.","maximumDurationInMinutes":30},"alternativeTransport":{"label":"er rijden stopbussen","shortLabel":"er rijden stopbussen"},"advices":[]}],"alternativeTransportTimespans":[{"start":"2023-07-11T05:00:00+0200","end":"2023-07-11T09:15:00+0200","alternativeTransport":{"location":[{"station":{"uicCode":"8400316","stationCode":"HGL","name":"Hengelo","coordinate":{"lat":52.2616653442383,"lng":6.79388904571533},"countryCode":"NL"},"description":"vanaf de voorzijde van het station"},{"station":{"uicCode":"8400312","stationCode":"HGLO","name":"Hengelo Oost","coordinate":{"lat":52.2688903808594,"lng":6.81944465637207},"countryCode":"NL"},"description":"vanaf de voorzijde van het station"},{"station":{"uicCode":"8400483","stationCode":"ODZ","name":"Oldenzaal","coordinate":{"lat":52.3063888549805,"lng":6.93472242355347},"countryCode":"NL"},"description":"vanaf de voorzijde van het station"}],"label":"Er rijden stopbussen tussen Hengelo, Hengelo Oost en Oldenzaal.","shortLabel":"Er rijden stopbussen Hengelo - Hengelo Oost - Oldenzaal"}},{"start":"2023-07-11T22:45:00+0200","end":"2023-07-12T01:00:00+0200","alternativeTransport":{"location":[{"station":{"uicCode":"8400316","stationCode":"HGL","name":"Hengelo","coordinate":{"lat":52.2616653442383,"lng":6.79388904571533},"countryCode":"NL"},"description":"vanaf de voorzijde van het station"},{"station":{"uicCode":"8400312","stationCode":"HGLO","name":"Hengelo Oost","coordinate":{"lat":52.2688903808594,"lng":6.81944465637207},"countryCode":"NL"},"description":"vanaf de voorzijde van het station"},{"station":{"uicCode":"8400483","stationCode":"ODZ","name":"Oldenzaal","coordinate":{"lat":52.3063888549805,"lng":6.93472242355347},"countryCode":"NL"},"description":"vanaf de voorzijde van het station"}],"label":"Er rijden stopbussen tussen Hengelo, Hengelo Oost en Oldenzaal.","shortLabel":"Er rijden stopbussen Hengelo - Hengelo Oost - Oldenzaal"}},{"start":"2023-07-12T05:00:00+0200","end":"2023-07-12T07:15:00+0200","alternativeTransport":{"location":[{"station":{"uicCode":"8400316","stationCode":"HGL","name":"Hengelo","coordinate":{"lat":52.2616653442383,"lng":6.79388904571533},"countryCode":"NL"},"description":"vanaf de voorzijde van het station"},{"station":{"uicCode":"8400312","stationCode":"HGLO","name":"Hengelo Oost","coordinate":{"lat":52.2688903808594,"lng":6.81944465637207},"countryCode":"NL"},"description":"vanaf de voorzijde van het station"},{"station":{"uicCode":"8400483","stationCode":"ODZ","name":"Oldenzaal","coordinate":{"lat":52.3063888549805,"lng":6.93472242355347},"countryCode":"NL"},"description":"vanaf de voorzijde van het station"}],"label":"Er rijden stopbussen tussen Hengelo, Hengelo Oost en Oldenzaal.","shortLabel":"Er rijden stopbussen Hengelo - Hengelo Oost - Oldenzaal"}}]},{"id":"7003732","type":"MAINTENANCE","registrationTime":"2023-06-30T10:05:55+0200","releaseTime":"2023-06-30T10:05:55+0200","local":false,"title":"Amsterdam - Hannover - Berlin.","titleSections":[[{"type":"STATION","value":"Amsterdam C."},{"type":"ICON","value":"MAINTENANCE"},{"type":"STATION","value":"Deventer"},{"type":"STATION","value":"Berlin Hbf"}]],"isActive":false,"start":"2023-07-12T04:00:00+0200","end":"2023-08-07T02:00:00+0200","period":"Woensdag 12-07-2023 04:00 uur t/m maandag 07-08-2023 02:00 uur.","impact":{"value":2},"summaryAdditionalTravelTime":{"label":"U heeft geen langere reistijd.","shortLabel":"Geen extra reistijd"},"publicationSections":[{"section":{"stations":[{"uicCode":"8400058","stationCode":"ASD","name":"Amsterdam Centraal","coordinate":{"lat":52.3788871765137,"lng":4.90027761459351},"countryCode":"NL"},{"uicCode":"8400060","stationCode":"ASDM","name":"Amsterdam Muiderpoort","coordinate":{"lat":52.3605537414551,"lng":4.93111133575439},"countryCode":"NL"},{"uicCode":"8400235","stationCode":"ASSP","name":"Amsterdam Science Park","coordinate":{"lat":52.35526,"lng":4.94651},"countryCode":"NL"},{"uicCode":"8400165","stationCode":"DMN","name":"Diemen","coordinate":{"lat":52.34515,"lng":4.967566},"countryCode":"NL"},{"uicCode":"8400685","stationCode":"WP","name":"Weesp","coordinate":{"lat":52.3127784729004,"lng":5.04305553436279},"countryCode":"NL"},{"uicCode":"8400452","stationCode":"NDB","name":"Naarden-Bussum","coordinate":{"lat":52.2802772521973,"lng":5.15694427490234},"countryCode":"NL"},{"uicCode":"8400145","stationCode":"BSMZ","name":"Bussum Zuid","coordinate":{"lat":52.2658348083496,"lng":5.16305541992188},"countryCode":"NL"},{"uicCode":"8400324","stationCode":"HVSM","name":"Hilversum Media Park","coordinate":{"lat":52.2380561828613,"lng":5.17388868331909},"countryCode":"NL"},{"uicCode":"8400322","stationCode":"HVS","name":"Hilversum","coordinate":{"lat":52.2258338928223,"lng":5.18194437026978},"countryCode":"NL"},{"uicCode":"8400086","stationCode":"BRN","name":"Baarn","coordinate":{"lat":52.2083320617676,"lng":5.28083324432373},"countryCode":"NL"},{"uicCode":"8400055","stationCode":"AMF","name":"Amersfoort Centraal","coordinate":{"lat":52.1538887023926,"lng":5.37055540084839},"countryCode":"NL"},{"uicCode":"8400490","stationCode":"HVL","name":"Hoevelaken","coordinate":{"lat":52.16652,"lng":5.45718},"countryCode":"NL"},{"uicCode":"8400066","stationCode":"APD","name":"Apeldoorn","coordinate":{"lat":52.2091674804687,"lng":5.97027778625488},"countryCode":"NL"},{"uicCode":"8400229","stationCode":"APDO","name":"Apeldoorn Osseveld","coordinate":{"lat":52.2152786254883,"lng":6.00444459915161},"countryCode":"NL"},{"uicCode":"8400599","stationCode":"TWL","name":"Twello","coordinate":{"lat":52.2377777099609,"lng":6.09861087799072},"countryCode":"NL"},{"uicCode":"8400173","stationCode":"DV","name":"Deventer","coordinate":{"lat":52.2574996948242,"lng":6.16055536270142},"countryCode":"NL"},{"uicCode":"8400185","stationCode":"DVC","name":"Deventer Colmschate","coordinate":{"lat":52.2502784729004,"lng":6.21444463729858},"countryCode":"NL"},{"uicCode":"8400328","stationCode":"HON","name":"Holten","coordinate":{"lat":52.2838897705078,"lng":6.42027759552002},"countryCode":"NL"},{"uicCode":"8400538","stationCode":"RSN","name":"Rijssen","coordinate":{"lat":52.3122215270996,"lng":6.52027797698975},"countryCode":"NL"},{"uicCode":"8400691","stationCode":"WDN","name":"Wierden","coordinate":{"lat":52.3613891601562,"lng":6.59166669845581},"countryCode":"NL"},{"uicCode":"8400051","stationCode":"AML","name":"Almelo","coordinate":{"lat":52.3580551147461,"lng":6.65388870239258},"countryCode":"NL"},{"uicCode":"8400520","stationCode":"AMRI","name":"Almelo de Riet","coordinate":{"lat":52.3419456481934,"lng":6.66666650772095},"countryCode":"NL"},{"uicCode":"8400124","stationCode":"BN","name":"Borne","coordinate":{"lat":52.2988891601562,"lng":6.74805545806885},"countryCode":"NL"},{"uicCode":"8400316","stationCode":"HGL","name":"Hengelo","coordinate":{"lat":52.2616653442383,"lng":6.79388904571533},"countryCode":"NL"},{"uicCode":"8400312","stationCode":"HGLO","name":"Hengelo Oost","coordinate":{"lat":52.2688903808594,"lng":6.81944465637207},"countryCode":"NL"},{"uicCode":"8400483","stationCode":"ODZ","name":"Oldenzaal","coordinate":{"lat":52.3063888549805,"lng":6.93472242355347},"countryCode":"NL"},{"uicCode":"8021156","stationCode":"BH","name":"Bad Bentheim","coordinate":{"lat":52.309685595156,"lng":7.15853691101074},"countryCode":"D"},{"uicCode":"8021067","stationCode":"RHEINE","name":"Rheine","coordinate":{"lat":52.276299,"lng":7.434255},"countryCode":"D"},{"uicCode":"8021025","stationCode":"OSNH","name":"Osnabrück Hbf","coordinate":{"lat":52.272851,"lng":8.061781},"countryCode":"D"},{"uicCode":"8013552","stationCode":"HANN","name":"Hannover Hbf","coordinate":{"lat":52.3770401,"lng":9.7416759},"countryCode":"D"},{"uicCode":"8065969","stationCode":"BERHBL","name":"Berlin Hbf","coordinate":{"lat":52.52503,"lng":13.36946},"countryCode":"D"}],"direction":"BOTH"},"consequence":{"section":{"stations":[{"uicCode":"8400058","stationCode":"ASD","name":"Amsterdam Centraal","coordinate":{"lat":52.3788871765137,"lng":4.90027761459351},"countryCode":"NL"},{"uicCode":"8400060","stationCode":"ASDM","name":"Amsterdam Muiderpoort","coordinate":{"lat":52.3605537414551,"lng":4.93111133575439},"countryCode":"NL"},{"uicCode":"8400235","stationCode":"ASSP","name":"Amsterdam Science Park","coordinate":{"lat":52.35526,"lng":4.94651},"countryCode":"NL"},{"uicCode":"8400165","stationCode":"DMN","name":"Diemen","coordinate":{"lat":52.34515,"lng":4.967566},"countryCode":"NL"},{"uicCode":"8400685","stationCode":"WP","name":"Weesp","coordinate":{"lat":52.3127784729004,"lng":5.04305553436279},"countryCode":"NL"},{"uicCode":"8400452","stationCode":"NDB","name":"Naarden-Bussum","coordinate":{"lat":52.2802772521973,"lng":5.15694427490234},"countryCode":"NL"},{"uicCode":"8400145","stationCode":"BSMZ","name":"Bussum Zuid","coordinate":{"lat":52.2658348083496,"lng":5.16305541992188},"countryCode":"NL"},{"uicCode":"8400324","stationCode":"HVSM","name":"Hilversum Media Park","coordinate":{"lat":52.2380561828613,"lng":5.17388868331909},"countryCode":"NL"},{"uicCode":"8400322","stationCode":"HVS","name":"Hilversum","coordinate":{"lat":52.2258338928223,"lng":5.18194437026978},"countryCode":"NL"},{"uicCode":"8400086","stationCode":"BRN","name":"Baarn","coordinate":{"lat":52.2083320617676,"lng":5.28083324432373},"countryCode":"NL"},{"uicCode":"8400055","stationCode":"AMF","name":"Amersfoort Centraal","coordinate":{"lat":52.1538887023926,"lng":5.37055540084839},"countryCode":"NL"},{"uicCode":"8400490","stationCode":"HVL","name":"Hoevelaken","coordinate":{"lat":52.16652,"lng":5.45718},"countryCode":"NL"},{"uicCode":"8400066","stationCode":"APD","name":"Apeldoorn","coordinate":{"lat":52.2091674804687,"lng":5.97027778625488},"countryCode":"NL"},{"uicCode":"8400229","stationCode":"APDO","name":"Apeldoorn Osseveld","coordinate":{"lat":52.2152786254883,"lng":6.00444459915161},"countryCode":"NL"},{"uicCode":"8400599","stationCode":"TWL","name":"Twello","coordinate":{"lat":52.2377777099609,"lng":6.09861087799072},"countryCode":"NL"},{"uicCode":"8400173","stationCode":"DV","name":"Deventer","coordinate":{"lat":52.2574996948242,"lng":6.16055536270142},"countryCode":"NL"}],"direction":"ONE_WAY"},"description":"aangepaste internationale dienstregeling","level":"LESS_TRAINS"},"sectionType":"NEIGHBORING_COUNTRY"}],"timespans":[{"start":"2023-07-12T04:00:00+0200","end":"2023-08-07T02:00:00+0200","period":"Woensdag 12-07-2023 04:00 uur t/m maandag 07-08-2023 02:00 uur.","situation":{"label":"Door werkzaamheden: tussen Amsterdam Centraal en Deventer is de internationale dienstregeling aangepast."},"cause":{"label":"werkzaamheden"},"additionalTravelTime":{"label":"U heeft geen langere reistijd.","shortLabel":"Geen extra reistijd"},"advices":["Dit kan gevolgen hebben voor uw reis. Plan uw reis in de app."]}],"alternativeTransportTimespans":[]},{"id":"7003639","type":"MAINTENANCE","registrationTime":"2023-07-04T11:14:56+0200","releaseTime":"2023-07-04T11:14:56+0200","local":false,"title":"Alphen a/d Rijn - Gouda.","titleSections":[[{"type":"STATION","value":"Alphen a/d Rijn"},{"type":"ICON","value":"MAINTENANCE"},{"type":"STATION","value":"Gouda"}]],"isActive":false,"start":"2023-07-13T04:55:00+0200","end":"2023-07-17T02:15:00+0200","period":"Donderdag 13-07-2023 04:55 uur t/m maandag 17-07-2023 02:15 uur.","impact":{"value":5},"summaryAdditionalTravelTime":{"label":"De extra reistijd kan oplopen tot 45 minuten.","shortLabel":"Extra reistijd tot 45 min.","maximumDurationInMinutes":45},"publicationSections":[{"section":{"stations":[{"uicCode":"8400053","stationCode":"APN","name":"Alphen a/d Rijn","coordinate":{"lat":52.1244430541992,"lng":4.65777778625488},"countryCode":"NL"},{"uicCode":"8400125","stationCode":"BSK","name":"Boskoop","coordinate":{"lat":52.0777778625488,"lng":4.64694452285767},"countryCode":"NL"},{"uicCode":"8400126","stationCode":"BSKS","name":"Boskoop Snijdelwijk","coordinate":{"lat":52.067658,"lng":4.646186},"countryCode":"NL"},{"uicCode":"8400674","stationCode":"WADN","name":"Waddinxveen Noord","coordinate":{"lat":52.0550003051758,"lng":4.64833354949951},"countryCode":"NL"},{"uicCode":"8400675","stationCode":"WAD","name":"Waddinxveen","coordinate":{"lat":52.0441665649414,"lng":4.6497220993042},"countryCode":"NL"},{"uicCode":"8400677","stationCode":"WADT","name":"Waddinxveen Triangel","coordinate":{"lat":52.02725,"lng":4.6491},"countryCode":"NL"},{"uicCode":"8400258","stationCode":"GD","name":"Gouda","coordinate":{"lat":52.0175018310547,"lng":4.70444440841675},"countryCode":"NL"}],"direction":"BOTH"},"consequence":{"section":{"stations":[{"uicCode":"8400053","stationCode":"APN","name":"Alphen a/d Rijn","coordinate":{"lat":52.1244430541992,"lng":4.65777778625488},"countryCode":"NL"},{"uicCode":"8400125","stationCode":"BSK","name":"Boskoop","coordinate":{"lat":52.0777778625488,"lng":4.64694452285767},"countryCode":"NL"},{"uicCode":"8400126","stationCode":"BSKS","name":"Boskoop Snijdelwijk","coordinate":{"lat":52.067658,"lng":4.646186},"countryCode":"NL"},{"uicCode":"8400674","stationCode":"WADN","name":"Waddinxveen Noord","coordinate":{"lat":52.0550003051758,"lng":4.64833354949951},"countryCode":"NL"},{"uicCode":"8400675","stationCode":"WAD","name":"Waddinxveen","coordinate":{"lat":52.0441665649414,"lng":4.6497220993042},"countryCode":"NL"},{"uicCode":"8400677","stationCode":"WADT","name":"Waddinxveen Triangel","coordinate":{"lat":52.02725,"lng":4.6491},"countryCode":"NL"},{"uicCode":"8400258","stationCode":"GD","name":"Gouda","coordinate":{"lat":52.0175018310547,"lng":4.70444440841675},"countryCode":"NL"}],"direction":"ONE_WAY"},"description":"rijden bussen","level":"LESS_TRAINS"},"sectionType":"NL"}],"timespans":[{"start":"2023-07-13T04:55:00+0200","end":"2023-07-17T02:15:00+0200","period":"Donderdag 13-07-2023 04:55 uur t/m maandag 17-07-2023 02:15 uur.","situation":{"label":"Door werkzaamheden: tussen Alphen a/d Rijn en Gouda rijden er bussen."},"cause":{"label":"werkzaamheden"},"additionalTravelTime":{"label":"De extra reistijd kan oplopen tot 45 minuten.","shortLabel":"Extra reistijd tot 45 min.","maximumDurationInMinutes":45},"alternativeTransport":{"label":"er rijden bussen","shortLabel":"er rijden bussen"},"advices":["Tussen Alphen a/d Rijn en Gouda reist u via Woerden"]}],"alternativeTransportTimespans":[{"start":"2023-07-13T04:55:00+0200","end":"2023-07-17T02:15:00+0200","alternativeTransport":{"location":[{"station":{"uicCode":"8400053","stationCode":"APN","name":"Alphen a/d Rijn","coordinate":{"lat":52.1244430541992,"lng":4.65777778625488},"countryCode":"NL"},"description":"vanaf het busstation, centrumzijde"},{"station":{"uicCode":"8400125","stationCode":"BSK","name":"Boskoop","coordinate":{"lat":52.0777778625488,"lng":4.64694452285767},"countryCode":"NL"},"description":"vanaf de NS Bushalte"},{"station":{"uicCode":"8400126","stationCode":"BSKS","name":"Boskoop Snijdelwijk","coordinate":{"lat":52.067658,"lng":4.646186},"countryCode":"NL"},"description":"vanaf de NS Bushalte"},{"station":{"uicCode":"8400674","stationCode":"WADN","name":"Waddinxveen Noord","coordinate":{"lat":52.0550003051758,"lng":4.64833354949951},"countryCode":"NL"},"description":"vanaf het Stationsplein"},{"station":{"uicCode":"8400675","stationCode":"WAD","name":"Waddinxveen","coordinate":{"lat":52.0441665649414,"lng":4.6497220993042},"countryCode":"NL"},"description":"vanaf de NS Bushalte"},{"station":{"uicCode":"8400677","stationCode":"WADT","name":"Waddinxveen Triangel","coordinate":{"lat":52.02725,"lng":4.6491},"countryCode":"NL"},"description":"vanaf de Coenecoop"},{"station":{"uicCode":"8400258","stationCode":"GD","name":"Gouda","coordinate":{"lat":52.0175018310547,"lng":4.70444440841675},"countryCode":"NL"},"description":"vanaf de Bloemendaalzijde"}],"label":"Er rijden bussen tussen Alphen a/d Rijn, Boskoop, Boskoop Snijdelwijk, Waddinxveen Noord, Waddinxveen, Waddinxveen Triangel en Gouda.","shortLabel":"Er rijden bussen Alphen a/d Rijn - Boskoop - Snijdelwijk - Waddinxveen N. - Waddinxveen - Triangel - Gouda"}}]},{"id":"7003649","type":"MAINTENANCE","registrationTime":"2023-06-14T19:34:42+0200","releaseTime":"2023-06-14T19:34:42+0200","local":false,"title":"'s-Hertogenbosch - Oss.","titleSections":[[{"type":"STATION","value":"'s-Hertogenbosch"},{"type":"ICON","value":"MAINTENANCE"},{"type":"STATION","value":"Oss"}]],"isActive":false,"start":"2023-07-15T04:00:00+0200","end":"2023-07-17T02:00:00+0200","period":"Zaterdag 15-07-2023 04:00 uur t/m maandag 17-07-2023 02:00 uur.","impact":{"value":2},"summaryAdditionalTravelTime":{"label":"De extra reistijd is ongeveer 15 minuten.","shortLabel":"Extra reistijd 15 min.","minimumDurationInMinutes":15,"maximumDurationInMinutes":15},"publicationSections":[{"section":{"stations":[{"uicCode":"8400319","stationCode":"HT","name":"'s-Hertogenbosch","coordinate":{"lat":51.69048,"lng":5.29362},"countryCode":"NL"},{"uicCode":"8400320","stationCode":"HTO","name":"'s-Hertogenbosch Oost","coordinate":{"lat":51.700553894043,"lng":5.3183331489563},"countryCode":"NL"},{"uicCode":"8400524","stationCode":"RS","name":"Rosmalen","coordinate":{"lat":51.7147216796875,"lng":5.36805534362793},"countryCode":"NL"},{"uicCode":"8400496","stationCode":"OW","name":"Oss West","coordinate":{"lat":51.758056640625,"lng":5.50555562973022},"countryCode":"NL"},{"uicCode":"8400495","stationCode":"O","name":"Oss","coordinate":{"lat":51.7655563354492,"lng":5.53222227096558},"countryCode":"NL"}],"direction":"BOTH"},"consequence":{"section":{"stations":[{"uicCode":"8400319","stationCode":"HT","name":"'s-Hertogenbosch","coordinate":{"lat":51.69048,"lng":5.29362},"countryCode":"NL"},{"uicCode":"8400320","stationCode":"HTO","name":"'s-Hertogenbosch Oost","coordinate":{"lat":51.700553894043,"lng":5.3183331489563},"countryCode":"NL"},{"uicCode":"8400524","stationCode":"RS","name":"Rosmalen","coordinate":{"lat":51.7147216796875,"lng":5.36805534362793},"countryCode":"NL"},{"uicCode":"8400496","stationCode":"OW","name":"Oss West","coordinate":{"lat":51.758056640625,"lng":5.50555562973022},"countryCode":"NL"},{"uicCode":"8400495","stationCode":"O","name":"Oss","coordinate":{"lat":51.7655563354492,"lng":5.53222227096558},"countryCode":"NL"}],"direction":"ONE_WAY"},"description":"dienstregeling aangepast","level":"LESS_TRAINS"},"sectionType":"NL"}],"timespans":[{"start":"2023-07-15T04:00:00+0200","end":"2023-07-17T02:00:00+0200","period":"Zaterdag 15-07-2023 04:00 uur t/m maandag 17-07-2023 02:00 uur.","situation":{"label":"Door werkzaamheden: tussen 's-Hertogenbosch en Oss is de dienstregeling aangepast."},"cause":{"label":"werkzaamheden"},"additionalTravelTime":{"label":"De extra reistijd is ongeveer 15 minuten.","shortLabel":"Extra reistijd 15 min.","minimumDurationInMinutes":15,"maximumDurationInMinutes":15},"alternativeTransport":{"label":"er rijden bussen","shortLabel":"er rijden bussen"},"advices":["Geen Sprinters maar bussen, Intercity's 's-Hertogenbosch-Oss rijden wel."]}],"alternativeTransportTimespans":[{"start":"2023-07-15T04:00:00+0200","end":"2023-07-17T02:00:00+0200","alternativeTransport":{"location":[{"station":{"uicCode":"8400319","stationCode":"HT","name":"'s-Hertogenbosch","coordinate":{"lat":51.69048,"lng":5.29362},"countryCode":"NL"},"description":"vanaf de speciale uitgang op het perron bij spoor 1"},{"station":{"uicCode":"8400320","stationCode":"HTO","name":"'s-Hertogenbosch Oost","coordinate":{"lat":51.700553894043,"lng":5.3183331489563},"countryCode":"NL"},"description":"vanaf de bushalte"},{"station":{"uicCode":"8400524","stationCode":"RS","name":"Rosmalen","coordinate":{"lat":51.7147216796875,"lng":5.36805534362793},"countryCode":"NL"},"description":"vanaf de voorzijde van het station"},{"station":{"uicCode":"8400496","stationCode":"OW","name":"Oss West","coordinate":{"lat":51.758056640625,"lng":5.50555562973022},"countryCode":"NL"},"description":"vanaf de voorzijde van het station"},{"station":{"uicCode":"8400495","stationCode":"O","name":"Oss","coordinate":{"lat":51.7655563354492,"lng":5.53222227096558},"countryCode":"NL"},"description":"vanaf de voorzijde van het station"}],"label":"Er rijden bussen tussen 's-Hertogenbosch, 's-Hertogenbosch Oost, Rosmalen, Oss West en Oss.","shortLabel":"Er rijden bussen 's-Hertogenbosch - 's-Hertogenb. O. - Rosmalen - Oss West - Oss"}}]},{"id":"7003648","type":"MAINTENANCE","registrationTime":"2023-06-12T09:44:24+0200","releaseTime":"2023-06-12T09:44:24+0200","local":false,"title":"Utrecht - 's-Hertogenbosch; Utrecht - Tiel.","titleSections":[[{"type":"STATION","value":"Utrecht C."},{"type":"ICON","value":"MAINTENANCE"},{"type":"STATION","value":"'s-Hertogenbosch"}],[{"type":"STATION","value":"Utrecht C."},{"type":"ICON","value":"MAINTENANCE"},{"type":"STATION","value":"Tiel"}],[{"type":"STATION","value":"Utrecht C."},{"type":"STATION","value":"Houten"},{"type":"ICON","value":"MAINTENANCE"},{"type":"STATION","value":"Geldermalsen"},{"type":"STATION","value":"'s-Hertogenbosch"}],[{"type":"STATION","value":"Utrecht C."},{"type":"STATION","value":"Houten"},{"type":"ICON","value":"MAINTENANCE"},{"type":"STATION","value":"Geldermalsen"},{"type":"STATION","value":"Tiel"}]],"isActive":false,"start":"2023-07-15T04:00:00+0200","end":"2023-07-21T13:00:00+0200","period":"Zaterdag 15-07-2023 04:00 uur t/m vrijdag 21-07-2023 13:00 uur.","impact":{"value":5},"summaryAdditionalTravelTime":{"label":"De extra reistijd kan oplopen tot 30 minuten.","shortLabel":"Extra reistijd tot 30 min.","minimumDurationInMinutes":30,"maximumDurationInMinutes":30},"publicationSections":[{"section":{"stations":[{"uicCode":"8400621","stationCode":"UT","name":"Utrecht Centraal","coordinate":{"lat":52.0888900756836,"lng":5.11027765274048},"countryCode":"NL"},{"uicCode":"8400606","stationCode":"UTVR","name":"Utrecht Vaartsche Rijn","coordinate":{"lat":52.078889,"lng":5.121667},"countryCode":"NL"},{"uicCode":"8400623","stationCode":"UTLN","name":"Utrecht Lunetten","coordinate":{"lat":52.0655555725098,"lng":5.14416646957397},"countryCode":"NL"},{"uicCode":"8400340","stationCode":"HTN","name":"Houten","coordinate":{"lat":52.03402,"lng":5.16821},"countryCode":"NL"},{"uicCode":"8400335","stationCode":"HTNC","name":"Houten Castellum","coordinate":{"lat":52.01701,"lng":5.17949},"countryCode":"NL"},{"uicCode":"8400154","stationCode":"CL","name":"Culemborg","coordinate":{"lat":51.9466667175293,"lng":5.22694444656372},"countryCode":"NL"},{"uicCode":"8400244","stationCode":"GDM","name":"Geldermalsen","coordinate":{"lat":51.88301,"lng":5.27127},"countryCode":"NL"},{"uicCode":"8400732","stationCode":"ZBM","name":"Zaltbommel","coordinate":{"lat":51.8088874816895,"lng":5.26333332061768},"countryCode":"NL"},{"uicCode":"8400319","stationCode":"HT","name":"'s-Hertogenbosch","coordinate":{"lat":51.69048,"lng":5.29362},"countryCode":"NL"}],"direction":"BOTH"},"consequence":{"section":{"stations":[{"uicCode":"8400621","stationCode":"UT","name":"Utrecht Centraal","coordinate":{"lat":52.0888900756836,"lng":5.11027765274048},"countryCode":"NL"},{"uicCode":"8400606","stationCode":"UTVR","name":"Utrecht Vaartsche Rijn","coordinate":{"lat":52.078889,"lng":5.121667},"countryCode":"NL"},{"uicCode":"8400623","stationCode":"UTLN","name":"Utrecht Lunetten","coordinate":{"lat":52.0655555725098,"lng":5.14416646957397},"countryCode":"NL"},{"uicCode":"8400340","stationCode":"HTN","name":"Houten","coordinate":{"lat":52.03402,"lng":5.16821},"countryCode":"NL"},{"uicCode":"8400335","stationCode":"HTNC","name":"Houten Castellum","coordinate":{"lat":52.01701,"lng":5.17949},"countryCode":"NL"},{"uicCode":"8400154","stationCode":"CL","name":"Culemborg","coordinate":{"lat":51.9466667175293,"lng":5.22694444656372},"countryCode":"NL"},{"uicCode":"8400244","stationCode":"GDM","name":"Geldermalsen","coordinate":{"lat":51.88301,"lng":5.27127},"countryCode":"NL"},{"uicCode":"8400732","stationCode":"ZBM","name":"Zaltbommel","coordinate":{"lat":51.8088874816895,"lng":5.26333332061768},"countryCode":"NL"},{"uicCode":"8400319","stationCode":"HT","name":"'s-Hertogenbosch","coordinate":{"lat":51.69048,"lng":5.29362},"countryCode":"NL"}],"direction":"ONE_WAY"},"description":"rijden bussen","level":"LESS_TRAINS"},"sectionType":"NL"},{"section":{"stations":[{"uicCode":"8400621","stationCode":"UT","name":"Utrecht Centraal","coordinate":{"lat":52.0888900756836,"lng":5.11027765274048},"countryCode":"NL"},{"uicCode":"8400606","stationCode":"UTVR","name":"Utrecht Vaartsche Rijn","coordinate":{"lat":52.078889,"lng":5.121667},"countryCode":"NL"},{"uicCode":"8400623","stationCode":"UTLN","name":"Utrecht Lunetten","coordinate":{"lat":52.0655555725098,"lng":5.14416646957397},"countryCode":"NL"},{"uicCode":"8400340","stationCode":"HTN","name":"Houten","coordinate":{"lat":52.03402,"lng":5.16821},"countryCode":"NL"},{"uicCode":"8400335","stationCode":"HTNC","name":"Houten Castellum","coordinate":{"lat":52.01701,"lng":5.17949},"countryCode":"NL"},{"uicCode":"8400154","stationCode":"CL","name":"Culemborg","coordinate":{"lat":51.9466667175293,"lng":5.22694444656372},"countryCode":"NL"},{"uicCode":"8400244","stationCode":"GDM","name":"Geldermalsen","coordinate":{"lat":51.88301,"lng":5.27127},"countryCode":"NL"},{"uicCode":"8400600","stationCode":"TPSW","name":"Tiel Passewaaij","coordinate":{"lat":51.8738899230957,"lng":5.39222240447998},"countryCode":"NL"},{"uicCode":"8400596","stationCode":"TL","name":"Tiel","coordinate":{"lat":51.8894462585449,"lng":5.42222213745117},"countryCode":"NL"}],"direction":"BOTH"},"consequence":{"section":{"stations":[{"uicCode":"8400621","stationCode":"UT","name":"Utrecht Centraal","coordinate":{"lat":52.0888900756836,"lng":5.11027765274048},"countryCode":"NL"},{"uicCode":"8400606","stationCode":"UTVR","name":"Utrecht Vaartsche Rijn","coordinate":{"lat":52.078889,"lng":5.121667},"countryCode":"NL"},{"uicCode":"8400623","stationCode":"UTLN","name":"Utrecht Lunetten","coordinate":{"lat":52.0655555725098,"lng":5.14416646957397},"countryCode":"NL"},{"uicCode":"8400340","stationCode":"HTN","name":"Houten","coordinate":{"lat":52.03402,"lng":5.16821},"countryCode":"NL"},{"uicCode":"8400335","stationCode":"HTNC","name":"Houten Castellum","coordinate":{"lat":52.01701,"lng":5.17949},"countryCode":"NL"},{"uicCode":"8400154","stationCode":"CL","name":"Culemborg","coordinate":{"lat":51.9466667175293,"lng":5.22694444656372},"countryCode":"NL"},{"uicCode":"8400244","stationCode":"GDM","name":"Geldermalsen","coordinate":{"lat":51.88301,"lng":5.27127},"countryCode":"NL"},{"uicCode":"8400600","stationCode":"TPSW","name":"Tiel Passewaaij","coordinate":{"lat":51.8738899230957,"lng":5.39222240447998},"countryCode":"NL"},{"uicCode":"8400596","stationCode":"TL","name":"Tiel","coordinate":{"lat":51.8894462585449,"lng":5.42222213745117},"countryCode":"NL"}],"direction":"ONE_WAY"},"description":"rijden bussen","level":"LESS_TRAINS"},"sectionType":"NL"},{"section":{"stations":[{"uicCode":"8400621","stationCode":"UT","name":"Utrecht Centraal","coordinate":{"lat":52.0888900756836,"lng":5.11027765274048},"countryCode":"NL"},{"uicCode":"8400606","stationCode":"UTVR","name":"Utrecht Vaartsche Rijn","coordinate":{"lat":52.078889,"lng":5.121667},"countryCode":"NL"},{"uicCode":"8400623","stationCode":"UTLN","name":"Utrecht Lunetten","coordinate":{"lat":52.0655555725098,"lng":5.14416646957397},"countryCode":"NL"},{"uicCode":"8400340","stationCode":"HTN","name":"Houten","coordinate":{"lat":52.03402,"lng":5.16821},"countryCode":"NL"},{"uicCode":"8400335","stationCode":"HTNC","name":"Houten Castellum","coordinate":{"lat":52.01701,"lng":5.17949},"countryCode":"NL"},{"uicCode":"8400154","stationCode":"CL","name":"Culemborg","coordinate":{"lat":51.9466667175293,"lng":5.22694444656372},"countryCode":"NL"},{"uicCode":"8400244","stationCode":"GDM","name":"Geldermalsen","coordinate":{"lat":51.88301,"lng":5.27127},"countryCode":"NL"},{"uicCode":"8400732","stationCode":"ZBM","name":"Zaltbommel","coordinate":{"lat":51.8088874816895,"lng":5.26333332061768},"countryCode":"NL"},{"uicCode":"8400319","stationCode":"HT","name":"'s-Hertogenbosch","coordinate":{"lat":51.69048,"lng":5.29362},"countryCode":"NL"}],"direction":"BOTH"},"consequence":{"section":{"stations":[{"uicCode":"8400340","stationCode":"HTN","name":"Houten","coordinate":{"lat":52.03402,"lng":5.16821},"countryCode":"NL"},{"uicCode":"8400335","stationCode":"HTNC","name":"Houten Castellum","coordinate":{"lat":52.01701,"lng":5.17949},"countryCode":"NL"},{"uicCode":"8400154","stationCode":"CL","name":"Culemborg","coordinate":{"lat":51.9466667175293,"lng":5.22694444656372},"countryCode":"NL"},{"uicCode":"8400244","stationCode":"GDM","name":"Geldermalsen","coordinate":{"lat":51.88301,"lng":5.27127},"countryCode":"NL"}],"direction":"ONE_WAY"},"description":"rijden bussen","level":"LESS_TRAINS"},"sectionType":"NL"},{"section":{"stations":[{"uicCode":"8400621","stationCode":"UT","name":"Utrecht Centraal","coordinate":{"lat":52.0888900756836,"lng":5.11027765274048},"countryCode":"NL"},{"uicCode":"8400606","stationCode":"UTVR","name":"Utrecht Vaartsche Rijn","coordinate":{"lat":52.078889,"lng":5.121667},"countryCode":"NL"},{"uicCode":"8400623","stationCode":"UTLN","name":"Utrecht Lunetten","coordinate":{"lat":52.0655555725098,"lng":5.14416646957397},"countryCode":"NL"},{"uicCode":"8400340","stationCode":"HTN","name":"Houten","coordinate":{"lat":52.03402,"lng":5.16821},"countryCode":"NL"},{"uicCode":"8400335","stationCode":"HTNC","name":"Houten Castellum","coordinate":{"lat":52.01701,"lng":5.17949},"countryCode":"NL"},{"uicCode":"8400154","stationCode":"CL","name":"Culemborg","coordinate":{"lat":51.9466667175293,"lng":5.22694444656372},"countryCode":"NL"},{"uicCode":"8400244","stationCode":"GDM","name":"Geldermalsen","coordinate":{"lat":51.88301,"lng":5.27127},"countryCode":"NL"},{"uicCode":"8400600","stationCode":"TPSW","name":"Tiel Passewaaij","coordinate":{"lat":51.8738899230957,"lng":5.39222240447998},"countryCode":"NL"},{"uicCode":"8400596","stationCode":"TL","name":"Tiel","coordinate":{"lat":51.8894462585449,"lng":5.42222213745117},"countryCode":"NL"}],"direction":"BOTH"},"consequence":{"section":{"stations":[{"uicCode":"8400340","stationCode":"HTN","name":"Houten","coordinate":{"lat":52.03402,"lng":5.16821},"countryCode":"NL"},{"uicCode":"8400335","stationCode":"HTNC","name":"Houten Castellum","coordinate":{"lat":52.01701,"lng":5.17949},"countryCode":"NL"},{"uicCode":"8400154","stationCode":"CL","name":"Culemborg","coordinate":{"lat":51.9466667175293,"lng":5.22694444656372},"countryCode":"NL"},{"uicCode":"8400244","stationCode":"GDM","name":"Geldermalsen","coordinate":{"lat":51.88301,"lng":5.27127},"countryCode":"NL"}],"direction":"ONE_WAY"},"description":"rijden bussen","level":"LESS_TRAINS"},"sectionType":"NL"}],"timespans":[{"start":"2023-07-15T04:00:00+0200","end":"2023-07-17T03:00:00+0200","period":"Zaterdag 15-07-2023 04:00 uur t/m maandag 17-07-2023 03:00 uur.","situation":{"label":"Door werkzaamheden: tussen Utrecht Centraal en 's-Hertogenbosch rijden er bussen en tussen Utrecht Centraal en Tiel rijden er bussen."},"cause":{"label":"werkzaamheden"},"additionalTravelTime":{"label":"De extra reistijd is ongeveer 30 minuten.","shortLabel":"Extra reistijd 30 min.","minimumDurationInMinutes":30,"maximumDurationInMinutes":30},"alternativeTransport":{"label":"er rijden stop- en snelbussen","shortLabel":"er rijden stop- en snelbussen"},"advices":["Tussen Amsterdam C. en Tilburg/Eindhoven C. reist u via Rotterdam C. en Breda","Tussen Utrecht C. en 's-Hertogenbosch reist u via Nijmegen"]},{"start":"2023-07-17T03:00:00+0200","end":"2023-07-21T13:00:00+0200","period":"Maandag 17-07-2023 03:00 uur t/m vrijdag 21-07-2023 13:00 uur.","situation":{"label":"Door werkzaamheden: tussen Houten en Geldermalsen rijden er bussen."},"cause":{"label":"werkzaamheden"},"additionalTravelTime":{"label":"De extra reistijd is ongeveer 30 minuten.","shortLabel":"Extra reistijd 30 min.","minimumDurationInMinutes":30,"maximumDurationInMinutes":30},"advices":["Tussen Amsterdam C. en Tilburg/Eindhoven C. reist u via Rotterdam C. en Breda","Tussen Castellum en Culemborg/Geldermalsen reist u via Houten"]}],"alternativeTransportTimespans":[{"start":"2023-07-15T04:00:00+0200","end":"2023-07-17T03:00:00+0200","alternativeTransport":{"location":[{"station":{"uicCode":"8400621","stationCode":"UT","name":"Utrecht Centraal","coordinate":{"lat":52.0888900756836,"lng":5.11027765274048},"countryCode":"NL"},"description":"vanaf de Jaarbeurszijde"},{"station":{"uicCode":"8400319","stationCode":"HT","name":"'s-Hertogenbosch","coordinate":{"lat":51.69048,"lng":5.29362},"countryCode":"NL"},"description":"vanaf de speciale uitgang op het perron bij spoor 1"}],"label":"Er rijden snelbussen tussen Utrecht Centraal en 's-Hertogenbosch.","shortLabel":"Er rijden snelbussen Utrecht C. - 's-Hertogenbosch"}},{"start":"2023-07-15T04:00:00+0200","end":"2023-07-17T03:00:00+0200","alternativeTransport":{"location":[{"station":{"uicCode":"8400621","stationCode":"UT","name":"Utrecht Centraal","coordinate":{"lat":52.0888900756836,"lng":5.11027765274048},"countryCode":"NL"},"description":"vanaf de Jaarbeurszijde"},{"station":{"uicCode":"8400623","stationCode":"UTLN","name":"Utrecht Lunetten","coordinate":{"lat":52.0655555725098,"lng":5.14416646957397},"countryCode":"NL"},"description":"vanaf de bushalte"},{"station":{"uicCode":"8400340","stationCode":"HTN","name":"Houten","coordinate":{"lat":52.03402,"lng":5.16821},"countryCode":"NL"},"description":"vanaf het busstation"},{"station":{"uicCode":"8400154","stationCode":"CL","name":"Culemborg","coordinate":{"lat":51.9466667175293,"lng":5.22694444656372},"countryCode":"NL"},"description":"vanaf het busstation"},{"station":{"uicCode":"8400244","stationCode":"GDM","name":"Geldermalsen","coordinate":{"lat":51.88301,"lng":5.27127},"countryCode":"NL"},"description":"vanaf het busstation"}],"label":"Er rijden stopbussen tussen Utrecht Centraal, Utrecht Lunetten, Houten, Culemborg en Geldermalsen.","shortLabel":"Er rijden stopbussen Utrecht C. - Lunetten - Houten - Culemborg - Geldermalsen"}},{"start":"2023-07-15T04:00:00+0200","end":"2023-07-17T03:00:00+0200","alternativeTransport":{"location":[{"station":{"uicCode":"8400621","stationCode":"UT","name":"Utrecht Centraal","coordinate":{"lat":52.0888900756836,"lng":5.11027765274048},"countryCode":"NL"},"description":"vanaf de Jaarbeurszijde"},{"station":{"uicCode":"8400340","stationCode":"HTN","name":"Houten","coordinate":{"lat":52.03402,"lng":5.16821},"countryCode":"NL"},"description":"vanaf het busstation"}],"label":"Er rijden snelbussen tussen Utrecht Centraal en Houten.","shortLabel":"Er rijden snelbussen Utrecht C. - Houten"}},{"start":"2023-07-15T04:00:00+0200","end":"2023-07-17T03:00:00+0200","alternativeTransport":{"location":[{"station":{"uicCode":"8400340","stationCode":"HTN","name":"Houten","coordinate":{"lat":52.03402,"lng":5.16821},"countryCode":"NL"},"description":"vanaf het busstation"},{"station":{"uicCode":"8400335","stationCode":"HTNC","name":"Houten Castellum","coordinate":{"lat":52.01701,"lng":5.17949},"countryCode":"NL"},"description":"vanaf de voorzijde van het station"}],"label":"Er rijden stopbussen tussen Houten en Houten Castellum.","shortLabel":"Er rijden stopbussen Houten - Castellum"}},{"start":"2023-07-15T04:00:00+0200","end":"2023-07-17T03:00:00+0200","alternativeTransport":{"location":[{"station":{"uicCode":"8400244","stationCode":"GDM","name":"Geldermalsen","coordinate":{"lat":51.88301,"lng":5.27127},"countryCode":"NL"},"description":"vanaf het busstation"},{"station":{"uicCode":"8400732","stationCode":"ZBM","name":"Zaltbommel","coordinate":{"lat":51.8088874816895,"lng":5.26333332061768},"countryCode":"NL"},"description":"vanaf de voorzijde van het station"},{"station":{"uicCode":"8400319","stationCode":"HT","name":"'s-Hertogenbosch","coordinate":{"lat":51.69048,"lng":5.29362},"countryCode":"NL"},"description":"vanaf de speciale uitgang op het perron bij spoor 1"}],"label":"Er rijden stopbussen tussen Geldermalsen, Zaltbommel en 's-Hertogenbosch.","shortLabel":"Er rijden stopbussen Geldermalsen - Zaltbommel - 's-Hertogenbosch"}},{"start":"2023-07-15T04:00:00+0200","end":"2023-07-17T03:00:00+0200","alternativeTransport":{"location":[{"station":{"uicCode":"8400244","stationCode":"GDM","name":"Geldermalsen","coordinate":{"lat":51.88301,"lng":5.27127},"countryCode":"NL"},"description":"vanaf het busstation"},{"station":{"uicCode":"8400600","stationCode":"TPSW","name":"Tiel Passewaaij","coordinate":{"lat":51.8738899230957,"lng":5.39222240447998},"countryCode":"NL"},"description":"vanaf de bushalte"},{"station":{"uicCode":"8400596","stationCode":"TL","name":"Tiel","coordinate":{"lat":51.8894462585449,"lng":5.42222213745117},"countryCode":"NL"},"description":"vanaf het busstation, aan de treinvervangend vervoer halte"}],"label":"Er rijden stopbussen tussen Geldermalsen, Tiel Passewaaij en Tiel.","shortLabel":"Er rijden stopbussen Geldermalsen - Passewaaij - Tiel"}}]},{"id":"7003626","type":"MAINTENANCE","registrationTime":"2023-06-30T11:10:18+0200","releaseTime":"2023-06-30T11:10:18+0200","local":false,"title":"Amsterdam - Rotterdam - Brussel (HSL).","titleSections":[[{"type":"STATION","value":"Amsterdam C."},{"type":"ICON","value":"MAINTENANCE"},{"type":"STATION","value":"Schiphol Airport"},{"type":"STATION","value":"Brussel-Z. Midi"}]],"isActive":false,"start":"2023-07-15T06:00:00+0200","end":"2023-07-15T08:40:00+0200","period":"Zaterdag 15-07-2023 06:00 uur t/m zaterdag 15-07-2023 08:40 uur.","impact":{"value":2},"summaryAdditionalTravelTime":{"label":"U heeft geen langere reistijd.","shortLabel":"Geen extra reistijd"},"publicationSections":[{"section":{"stations":[{"uicCode":"8400058","stationCode":"ASD","name":"Amsterdam Centraal","coordinate":{"lat":52.3788871765137,"lng":4.90027761459351},"countryCode":"NL"},{"uicCode":"8400059","stationCode":"ASS","name":"Amsterdam Sloterdijk","coordinate":{"lat":52.3888893127441,"lng":4.83777761459351},"countryCode":"NL"},{"uicCode":"8400079","stationCode":"ASDL","name":"Amsterdam Lelylaan","coordinate":{"lat":52.3577766418457,"lng":4.83388900756836},"countryCode":"NL"},{"uicCode":"8400561","stationCode":"SHL","name":"Schiphol Airport","coordinate":{"lat":52.3094444274902,"lng":4.76194429397583},"countryCode":"NL"},{"uicCode":"8400332","stationCode":"HFD","name":"Hoofddorp","coordinate":{"lat":52.2933349609375,"lng":4.70055532455444},"countryCode":"NL"},{"uicCode":"8400530","stationCode":"RTD","name":"Rotterdam Centraal","coordinate":{"lat":51.9249992370605,"lng":4.46888875961304},"countryCode":"NL"},{"uicCode":"8400529","stationCode":"RTB","name":"Rotterdam Blaak","coordinate":{"lat":51.9202766418457,"lng":4.48888874053955},"countryCode":"NL"},{"uicCode":"8400533","stationCode":"RTZ","name":"Rotterdam Zuid","coordinate":{"lat":51.9044456481934,"lng":4.51027774810791},"countryCode":"NL"},{"uicCode":"8400542","stationCode":"RLB","name":"Rotterdam Lombardijen","coordinate":{"lat":51.8800010681152,"lng":4.53138875961304},"countryCode":"NL"},{"uicCode":"8400132","stationCode":"BDPB","name":"Breda-Prinsenbeek","coordinate":{"lat":51.606388092041,"lng":4.72083330154419},"countryCode":"NL"},{"uicCode":"8400131","stationCode":"BD","name":"Breda","coordinate":{"lat":51.5955543518066,"lng":4.78000020980835},"countryCode":"NL"},{"uicCode":"8821105","stationCode":"NDKP","name":"Noorderkempen","coordinate":{"lat":51.358088,"lng":4.633977},"countryCode":"B"},{"uicCode":"8821063","stationCode":"ATWLB","name":"Antwerpen-Luchtbal","coordinate":{"lat":51.2449375,"lng":4.4251543},"countryCode":"B"},{"uicCode":"8821006","stationCode":"ATW","name":"Antwerpen-Centraal","coordinate":{"lat":51.21686,"lng":4.421242},"countryCode":"B"},{"uicCode":"8821121","stationCode":"BERCH","name":"Antwerpen-Berchem","coordinate":{"lat":51.198914,"lng":4.4332},"countryCode":"B"},{"uicCode":"8822004","stationCode":"MECH","name":"Mechelen","coordinate":{"lat":51.01758,"lng":4.48313},"countryCode":"B"},{"uicCode":"8812005","stationCode":"BRUSN","name":"Brussel-Noord","coordinate":{"lat":50.859658,"lng":4.360854},"countryCode":"B"},{"uicCode":"8813003","stationCode":"BRUSC","name":"Brussel-Centraal","coordinate":{"lat":50.845175,"lng":4.357131},"countryCode":"B"},{"uicCode":"8814001","stationCode":"BRUSZ","name":"Brussel-Zuid Midi","coordinate":{"lat":50.836782,"lng":4.336922},"countryCode":"B"}],"direction":"ONE_WAY"},"consequence":{"section":{"stations":[{"uicCode":"8400058","stationCode":"ASD","name":"Amsterdam Centraal","coordinate":{"lat":52.3788871765137,"lng":4.90027761459351},"countryCode":"NL"},{"uicCode":"8400059","stationCode":"ASS","name":"Amsterdam Sloterdijk","coordinate":{"lat":52.3888893127441,"lng":4.83777761459351},"countryCode":"NL"},{"uicCode":"8400079","stationCode":"ASDL","name":"Amsterdam Lelylaan","coordinate":{"lat":52.3577766418457,"lng":4.83388900756836},"countryCode":"NL"},{"uicCode":"8400561","stationCode":"SHL","name":"Schiphol Airport","coordinate":{"lat":52.3094444274902,"lng":4.76194429397583},"countryCode":"NL"}],"direction":"ONE_WAY"},"description":"aangepaste internationale dienstregeling","level":"LESS_TRAINS"},"sectionType":"HSL"}],"timespans":[{"start":"2023-07-15T06:00:00+0200","end":"2023-07-15T08:40:00+0200","period":"Zaterdag 15-07-2023 06:00 uur t/m zaterdag 15-07-2023 08:40 uur.","situation":{"label":"Door werkzaamheden: van Amsterdam Centraal naar Schiphol Airport is de internationale dienstregeling aangepast."},"cause":{"label":"werkzaamheden"},"additionalTravelTime":{"label":"U heeft geen langere reistijd.","shortLabel":"Geen extra reistijd"},"advices":["IC Brussel rijdt vanaf Schiphol Airport."]}],"alternativeTransportTimespans":[]},{"id":"7003638","type":"MAINTENANCE","registrationTime":"2023-06-20T11:03:29+0200","releaseTime":"2023-06-20T11:03:29+0200","local":false,"title":"Amsterdam - Weesp.","titleSections":[[{"type":"STATION","value":"Amsterdam C."},{"type":"ICON","value":"MAINTENANCE"},{"type":"STATION","value":"Weesp"}]],"isActive":false,"start":"2023-07-15T06:30:00+0200","end":"2023-07-17T01:00:00+0200","period":"Zaterdag 15-07-2023 06:30 uur t/m maandag 17-07-2023 01:00 uur.","impact":{"value":2},"publicationSections":[{"section":{"stations":[{"uicCode":"8400058","stationCode":"ASD","name":"Amsterdam Centraal","coordinate":{"lat":52.3788871765137,"lng":4.90027761459351},"countryCode":"NL"},{"uicCode":"8400060","stationCode":"ASDM","name":"Amsterdam Muiderpoort","coordinate":{"lat":52.3605537414551,"lng":4.93111133575439},"countryCode":"NL"},{"uicCode":"8400235","stationCode":"ASSP","name":"Amsterdam Science Park","coordinate":{"lat":52.35526,"lng":4.94651},"countryCode":"NL"},{"uicCode":"8400165","stationCode":"DMN","name":"Diemen","coordinate":{"lat":52.34515,"lng":4.967566},"countryCode":"NL"},{"uicCode":"8400685","stationCode":"WP","name":"Weesp","coordinate":{"lat":52.3127784729004,"lng":5.04305553436279},"countryCode":"NL"}],"direction":"BOTH"},"consequence":{"section":{"stations":[{"uicCode":"8400058","stationCode":"ASD","name":"Amsterdam Centraal","coordinate":{"lat":52.3788871765137,"lng":4.90027761459351},"countryCode":"NL"},{"uicCode":"8400060","stationCode":"ASDM","name":"Amsterdam Muiderpoort","coordinate":{"lat":52.3605537414551,"lng":4.93111133575439},"countryCode":"NL"},{"uicCode":"8400235","stationCode":"ASSP","name":"Amsterdam Science Park","coordinate":{"lat":52.35526,"lng":4.94651},"countryCode":"NL"},{"uicCode":"8400165","stationCode":"DMN","name":"Diemen","coordinate":{"lat":52.34515,"lng":4.967566},"countryCode":"NL"},{"uicCode":"8400685","stationCode":"WP","name":"Weesp","coordinate":{"lat":52.3127784729004,"lng":5.04305553436279},"countryCode":"NL"}],"direction":"ONE_WAY"},"description":"dienstregeling aangepast","level":"LESS_TRAINS"},"sectionType":"NL"}],"timespans":[{"start":"2023-07-15T06:30:00+0200","end":"2023-07-17T01:00:00+0200","period":"Zaterdag 15-07-2023 06:30 uur t/m maandag 17-07-2023 01:00 uur.","situation":{"label":"Door werkzaamheden: tussen Amsterdam Centraal en Weesp is de dienstregeling aangepast."},"cause":{"label":"werkzaamheden"},"advices":["Tussen Amsterdam C. en Amersfoort C. reist u via Utrecht C.","Tussen Amsterdam C. en Almere C. reist u via Duivendrecht"]}],"alternativeTransportTimespans":[]},{"id":"7003401","type":"MAINTENANCE","registrationTime":"2023-06-30T10:51:24+0200","releaseTime":"2023-06-30T10:51:24+0200","local":false,"title":"Amsterdam - Brussel - Paris (HSL).","titleSections":[[{"type":"STATION","value":"Amsterdam C."},{"type":"ICON","value":"MAINTENANCE"},{"type":"STATION","value":"Brussel-Z. Midi"},{"type":"STATION","value":"Paris-Nord"}]],"isActive":false,"start":"2023-07-15T08:00:00+0200","end":"2023-07-16T23:59:00+0200","period":"Zaterdag 15-07-2023 08:00 uur t/m zondag 16-07-2023 23:59 uur.","impact":{"value":2},"publicationSections":[{"section":{"stations":[{"uicCode":"8400058","stationCode":"ASD","name":"Amsterdam Centraal","coordinate":{"lat":52.3788871765137,"lng":4.90027761459351},"countryCode":"NL"},{"uicCode":"8400059","stationCode":"ASS","name":"Amsterdam Sloterdijk","coordinate":{"lat":52.3888893127441,"lng":4.83777761459351},"countryCode":"NL"},