[{"type":"DISRUPTION","id":"6058769","title":"Heerlen - Maastricht.","isActive":true,"topic":"disruption_6058769_nl","local":false,"titleSections":[[{"type":"STATION","value":"Heerlen"},{"type":"ICON","value":"DISRUPTION"},{"type":"STATION","value":"Maastricht"}]],"registrationTime":"2025-09-07T09:01:18+0200","releaseTime":"2025-09-07T09:01:18+0200","start":"2025-09-04T06:59:53+0200","end":"2025-09-09T00:30:00+0200","phase":{"id":"3","label":"Vervangend vervoer"},"impact":{"value":3},"expectedDuration":{"description":"Dit duurt ten minste tot dinsdag 9 september 0:30 uur.","endTime":"2025-09-09T00:30:00+0200"},"publicationSections":[{"section":{"stations":[{"coordinate":{"lat":50.8908348083496,"lng":5.97499990463257},"countryCode":"NL","name":"Heerlen","stationCode":"HRL","uicCode":"8400307"},{"coordinate":{"lat":50.896667,"lng":5.952222},"countryCode":"NL","name":"Heerlen Woonboulevard","stationCode":"HRLW","uicCode":"8400404"},{"coordinate":{"lat":50.8872222900391,"lng":5.93027782440186},"countryCode":"NL","name":"Voerendaal","stationCode":"VDL","uicCode":"8400656"},{"coordinate":{"lat":50.8663902282715,"lng":5.8905553817749},"countryCode":"NL","name":"Klimmen-Ransdaal","stationCode":"KMR","uicCode":"8400362"},{"coordinate":{"lat":50.856388092041,"lng":5.87222242355347},"countryCode":"NL","name":"Schin op Geul","stationCode":"SOG","uicCode":"8400555"},{"coordinate":{"lat":50.8697204589844,"lng":5.83222198486328},"countryCode":"NL","name":"Valkenburg","stationCode":"VK","uicCode":"8400632"},{"coordinate":{"lat":50.8733329772949,"lng":5.79722213745117},"countryCode":"NL","name":"Houthem-St. Gerlach","stationCode":"SGL","uicCode":"8400341"},{"coordinate":{"lat":50.882879392551,"lng":5.75099945068359},"countryCode":"NL","name":"Meerssen","stationCode":"MES","uicCode":"8400434"},{"coordinate":{"lat":50.87087,"lng":5.71774},"countryCode":"NL","name":"Maastricht Noord","stationCode":"MTN","uicCode":"8400449"},{"coordinate":{"lat":50.8502769470215,"lng":5.70555543899536},"countryCode":"NL","name":"Maastricht","stationCode":"MT","uicCode":"8400424"}],"direction":"BOTH","operators":["Arriva"]},"consequence":{"section":{"stations":[{"coordinate":{"lat":50.8908348083496,"lng":5.97499990463257},"countryCode":"NL","name":"Heerlen","stationCode":"HRL","uicCode":"8400307"},{"coordinate":{"lat":50.896667,"lng":5.952222},"countryCode":"NL","name":"Heerlen Woonboulevard","stationCode":"HRLW","uicCode":"8400404"},{"coordinate":{"lat":50.8872222900391,"lng":5.93027782440186},"countryCode":"NL","name":"Voerendaal","stationCode":"VDL","uicCode":"8400656"},{"coordinate":{"lat":50.8663902282715,"lng":5.8905553817749},"countryCode":"NL","name":"Klimmen-Ransdaal","stationCode":"KMR","uicCode":"8400362"},{"coordinate":{"lat":50.856388092041,"lng":5.87222242355347},"countryCode":"NL","name":"Schin op Geul","stationCode":"SOG","uicCode":"8400555"},{"coordinate":{"lat":50.8697204589844,"lng":5.83222198486328},"countryCode":"NL","name":"Valkenburg","stationCode":"VK","uicCode":"8400632"},{"coordinate":{"lat":50.8733329772949,"lng":5.79722213745117},"countryCode":"NL","name":"Houthem-St. Gerlach","stationCode":"SGL","uicCode":"8400341"},{"coordinate":{"lat":50.882879392551,"lng":5.75099945068359},"countryCode":"NL","name":"Meerssen","stationCode":"MES","uicCode":"8400434"},{"coordinate":{"lat":50.87087,"lng":5.71774},"countryCode":"NL","name":"Maastricht Noord","stationCode":"MTN","uicCode":"8400449"},{"coordinate":{"lat":50.8502769470215,"lng":5.70555543899536},"countryCode":"NL","name":"Maastricht","stationCode":"MT","uicCode":"8400424"}],"direction":"BOTH","operators":["Arriva"]},"description":"geen Sneltreinen","level":"LESS_TRAINS"},"sectionType":"NL"}],"timespans":[{"start":"2025-09-04T06:59:53+0200","end":"2025-09-09T00:30:00+0200","period":"Donderdag 4 september 6:59 uur t/m dinsdag 9 september 0:30 uur.","situation":{"label":"Door beperkingen in de materieelinzet: tussen Heerlen en Maastricht rijden er geen Sneltreinen."},"cause":{"label":"beperkingen materieel","type":"OTHER"},"alternativeTransport":{"label":"er rijden snelbussen","shortLabel":"er rijden snelbussen"},"advices":[]}],"alternativeTransportTimespans":[{"start":"2025-09-04T06:59:53+0200","end":"2025-09-09T00:30:00+0200","alternativeTransport":{"location":[{"station":{"coordinate":{"lat":50.8908348083496,"lng":5.97499990463257},"countryCode":"NL","name":"Heerlen","stationCode":"HRL","uicCode":"8400307"},"description":"vanaf het busstation Perron A"},{"station":{"coordinate":{"lat":50.8502769470215,"lng":5.70555543899536},"countryCode":"NL","name":"Maastricht","stationCode":"MT","uicCode":"8400424"},"description":"vanaf de taxi-standplaats, centrumzijde"}],"label":"Er rijden snelbussen tussen Heerlen en Maastricht.","shortLabel":"Er rijden snelbussen Heerlen - Maastricht."}}]},{"type":"MAINTENANCE","id":"7004492","title":"Groningen - Leer.","isActive":true,"local":false,"titleSections":[[{"type":"STATION","value":"Groningen"},{"type":"STATION","value":"Bad Nieuweschans"},{"type":"ICON","value":"MAINTENANCE"},{"type":"STATION","value":"Weener"},{"type":"STATION","value":"Leer (Ostfr.)"}]],"registrationTime":"2025-04-03T10:55:48+0200","start":"2024-02-01T04:00:00+0100","releaseTime":"2025-04-03T10:55:48+0200","end":"2025-12-13T23:59:00+0100","period":"Donderdag 1 februari 2024 4:00 uur t/m zaterdag 13 december 23:59 uur.","impact":{"value":3},"publicationSections":[{"section":{"stations":[{"coordinate":{"lat":53.2105560302734,"lng":6.56472206115723},"countryCode":"NL","name":"Groningen","stationCode":"GN","uicCode":"8400263"},{"coordinate":{"lat":53.20480027,"lng":6.5854178},"countryCode":"NL","name":"Groningen Europapark","stationCode":"GERP","uicCode":"8400238"},{"coordinate":{"lat":53.1617362,"lng":6.7220882},"countryCode":"NL","name":"Kropswolde","stationCode":"KW","uicCode":"8400369"},{"coordinate":{"lat":53.1607232,"lng":6.7402989},"countryCode":"NL","name":"Martenshoek","stationCode":"MTH","uicCode":"8400430"},{"coordinate":{"lat":53.1598181316756,"lng":6.77075386047363},"countryCode":"NL","name":"Hoogezand-Sappemeer","stationCode":"HGZ","uicCode":"8400331"},{"coordinate":{"lat":53.1596122800056,"lng":6.8679141998291},"countryCode":"NL","name":"Zuidbroek","stationCode":"ZB","uicCode":"8400742"},{"coordinate":{"lat":53.1655362,"lng":6.9777775},"countryCode":"NL","name":"Scheemda","stationCode":"SDA","uicCode":"8400551"},{"coordinate":{"lat":53.1392377,"lng":7.035101},"countryCode":"NL","name":"Winschoten","stationCode":"WS","uicCode":"8400696"},{"coordinate":{"lat":53.1844,"lng":7.19937},"countryCode":"NL","name":"Bad Nieuweschans","stationCode":"NSCH","uicCode":"8400457"},{"coordinate":{"lat":53.16311,"lng":7.3442},"countryCode":"D","name":"Weener","stationCode":"WR","uicCode":"8021239"},{"coordinate":{"lat":53.23165,"lng":7.465283},"countryCode":"D","name":"Leer (Ostfriesl)","stationCode":"LEER","uicCode":"8021091"}],"direction":"BOTH","operators":["Arriva"]},"consequence":{"section":{"stations":[{"coordinate":{"lat":53.1844,"lng":7.19937},"countryCode":"NL","name":"Bad Nieuweschans","stationCode":"NSCH","uicCode":"8400457"},{"coordinate":{"lat":53.16311,"lng":7.3442},"countryCode":"D","name":"Weener","stationCode":"WR","uicCode":"8021239"}],"direction":"BOTH","operators":["Arriva"]},"description":"er rijden bussen","level":"LESS_TRAINS"},"sectionType":"NEIGHBORING_COUNTRY"}],"summaryAdditionalTravelTime":{"label":"De extra reistijd kan oplopen tot 30 minuten.","shortLabel":"Extra reistijd tot 30 min.","maximumDurationInMinutes":30},"timespans":[{"start":"2024-02-01T04:00:00+0100","end":"2025-12-13T23:59:00+0100","period":"Donderdag 1 februari 2024 4:00 uur t/m zaterdag 13 december 23:59 uur.","situation":{"label":"Door een aangepaste dienstregeling: tussen Bad Nieuweschans en Weener rijden er bussen."},"cause":{"label":"aangepaste dienstregeling","type":"OTHER"},"additionalTravelTime":{"label":"De extra reistijd kan oplopen tot 30 minuten.","shortLabel":"Extra reistijd tot 30 min.","maximumDurationInMinutes":30},"alternativeTransport":{"label":"er rijden stopbussen","shortLabel":"er rijden stopbussen"},"advices":[]}],"alternativeTransportTimespans":[{"start":"2024-02-01T04:00:00+0100","end":"2025-12-13T23:59:00+0100","alternativeTransport":{"location":[{"station":{"coordinate":{"lat":53.1844,"lng":7.19937},"countryCode":"NL","name":"Bad Nieuweschans","stationCode":"NSCH","uicCode":"8400457"},"description":"vanaf de voorzijde van het station"},{"station":{"coordinate":{"lat":53.16311,"lng":7.3442},"countryCode":"D","name":"Weener","stationCode":"WR","uicCode":"8021239"},"description":"vanaf de voorzijde van het station"},{"station":{"coordinate":{"lat":53.23165,"lng":7.465283},"countryCode":"D","name":"Leer (Ostfriesl)","stationCode":"LEER","uicCode":"8021091"},"description":"vanaf het busstation"}],"label":"Er rijden stopbussen tussen Bad Nieuweschans, Weener en Leer (Ostfriesl).","shortLabel":"Er rijden stopbussen Bad Nieuweschans - Weener - Leer (Ostfr.)."}}]},{"type":"MAINTENANCE","id":"7006387","title":"Enschede - Gronau - Münster.","isActive":true,"local":false,"titleSections":[[{"type":"STATION","value":"Enschede"},{"type":"STATION","value":"Ochtrup"},{"type":"ICON","value":"MAINTENANCE"},{"type":"STATION","value":"Steinfurt-Burgst"},{"type":"STATION","value":"Münster (Westf)"}]],"registrationTime":"2025-07-19T09:04:48+0200","start":"2025-06-13T23:00:00+0200","releaseTime":"2025-07-19T09:04:48+0200","end":"2025-10-09T23:00:00+0200","period":"Vrijdag 13 juni 23:00 uur t/m donderdag 9 oktober 23:00 uur.","impact":{"value":3},"publicationSections":[{"section":{"stations":[{"coordinate":{"lat":52.2224998474121,"lng":6.8899998664856},"countryCode":"NL","name":"Enschede","stationCode":"ES","uicCode":"8400212"},{"coordinate":{"lat":52.2213897705078,"lng":6.95111131668091},"countryCode":"NL","name":"Enschede De Eschmarke","stationCode":"ESE","uicCode":"8400217"},{"coordinate":{"lat":52.2186126708984,"lng":6.97444438934326},"countryCode":"NL","name":"Glanerbrug","stationCode":"GBR","uicCode":"8400262"},{"coordinate":{"lat":52.21521,"lng":7.022109},"countryCode":"D","name":"Gronau (Westf.)","stationCode":"G","uicCode":"8021128"},{"coordinate":{"lat":52.201703,"lng":7.182643},"countryCode":"D","name":"Ochtrup","stationCode":"EOP","uicCode":"8021152"},{"coordinate":{"lat":52.162444,"lng":7.254423},"countryCode":"D","name":"Metelen Land","stationCode":"EMTE","uicCode":"8021151"},{"coordinate":{"lat":52.147384,"lng":7.32934},"countryCode":"D","name":"Steinfurt-Burgsteinfurt","stationCode":"EBFT","uicCode":"8021143"},{"coordinate":{"lat":52.118791,"lng":7.397581},"countryCode":"D","name":"Steinfurt-Borghorst","stationCode":"EBGO","uicCode":"8021150"},{"coordinate":{"lat":52.077618,"lng":7.461706},"countryCode":"D","name":"Nordwalde","stationCode":"ENOW","uicCode":"8021149"},{"coordinate":{"lat":52.05223,"lng":7.481202},"countryCode":"D","name":"Altenberge","stationCode":"EABG","uicCode":"8021148"},{"coordinate":{"lat":52.022327,"lng":7.562668},"countryCode":"D","name":"Münster-Häger","stationCode":"ENBE","uicCode":"8021147"},{"coordinate":{"lat":51.984987,"lng":7.63861},"countryCode":"D","name":"Münster (W) Zentrum Nord","stationCode":"ENHF","uicCode":"8023783"},{"coordinate":{"lat":51.956892,"lng":7.635895},"countryCode":"D","name":"Münster (Westf) Hbf","stationCode":"MUNST","uicCode":"8021011"}],"direction":"BOTH","operators":["DB"]},"consequence":{"section":{"stations":[{"coordinate":{"lat":52.201703,"lng":7.182643},"countryCode":"D","name":"Ochtrup","stationCode":"EOP","uicCode":"8021152"},{"coordinate":{"lat":52.162444,"lng":7.254423},"countryCode":"D","name":"Metelen Land","stationCode":"EMTE","uicCode":"8021151"},{"coordinate":{"lat":52.147384,"lng":7.32934},"countryCode":"D","name":"Steinfurt-Burgsteinfurt","stationCode":"EBFT","uicCode":"8021143"}],"direction":"BOTH","operators":["DB"]},"description":"er rijden bussen","level":"LESS_TRAINS"},"sectionType":"NEIGHBORING_COUNTRY"}],"summaryAdditionalTravelTime":{"label":"De extra reistijd is ongeveer 15 minuten.","shortLabel":"Extra reistijd 15 min.","minimumDurationInMinutes":15,"maximumDurationInMinutes":15},"timespans":[{"start":"2025-06-13T23:00:00+0200","end":"2025-10-09T23:00:00+0200","period":"Vrijdag 13 juni 23:00 uur t/m donderdag 9 oktober 23:00 uur.","situation":{"label":"Door werkzaamheden: tussen Ochtrup en Steinfurt-Burgsteinfurt rijden er bussen."},"cause":{"label":"werkzaamheden","type":"OTHER"},"additionalTravelTime":{"label":"De extra reistijd is ongeveer 15 minuten.","shortLabel":"Extra reistijd 15 min.","minimumDurationInMinutes":15,"maximumDurationInMinutes":15},"alternativeTransport":{"label":"maak gebruik van het vervangende vervoer","shortLabel":"gebruik het vervangende vervoer"},"advices":["Vanaf Gronau rijdt een bus via Ochtrup naar Steinfurt-Burgsteinfurt. Een taxibus rijdt van/naar Metelen Land. Raadpleeg ook zuginfo.nrw."]}],"alternativeTransportTimespans":[{"start":"2025-06-13T23:00:00+0200","end":"2025-10-09T23:00:00+0200","alternativeTransport":{"location":[{"station":{"coordinate":{"lat":52.21521,"lng":7.022109},"countryCode":"D","name":"Gronau (Westf.)","stationCode":"G","uicCode":"8021128"},"description":"volg de aanwijzingen op het station"},{"station":{"coordinate":{"lat":52.201703,"lng":7.182643},"countryCode":"D","name":"Ochtrup","stationCode":"EOP","uicCode":"8021152"},"description":"volg de aanwijzingen op het station"},{"station":{"coordinate":{"lat":52.147384,"lng":7.32934},"countryCode":"D","name":"Steinfurt-Burgsteinfurt","stationCode":"EBFT","uicCode":"8021143"},"description":"volg de aanwijzingen op het station"}],"label":"Er rijden stopbussen tussen Gronau (Westf.), Ochtrup en Steinfurt-Burgsteinfurt.","shortLabel":"Er rijden stopbussen Gronau (Westf.) - Ochtrup - Steinfurt-Burgst."}},{"start":"2025-06-13T23:00:00+0200","end":"2025-10-09T23:00:00+0200","alternativeTransport":{"location":[{"station":{"coordinate":{"lat":52.201703,"lng":7.182643},"countryCode":"D","name":"Ochtrup","stationCode":"EOP","uicCode":"8021152"},"description":"volg de aanwijzingen op het station"},{"station":{"coordinate":{"lat":52.162444,"lng":7.254423},"countryCode":"D","name":"Metelen Land","stationCode":"EMTE","uicCode":"8021151"},"description":"volg de aanwijzingen op het station"}],"label":"Er rijden taxibusjes tussen Ochtrup en Metelen Land.","shortLabel":"Er rijden taxibusjes Ochtrup - Metelen Land."}},{"start":"2025-06-13T23:00:00+0200","end":"2025-10-09T23:00:00+0200","alternativeTransport":{"location":[{"station":{"coordinate":{"lat":52.147384,"lng":7.32934},"countryCode":"D","name":"Steinfurt-Burgsteinfurt","stationCode":"EBFT","uicCode":"8021143"},"description":"volg de aanwijzingen op het station"},{"station":{"coordinate":{"lat":52.162444,"lng":7.254423},"countryCode":"D","name":"Metelen Land","stationCode":"EMTE","uicCode":"8021151"},"description":"volg de aanwijzingen op het station"}],"label":"Er rijden taxibusjes tussen Steinfurt-Burgsteinfurt en Metelen Land.","shortLabel":"Er rijden taxibusjes Steinfurt-Burgst - Metelen Land."}}]},{"type":"MAINTENANCE","id":"7006650","title":"Amsterdam - Uitgeest.","isActive":true,"local":false,"titleSections":[[{"type":"STATION","value":"Amsterdam C."},{"type":"STATION","value":"Zaandam"},{"type":"ICON","value":"MAINTENANCE"},{"type":"STATION","value":"Uitgeest"}]],"registrationTime":"2025-08-28T10:07:23+0200","start":"2025-09-05T05:00:45+0200","releaseTime":"2025-08-28T10:07:23+0200","end":"2025-09-08T05:00:17+0200","period":"Vrijdag 5 september 5:00 uur t/m maandag 8 september 5:00 uur.","impact":{"value":3},"publicationSections":[{"section":{"stations":[{"coordinate":{"lat":52.3788871765137,"lng":4.90027761459351},"countryCode":"NL","name":"Amsterdam Centraal","stationCode":"ASD","uicCode":"8400058"},{"coordinate":{"lat":52.3888893127441,"lng":4.83777761459351},"countryCode":"NL","name":"Amsterdam Sloterdijk","stationCode":"ASS","uicCode":"8400059"},{"coordinate":{"lat":52.4388885498047,"lng":4.81361103057861},"countryCode":"NL","name":"Zaandam","stationCode":"ZD","uicCode":"8400731"},{"coordinate":{"lat":52.458610534668,"lng":4.80555534362793},"countryCode":"NL","name":"Koog aan de Zaan","stationCode":"KZ","uicCode":"8400363"},{"coordinate":{"lat":52.469165802002,"lng":4.80499982833862},"countryCode":"NL","name":"Zaandijk Zaanse Schans","stationCode":"ZZS","uicCode":"8400364"},{"coordinate":{"lat":52.4891662597656,"lng":4.79222202301025},"countryCode":"NL","name":"Wormerveer","stationCode":"WM","uicCode":"8400707"},{"coordinate":{"lat":52.49511,"lng":4.75417},"countryCode":"NL","name":"Krommenie-Assendelft","stationCode":"KMA","uicCode":"8400368"},{"coordinate":{"lat":52.5216674804687,"lng":4.70166683197022},"countryCode":"NL","name":"Uitgeest","stationCode":"UTG","uicCode":"8400615"}],"direction":"BOTH","operators":["NS"]},"consequence":{"section":{"stations":[{"coordinate":{"lat":52.4388885498047,"lng":4.81361103057861},"countryCode":"NL","name":"Zaandam","stationCode":"ZD","uicCode":"8400731"},{"coordinate":{"lat":52.458610534668,"lng":4.80555534362793},"countryCode":"NL","name":"Koog aan de Zaan","stationCode":"KZ","uicCode":"8400363"},{"coordinate":{"lat":52.469165802002,"lng":4.80499982833862},"countryCode":"NL","name":"Zaandijk Zaanse Schans","stationCode":"ZZS","uicCode":"8400364"},{"coordinate":{"lat":52.4891662597656,"lng":4.79222202301025},"countryCode":"NL","name":"Wormerveer","stationCode":"WM","uicCode":"8400707"},{"coordinate":{"lat":52.49511,"lng":4.75417},"countryCode":"NL","name":"Krommenie-Assendelft","stationCode":"KMA","uicCode":"8400368"},{"coordinate":{"lat":52.5216674804687,"lng":4.70166683197022},"countryCode":"NL","name":"Uitgeest","stationCode":"UTG","uicCode":"8400615"}],"direction":"BOTH","operators":["NS"]},"description":"er rijden bussen","level":"LESS_TRAINS"},"sectionType":"NL"}],"summaryAdditionalTravelTime":{"label":"De extra reistijd is ongeveer 15 minuten.","shortLabel":"Extra reistijd 15 min.","minimumDurationInMinutes":15,"maximumDurationInMinutes":15},"timespans":[{"start":"2025-09-05T05:00:45+0200","end":"2025-09-08T05:00:17+0200","period":"Vrijdag 5 september 5:00 uur t/m maandag 8 september 5:00 uur.","situation":{"label":"Door werkzaamheden: tussen Zaandam en Uitgeest rijden er bussen."},"cause":{"label":"werkzaamheden","type":"OTHER"},"additionalTravelTime":{"label":"De extra reistijd is ongeveer 15 minuten.","shortLabel":"Extra reistijd 15 min.","minimumDurationInMinutes":15,"maximumDurationInMinutes":15},"alternativeTransport":{"label":"er rijden stopbussen","shortLabel":"er rijden stopbussen"},"advices":["Maak gebruik van de omgeleide Intercity tussen Amsterdam C en Alkmaar via Haarlem.","Tussen Amsterdam C. en Uitgeest/Alkmaar reis via Haarlem."]}],"alternativeTransportTimespans":[{"start":"2025-09-05T05:00:45+0200","end":"2025-09-08T05:00:17+0200","alternativeTransport":{"location":[{"station":{"coordinate":{"lat":52.5216674804687,"lng":4.70166683197022},"countryCode":"NL","name":"Uitgeest","stationCode":"UTG","uicCode":"8400615"},"description":"vanaf de achterzijde van het station"},{"station":{"coordinate":{"lat":52.49511,"lng":4.75417},"countryCode":"NL","name":"Krommenie-Assendelft","stationCode":"KMA","uicCode":"8400368"},"description":"vanaf de provinciale weg"},{"station":{"coordinate":{"lat":52.4891662597656,"lng":4.79222202301025},"countryCode":"NL","name":"Wormerveer","stationCode":"WM","uicCode":"8400707"},"description":"vanaf de provinciale weg"},{"station":{"coordinate":{"lat":52.469165802002,"lng":4.80499982833862},"countryCode":"NL","name":"Zaandijk Zaanse Schans","stationCode":"ZZS","uicCode":"8400364"},"description":"vanaf de provinciale weg"},{"station":{"coordinate":{"lat":52.458610534668,"lng":4.80555534362793},"countryCode":"NL","name":"Koog aan de Zaan","stationCode":"KZ","uicCode":"8400363"},"description":"vanaf de provinciale weg"},{"station":{"coordinate":{"lat":52.4388885498047,"lng":4.81361103057861},"countryCode":"NL","name":"Zaandam","stationCode":"ZD","uicCode":"8400731"},"description":"vanaf het busstation"}],"label":"Er rijden stopbussen tussen Uitgeest, Krommenie-Assendelft, Wormerveer, Zaandijk Zaanse Schans, Koog aan de Zaan en Zaandam.","shortLabel":"Er rijden stopbussen Uitgeest - Krommenie-Ass. - Wormerveer - Zaanse Schans - Koog a.d. Zaan - Zaandam."}},{"start":"2025-09-05T05:00:45+0200","end":"2025-09-08T05:00:17+0200","alternativeTransport":{"location":[{"station":{"coordinate":{"lat":52.4388885498047,"lng":4.81361103057861},"countryCode":"NL","name":"Zaandam","stationCode":"ZD","uicCode":"8400731"},"description":"vanaf het busstation"},{"station":{"coordinate":{"lat":52.4891662597656,"lng":4.79222202301025},"countryCode":"NL","name":"Wormerveer","stationCode":"WM","uicCode":"8400707"},"description":"vanaf de provinciale weg"},{"station":{"coordinate":{"lat":52.49511,"lng":4.75417},"countryCode":"NL","name":"Krommenie-Assendelft","stationCode":"KMA","uicCode":"8400368"},"description":"vanaf de provinciale weg"},{"station":{"coordinate":{"lat":52.5216674804687,"lng":4.70166683197022},"countryCode":"NL","name":"Uitgeest","stationCode":"UTG","uicCode":"8400615"},"description":"vanaf de achterzijde van het station"}],"label":"Er rijden stopbussen tussen Zaandam, Wormerveer, Krommenie-Assendelft en Uitgeest.","shortLabel":"Er rijden stopbussen Zaandam - Wormerveer - Krommenie-Ass. - Uitgeest."}},{"start":"2025-09-05T05:00:45+0200","end":"2025-09-08T05:00:17+0200","alternativeTransport":{"location":[{"station":{"coordinate":{"lat":52.4388885498047,"lng":4.81361103057861},"countryCode":"NL","name":"Zaandam","stationCode":"ZD","uicCode":"8400731"},"description":"vanaf het busstation"},{"station":{"coordinate":{"lat":52.458610534668,"lng":4.80555534362793},"countryCode":"NL","name":"Koog aan de Zaan","stationCode":"KZ","uicCode":"8400363"},"description":"vanaf de provinciale weg"},{"station":{"coordinate":{"lat":52.469165802002,"lng":4.80499982833862},"countryCode":"NL","name":"Zaandijk Zaanse Schans","stationCode":"ZZS","uicCode":"8400364"},"description":"vanaf de provinciale weg"},{"station":{"coordinate":{"lat":52.4891662597656,"lng":4.79222202301025},"countryCode":"NL","name":"Wormerveer","stationCode":"WM","uicCode":"8400707"},"description":"vanaf de provinciale weg"}],"label":"Er rijden stopbussen tussen Zaandam, Koog aan de Zaan, Zaandijk Zaanse Schans en Wormerveer.","shortLabel":"Er rijden stopbussen Zaandam - Koog a.d. Zaan - Zaanse Schans - Wormerveer."}}]},{"type":"MAINTENANCE","id":"7006685","title":"Amsterdam - Utrecht.","isActive":true,"local":false,"titleSections":[[{"type":"STATION","value":"Amsterdam C."},{"type":"ICON","value":"MAINTENANCE"},{"type":"STATION","value":"Utrecht C."}]],"registrationTime":"2025-09-06T21:47:16+0200","start":"2025-09-06T05:30:00+0200","releaseTime":"2025-09-06T21:47:16+0200","end":"2025-09-08T06:10:00+0200","period":"Zaterdag 6 september 5:30 uur t/m maandag 8 september 6:10 uur.","impact":{"value":4},"publicationSections":[{"section":{"stations":[{"coordinate":{"lat":52.3788871765137,"lng":4.90027761459351},"countryCode":"NL","name":"Amsterdam Centraal","stationCode":"ASD","uicCode":"8400058"},{"coordinate":{"lat":52.3605537414551,"lng":4.93111133575439},"countryCode":"NL","name":"Amsterdam Muiderpoort","stationCode":"ASDM","uicCode":"8400060"},{"coordinate":{"lat":52.3466682434082,"lng":4.91777801513672},"countryCode":"NL","name":"Amsterdam Amstel","stationCode":"ASA","uicCode":"8400057"},{"coordinate":{"lat":52.3233337402344,"lng":4.93638896942139},"countryCode":"NL","name":"Duivendrecht","stationCode":"DVD","uicCode":"8400194"},{"coordinate":{"lat":52.3122215270996,"lng":4.94694423675537},"countryCode":"NL","name":"Amsterdam Bijlmer ArenA","stationCode":"ASB","uicCode":"8400074"},{"coordinate":{"lat":52.29844,"lng":4.95972},"countryCode":"NL","name":"Amsterdam Holendrecht","stationCode":"ASHD","uicCode":"8400231"},{"coordinate":{"lat":52.2785,"lng":4.977},"countryCode":"NL","name":"Abcoude","stationCode":"AC","uicCode":"8400047"},{"coordinate":{"lat":52.17149,"lng":4.9906},"countryCode":"NL","name":"Breukelen","stationCode":"BKL","uicCode":"8400133"},{"coordinate":{"lat":52.1352767944336,"lng":5.03361129760742},"countryCode":"NL","name":"Maarssen","stationCode":"MAS","uicCode":"8400419"},{"coordinate":{"lat":52.103055,"lng":5.09},"countryCode":"NL","name":"Utrecht Zuilen","stationCode":"UTZL","uicCode":"8400613"},{"coordinate":{"lat":52.0888900756836,"lng":5.11027765274048},"countryCode":"NL","name":"Utrecht Centraal","stationCode":"UT","uicCode":"8400621"}],"direction":"BOTH","operators":["NS"]},"consequence":{"section":{"stations":[{"coordinate":{"lat":52.3788871765137,"lng":4.90027761459351},"countryCode":"NL","name":"Amsterdam Centraal","stationCode":"ASD","uicCode":"8400058"},{"coordinate":{"lat":52.3605537414551,"lng":4.93111133575439},"countryCode":"NL","name":"Amsterdam Muiderpoort","stationCode":"ASDM","uicCode":"8400060"},{"coordinate":{"lat":52.3466682434082,"lng":4.91777801513672},"countryCode":"NL","name":"Amsterdam Amstel","stationCode":"ASA","uicCode":"8400057"},{"coordinate":{"lat":52.3233337402344,"lng":4.93638896942139},"countryCode":"NL","name":"Duivendrecht","stationCode":"DVD","uicCode":"8400194"},{"coordinate":{"lat":52.3122215270996,"lng":4.94694423675537},"countryCode":"NL","name":"Amsterdam Bijlmer ArenA","stationCode":"ASB","uicCode":"8400074"},{"coordinate":{"lat":52.29844,"lng":4.95972},"countryCode":"NL","name":"Amsterdam Holendrecht","stationCode":"ASHD","uicCode":"8400231"},{"coordinate":{"lat":52.2785,"lng":4.977},"countryCode":"NL","name":"Abcoude","stationCode":"AC","uicCode":"8400047"},{"coordinate":{"lat":52.17149,"lng":4.9906},"countryCode":"NL","name":"Breukelen","stationCode":"BKL","uicCode":"8400133"},{"coordinate":{"lat":52.1352767944336,"lng":5.03361129760742},"countryCode":"NL","name":"Maarssen","stationCode":"MAS","uicCode":"8400419"},{"coordinate":{"lat":52.103055,"lng":5.09},"countryCode":"NL","name":"Utrecht Zuilen","stationCode":"UTZL","uicCode":"8400613"},{"coordinate":{"lat":52.0888900756836,"lng":5.11027765274048},"countryCode":"NL","name":"Utrecht Centraal","stationCode":"UT","uicCode":"8400621"}],"direction":"BOTH","operators":["NS"]},"description":"geen Sprinters","level":"LESS_TRAINS"},"sectionType":"NL"}],"summaryAdditionalTravelTime":{"label":"De extra reistijd kan oplopen tot 30 minuten.","shortLabel":"Extra reistijd tot 30 min.","maximumDurationInMinutes":30},"timespans":[{"start":"2025-09-06T05:30:00+0200","end":"2025-09-08T06:10:00+0200","period":"Zaterdag 6 september 5:30 uur t/m maandag 8 september 6:10 uur.","situation":{"label":"Door werkzaamheden: tussen Amsterdam Centraal en Utrecht Centraal rijden er geen Sprinters."},"cause":{"label":"werkzaamheden","type":"OTHER"},"additionalTravelTime":{"label":"De extra reistijd kan oplopen tot 30 minuten.","shortLabel":"Extra reistijd tot 30 min.","maximumDurationInMinutes":30},"alternativeTransport":{"label":"maak gebruik van het vervangende vervoer","shortLabel":"gebruik het vervangende vervoer"},"advices":["Uw NS-vervoerbewijs is geldig in metro tussen Amsterdam Centraal en Bijlmer. Maak tussen Bijlmer en Utrecht Centraal gebruik van de NS-bus.","Tussen Woerden en Bijlmer ArenA/Amsterdam C. reis via Utrecht C."]}],"alternativeTransportTimespans":[{"start":"2025-09-06T05:30:00+0200","end":"2025-09-08T02:20:00+0200","alternativeTransport":{"location":[{"station":{"coordinate":{"lat":52.3788871765137,"lng":4.90027761459351},"countryCode":"NL","name":"Amsterdam Centraal","stationCode":"ASD","uicCode":"8400058"},"description":"volg de aanwijzingen op het station"},{"station":{"coordinate":{"lat":52.3466682434082,"lng":4.91777801513672},"countryCode":"NL","name":"Amsterdam Amstel","stationCode":"ASA","uicCode":"8400057"},"description":"volg de aanwijzingen op het station"},{"station":{"coordinate":{"lat":52.3233337402344,"lng":4.93638896942139},"countryCode":"NL","name":"Duivendrecht","stationCode":"DVD","uicCode":"8400194"},"description":"volg de aanwijzingen op het station"},{"station":{"coordinate":{"lat":52.3122215270996,"lng":4.94694423675537},"countryCode":"NL","name":"Amsterdam Bijlmer ArenA","stationCode":"ASB","uicCode":"8400074"},"description":"volg de aanwijzingen op het station"}],"label":"Maak gebruik van de Amsterdamse metro tussen Amsterdam Centraal, Amsterdam Amstel, Duivendrecht en Amsterdam Bijlmer ArenA.","shortLabel":"Gebruik de Amsterdamse metro Amsterdam C. - Amstel - Duivendrecht - Bijlmer ArenA."}},{"start":"2025-09-06T05:30:00+0200","end":"2025-09-08T02:20:00+0200","alternativeTransport":{"location":[{"station":{"coordinate":{"lat":52.3122215270996,"lng":4.94694423675537},"countryCode":"NL","name":"Amsterdam Bijlmer ArenA","stationCode":"ASB","uicCode":"8400074"},"description":"vanaf het busstation"},{"station":{"coordinate":{"lat":52.29844,"lng":4.95972},"countryCode":"NL","name":"Amsterdam Holendrecht","stationCode":"ASHD","uicCode":"8400231"},"description":"vanaf de voorzijde van het station"},{"station":{"coordinate":{"lat":52.2785,"lng":4.977},"countryCode":"NL","name":"Abcoude","stationCode":"AC","uicCode":"8400047"},"description":"vanaf de voorzijde van het station"},{"station":{"coordinate":{"lat":52.17149,"lng":4.9906},"countryCode":"NL","name":"Breukelen","stationCode":"BKL","uicCode":"8400133"},"description":"vanaf de NS Bushalte"},{"station":{"coordinate":{"lat":52.1352767944336,"lng":5.03361129760742},"countryCode":"NL","name":"Maarssen","stationCode":"MAS","uicCode":"8400419"},"description":"vanaf het busstation"},{"station":{"coordinate":{"lat":52.103055,"lng":5.09},"countryCode":"NL","name":"Utrecht Zuilen","stationCode":"UTZL","uicCode":"8400613"},"description":"vanaf de bushalte"},{"station":{"coordinate":{"lat":52.0888900756836,"lng":5.11027765274048},"countryCode":"NL","name":"Utrecht Centraal","stationCode":"UT","uicCode":"8400621"},"description":"vanaf de Jaarbeursplein, halte G"}],"label":"Er rijden stopbussen tussen Amsterdam Bijlmer ArenA, Amsterdam Holendrecht, Abcoude, Breukelen, Maarssen, Utrecht Zuilen en Utrecht Centraal.","shortLabel":"Er rijden stopbussen Bijlmer ArenA - Holendrecht - Abcoude - Breukelen - Maarssen - Zuilen - Utrecht C."}}]},{"type":"MAINTENANCE","id":"7006718","title":"Rotterdam - Breda.","isActive":false,"local":false,"titleSections":[[{"type":"STATION","value":"Rotterdam C."},{"type":"ICON","value":"MAINTENANCE"},{"type":"STATION","value":"Breda"}]],"registrationTime":"2025-08-29T11:46:55+0200","start":"2025-09-08T07:00:00+0200","releaseTime":"2025-08-29T11:46:55+0200","end":"2025-09-11T08:30:00+0200","period":"Maandag 8 september 7:00 uur t/m donderdag 11 september 8:30 uur.","impact":{"value":2},"publicationSections":[{"section":{"stations":[{"coordinate":{"lat":51.9249992370605,"lng":4.46888875961304},"countryCode":"NL","name":"Rotterdam Centraal","stationCode":"RTD","uicCode":"8400530"},{"coordinate":{"lat":51.9202766418457,"lng":4.48888874053955},"countryCode":"NL","name":"Rotterdam Blaak","stationCode":"RTB","uicCode":"8400529"},{"coordinate":{"lat":51.9044456481934,"lng":4.51027774810791},"countryCode":"NL","name":"Rotterdam Zuid","stationCode":"RTZ","uicCode":"8400533"},{"coordinate":{"lat":51.8800010681152,"lng":4.53138875961304},"countryCode":"NL","name":"Rotterdam Lombardijen","stationCode":"RLB","uicCode":"8400542"},{"coordinate":{"lat":51.606388092041,"lng":4.72083330154419},"countryCode":"NL","name":"Breda-Prinsenbeek","stationCode":"BDPB","uicCode":"8400132"},{"coordinate":{"lat":51.5955543518066,"lng":4.78000020980835},"countryCode":"NL","name":"Breda","stationCode":"BD","uicCode":"8400131"}],"direction":"ONE_WAY","operators":["NS Int"]},"consequence":{"section":{"stations":[{"coordinate":{"lat":51.9249992370605,"lng":4.46888875961304},"countryCode":"NL","name":"Rotterdam Centraal","stationCode":"RTD","uicCode":"8400530"},{"coordinate":{"lat":51.9202766418457,"lng":4.48888874053955},"countryCode":"NL","name":"Rotterdam Blaak","stationCode":"RTB","uicCode":"8400529"},{"coordinate":{"lat":51.9044456481934,"lng":4.51027774810791},"countryCode":"NL","name":"Rotterdam Zuid","stationCode":"RTZ","uicCode":"8400533"},{"coordinate":{"lat":51.8800010681152,"lng":4.53138875961304},"countryCode":"NL","name":"Rotterdam Lombardijen","stationCode":"RLB","uicCode":"8400542"},{"coordinate":{"lat":51.606388092041,"lng":4.72083330154419},"countryCode":"NL","name":"Breda-Prinsenbeek","stationCode":"BDPB","uicCode":"8400132"},{"coordinate":{"lat":51.5955543518066,"lng":4.78000020980835},"countryCode":"NL","name":"Breda","stationCode":"BD","uicCode":"8400131"}],"direction":"ONE_WAY","operators":["NS Int"]},"description":"extra drukte vanwege een omreisroute","level":"LESS_TRAINS"},"sectionType":"HSL"}],"summaryAdditionalTravelTime":{"label":"De extra reistijd kan oplopen tot 15 minuten.","shortLabel":"Extra reistijd tot 15 min.","minimumDurationInMinutes":15,"maximumDurationInMinutes":15},"timespans":[{"start":"2025-09-08T07:00:00+0200","end":"2025-09-08T08:30:00+0200","period":"Maandag 8 september 7:00 uur t/m maandag 8 september 8:30 uur.","situation":{"label":"Door grote drukte: van Breda naar Rotterdam Centraal zijn er volle treinen en mogelijk een langere reistijd."},"cause":{"label":"grote drukte","type":"OTHER"},"additionalTravelTime":{"label":"De extra reistijd is ongeveer 15 minuten.","shortLabel":"Extra reistijd 15 min.","minimumDurationInMinutes":15,"maximumDurationInMinutes":15},"advices":["Erg drukke treinen van Breda naar Rotterdam C. Gebruik ook de EuroCity of Intercity direct. Deze zijn tot Rotterdam C zonder toeslag."]},{"start":"2025-09-09T07:00:00+0200","end":"2025-09-09T08:30:00+0200","period":"Dinsdag 9 september 7:00 uur t/m dinsdag 9 september 8:30 uur.","situation":{"label":"Door grote drukte: van Breda naar Rotterdam Centraal zijn er volle treinen en mogelijk een langere reistijd."},"cause":{"label":"grote drukte","type":"OTHER"},"additionalTravelTime":{"label":"De extra reistijd is ongeveer 15 minuten.","shortLabel":"Extra reistijd 15 min.","minimumDurationInMinutes":15,"maximumDurationInMinutes":15},"advices":["Erg drukke treinen van Breda naar Rotterdam C. Gebruik ook de EuroCity en Intercity direct. Deze zijn tot Rotterdam C zonder toeslag."]},{"start":"2025-09-10T07:00:00+0200","end":"2025-09-10T08:30:00+0200","period":"Woensdag 10 september 7:00 uur t/m woensdag 10 september 8:30 uur.","situation":{"label":"Door grote drukte: van Breda naar Rotterdam Centraal zijn er volle treinen en mogelijk een langere reistijd."},"cause":{"label":"grote drukte","type":"OTHER"},"additionalTravelTime":{"label":"De extra reistijd is ongeveer 15 minuten.","shortLabel":"Extra reistijd 15 min.","minimumDurationInMinutes":15,"maximumDurationInMinutes":15},"advices":["Erg drukke treinen van Breda naar Rotterdam C. Gebruik ook de EuroCity en Intercity direct. Deze zijn tot Rotterdam C zonder toeslag."]},{"start":"2025-09-11T07:00:00+0200","end":"2025-09-11T08:30:00+0200","period":"Donderdag 11 september 7:00 uur t/m donderdag 11 september 8:30 uur.","situation":{"label":"Door grote drukte: van Breda naar Rotterdam Centraal zijn er volle treinen en mogelijk een langere reistijd."},"cause":{"label":"grote drukte","type":"OTHER"},"additionalTravelTime":{"label":"De extra reistijd is ongeveer 15 minuten.","shortLabel":"Extra reistijd 15 min.","minimumDurationInMinutes":15,"maximumDurationInMinutes":15},"advices":["Erg drukke treinen van Breda naar Rotterdam C. Gebruik ook de EuroCity en Intercity direct. Deze zijn tot Rotterdam C zonder toeslag."]}],"alternativeTransportTimespans":[]},{"type":"MAINTENANCE","id":"7006660","title":"Heerlen - Aachen Hbf.","isActive":false,"local":false,"titleSections":[[{"type":"STATION","value":"Heerlen"},{"type":"ICON","value":"MAINTENANCE"},{"type":"STATION","value":"Aachen Hbf"}]],"registrationTime":"2025-08-18T10:17:12+0200","start":"2025-09-08T21:50:00+0200","releaseTime":"2025-08-18T10:17:12+0200","end":"2025-09-09T01:15:00+0200","period":"Maandag 8 september 21:50 uur t/m dinsdag 9 september 1:15 uur.","impact":{"value":2},"publicationSections":[{"section":{"stations":[{"coordinate":{"lat":50.8908348083496,"lng":5.97499990463257},"countryCode":"NL","name":"Heerlen","stationCode":"HRL","uicCode":"8400307"},{"coordinate":{"lat":50.8963890075684,"lng":6.01916646957398},"countryCode":"NL","name":"Landgraaf","stationCode":"LG","uicCode":"8400548"},{"coordinate":{"lat":50.8960498196442,"lng":6.0602474212646396},"countryCode":"NL","name":"Eygelshoven Markt","stationCode":"EGHM","uicCode":"8400234"},{"coordinate":{"lat":50.870916,"lng":6.094486},"countryCode":"D","name":"Herzogenrath","stationCode":"HZ","uicCode":"8015190"},{"coordinate":{"lat":50.7678,"lng":6.091499},"countryCode":"D","name":"Aachen Hbf","stationCode":"AHBF","uicCode":"8015345"}],"direction":"BOTH","operators":["Arriva"]},"consequence":{"section":{"stations":[{"coordinate":{"lat":50.8908348083496,"lng":5.97499990463257},"countryCode":"NL","name":"Heerlen","stationCode":"HRL","uicCode":"8400307"},{"coordinate":{"lat":50.8963890075684,"lng":6.01916646957398},"countryCode":"NL","name":"Landgraaf","stationCode":"LG","uicCode":"8400548"},{"coordinate":{"lat":50.8960498196442,"lng":6.0602474212646396},"countryCode":"NL","name":"Eygelshoven Markt","stationCode":"EGHM","uicCode":"8400234"},{"coordinate":{"lat":50.870916,"lng":6.094486},"countryCode":"D","name":"Herzogenrath","stationCode":"HZ","uicCode":"8015190"},{"coordinate":{"lat":50.7678,"lng":6.091499},"countryCode":"D","name":"Aachen Hbf","stationCode":"AHBF","uicCode":"8015345"}],"direction":"BOTH","operators":["Arriva"]},"description":"er rijden bussen","level":"LESS_TRAINS"},"sectionType":"NEIGHBORING_COUNTRY"}],"summaryAdditionalTravelTime":{"label":"De extra reistijd is ongeveer 30 minuten.","shortLabel":"Extra reistijd 30 min.","minimumDurationInMinutes":30,"maximumDurationInMinutes":30},"timespans":[{"start":"2025-09-08T21:50:00+0200","end":"2025-09-09T01:15:00+0200","period":"Maandag 8 september 21:50 uur t/m dinsdag 9 september 1:15 uur.","situation":{"label":"Door werkzaamheden: tussen Heerlen en Aachen Hbf rijden er bussen."},"cause":{"label":"werkzaamheden","type":"OTHER"},"additionalTravelTime":{"label":"De extra reistijd is ongeveer 30 minuten.","shortLabel":"Extra reistijd 30 min.","minimumDurationInMinutes":30,"maximumDurationInMinutes":30},"alternativeTransport":{"label":"er rijden stopbussen","shortLabel":"er rijden stopbussen"},"advices":[]}],"alternativeTransportTimespans":[{"start":"2025-09-08T21:50:00+0200","end":"2025-09-09T01:15:00+0200","alternativeTransport":{"location":[{"station":{"coordinate":{"lat":50.8908348083496,"lng":5.97499990463257},"countryCode":"NL","name":"Heerlen","stationCode":"HRL","uicCode":"8400307"},"description":"vanaf het busstation Perron A"},{"station":{"coordinate":{"lat":50.8963890075684,"lng":6.01916646957398},"countryCode":"NL","name":"Landgraaf","stationCode":"LG","uicCode":"8400548"},"description":"vanaf de doorgaande weg, voorzijde station"},{"station":{"coordinate":{"lat":50.8960498196442,"lng":6.0602474212646396},"countryCode":"NL","name":"Eygelshoven Markt","stationCode":"EGHM","uicCode":"8400234"},"description":"vanaf de bushalte Centrum"},{"station":{"coordinate":{"lat":50.870916,"lng":6.094486},"countryCode":"D","name":"Herzogenrath","stationCode":"HZ","uicCode":"8015190"},"description":"volg de aanwijzingen op het station"},{"station":{"coordinate":{"lat":50.78036,"lng":6.070715},"countryCode":"D","name":"Aachen West","stationCode":"AW","uicCode":"8015199"},"description":"volg de aanwijzingen op het station"},{"station":{"coordinate":{"lat":50.7678,"lng":6.091499},"countryCode":"D","name":"Aachen Hbf","stationCode":"AHBF","uicCode":"8015345"},"description":"volg de aanwijzingen op het station"}],"label":"Er rijden stopbussen tussen Heerlen, Landgraaf, Eygelshoven Markt, Herzogenrath, Aachen West en Aachen Hbf.","shortLabel":"Er rijden stopbussen Heerlen - Landgraaf - Eygelshoven Mrkt - Herzogenrath - Aachen West - Aachen Hbf."}}]},{"type":"MAINTENANCE","id":"7006730","title":"Utrecht - Hilversum.","isActive":false,"local":false,"titleSections":[[{"type":"STATION","value":"Utrecht C."},{"type":"ICON","value":"MAINTENANCE"},{"type":"STATION","value":"Hilversum"}]],"registrationTime":"2025-08-20T11:41:50+0200","start":"2025-09-09T04:00:00+0200","releaseTime":"2025-08-20T11:41:50+0200","end":"2025-09-09T05:40:00+0200","period":"Dinsdag 9 september 4:00 uur t/m dinsdag 9 september 5:40 uur.","impact":{"value":2},"publicationSections":[{"section":{"stations":[{"coordinate":{"lat":52.0888900756836,"lng":5.11027765274048},"countryCode":"NL","name":"Utrecht Centraal","stationCode":"UT","uicCode":"8400621"},{"coordinate":{"lat":52.1100006103516,"lng":5.12472200393677},"countryCode":"NL","name":"Utrecht Overvecht","stationCode":"UTO","uicCode":"8400620"},{"coordinate":{"lat":52.1777763366699,"lng":5.17916679382324},"countryCode":"NL","name":"Hollandsche Rading","stationCode":"HOR","uicCode":"8400327"},{"coordinate":{"lat":52.2161102294922,"lng":5.18722200393677},"countryCode":"NL","name":"Hilversum Sportpark","stationCode":"HVSP","uicCode":"8400570"},{"coordinate":{"lat":52.2258338928223,"lng":5.18194437026978},"countryCode":"NL","name":"Hilversum","stationCode":"HVS","uicCode":"8400322"}],"direction":"ONE_WAY","operators":["NS"]},"consequence":{"section":{"stations":[{"coordinate":{"lat":52.0888900756836,"lng":5.11027765274048},"countryCode":"NL","name":"Utrecht Centraal","stationCode":"UT","uicCode":"8400621"},{"coordinate":{"lat":52.1100006103516,"lng":5.12472200393677},"countryCode":"NL","name":"Utrecht Overvecht","stationCode":"UTO","uicCode":"8400620"},{"coordinate":{"lat":52.1777763366699,"lng":5.17916679382324},"countryCode":"NL","name":"Hollandsche Rading","stationCode":"HOR","uicCode":"8400327"},{"coordinate":{"lat":52.2161102294922,"lng":5.18722200393677},"countryCode":"NL","name":"Hilversum Sportpark","stationCode":"HVSP","uicCode":"8400570"},{"coordinate":{"lat":52.2258338928223,"lng":5.18194437026978},"countryCode":"NL","name":"Hilversum","stationCode":"HVS","uicCode":"8400322"}],"direction":"ONE_WAY","operators":["NS"]},"description":"geen treinen","level":"LESS_TRAINS"},"sectionType":"NL"}],"summaryAdditionalTravelTime":{"label":"De extra reistijd is ongeveer 30 minuten.","shortLabel":"Extra reistijd 30 min.","minimumDurationInMinutes":30,"maximumDurationInMinutes":30},"timespans":[{"start":"2025-09-09T04:00:00+0200","end":"2025-09-09T05:40:00+0200","period":"Dinsdag 9 september 4:00 uur t/m dinsdag 9 september 5:40 uur.","situation":{"label":"Door werkzaamheden: van Utrecht Centraal naar Hilversum rijden er geen treinen."},"cause":{"label":"werkzaamheden","type":"OTHER"},"additionalTravelTime":{"label":"De extra reistijd is ongeveer 30 minuten.","shortLabel":"Extra reistijd 30 min.","minimumDurationInMinutes":30,"maximumDurationInMinutes":30},"advices":["Eerste twee Sprinters rijden niet van Utrecht C naar Hilversum. Ga op reis na 05.40 uur"]}],"alternativeTransportTimespans":[]},{"type":"MAINTENANCE","id":"7006661","title":"Heerlen - Aachen Hbf.","isActive":false,"local":false,"titleSections":[[{"type":"STATION","value":"Heerlen"},{"type":"ICON","value":"MAINTENANCE"},{"type":"STATION","value":"Aachen Hbf"}]],"registrationTime":"2025-08-18T10:17:08+0200","start":"2025-09-09T21:50:00+0200","releaseTime":"2025-08-18T10:17:08+0200","end":"2025-09-10T01:15:00+0200","period":"Dinsdag 9 september 21:50 uur t/m woensdag 10 september 1:15 uur.","impact":{"value":2},"publicationSections":[{"section":{"stations":[{"coordinate":{"lat":50.8908348083496,"lng":5.97499990463257},"countryCode":"NL","name":"Heerlen","stationCode":"HRL","uicCode":"8400307"},{"coordinate":{"lat":50.8963890075684,"lng":6.01916646957398},"countryCode":"NL","name":"Landgraaf","stationCode":"LG","uicCode":"8400548"},{"coordinate":{"lat":50.8960498196442,"lng":6.0602474212646396},"countryCode":"NL","name":"Eygelshoven Markt","stationCode":"EGHM","uicCode":"8400234"},{"coordinate":{"lat":50.870916,"lng":6.094486},"countryCode":"D","name":"Herzogenrath","stationCode":"HZ","uicCode":"8015190"},{"coordinate":{"lat":50.7678,"lng":6.091499},"countryCode":"D","name":"Aachen Hbf","stationCode":"AHBF","uicCode":"8015345"}],"direction":"BOTH","operators":["Arriva"]},"consequence":{"section":{"stations":[{"coordinate":{"lat":50.8908348083496,"lng":5.97499990463257},"countryCode":"NL","name":"Heerlen","stationCode":"HRL","uicCode":"8400307"},{"coordinate":{"lat":50.8963890075684,"lng":6.01916646957398},"countryCode":"NL","name":"Landgraaf","stationCode":"LG","uicCode":"8400548"},{"coordinate":{"lat":50.8960498196442,"lng":6.0602474212646396},"countryCode":"NL","name":"Eygelshoven Markt","stationCode":"EGHM","uicCode":"8400234"},{"coordinate":{"lat":50.870916,"lng":6.094486},"countryCode":"D","name":"Herzogenrath","stationCode":"HZ","uicCode":"8015190"},{"coordinate":{"lat":50.7678,"lng":6.091499},"countryCode":"D","name":"Aachen Hbf","stationCode":"AHBF","uicCode":"8015345"}],"direction":"BOTH","operators":["Arriva"]},"description":"er rijden bussen","level":"LESS_TRAINS"},"sectionType":"NEIGHBORING_COUNTRY"}],"summaryAdditionalTravelTime":{"label":"De extra reistijd is ongeveer 30 minuten.","shortLabel":"Extra reistijd 30 min.","minimumDurationInMinutes":30,"maximumDurationInMinutes":30},"timespans":[{"start":"2025-09-09T21:50:00+0200","end":"2025-09-10T01:15:00+0200","period":"Dinsdag 9 september 21:50 uur t/m woensdag 10 september 1:15 uur.","situation":{"label":"Door werkzaamheden: tussen Heerlen en Aachen Hbf rijden er bussen."},"cause":{"label":"werkzaamheden","type":"OTHER"},"additionalTravelTime":{"label":"De extra reistijd is ongeveer 30 minuten.","shortLabel":"Extra reistijd 30 min.","minimumDurationInMinutes":30,"maximumDurationInMinutes":30},"alternativeTransport":{"label":"er rijden stopbussen","shortLabel":"er rijden stopbussen"},"advices":[]}],"alternativeTransportTimespans":[{"start":"2025-09-09T21:50:00+0200","end":"2025-09-10T01:15:00+0200","alternativeTransport":{"location":[{"station":{"coordinate":{"lat":50.8908348083496,"lng":5.97499990463257},"countryCode":"NL","name":"Heerlen","stationCode":"HRL","uicCode":"8400307"},"description":"vanaf het busstation Perron A"},{"station":{"coordinate":{"lat":50.8963890075684,"lng":6.01916646957398},"countryCode":"NL","name":"Landgraaf","stationCode":"LG","uicCode":"8400548"},"description":"vanaf de doorgaande weg, voorzijde station"},{"station":{"coordinate":{"lat":50.8960498196442,"lng":6.0602474212646396},"countryCode":"NL","name":"Eygelshoven Markt","stationCode":"EGHM","uicCode":"8400234"},"description":"vanaf de bushalte Centrum"},{"station":{"coordinate":{"lat":50.870916,"lng":6.094486},"countryCode":"D","name":"Herzogenrath","stationCode":"HZ","uicCode":"8015190"},"description":"volg de aanwijzingen op het station"},{"station":{"coordinate":{"lat":50.78036,"lng":6.070715},"countryCode":"D","name":"Aachen West","stationCode":"AW","uicCode":"8015199"},"description":"volg de aanwijzingen op het station"},{"station":{"coordinate":{"lat":50.7678,"lng":6.091499},"countryCode":"D","name":"Aachen Hbf","stationCode":"AHBF","uicCode":"8015345"},"description":"volg de aanwijzingen op het station"}],"label":"Er rijden stopbussen tussen Heerlen, Landgraaf, Eygelshoven Markt, Herzogenrath, Aachen West en Aachen Hbf.","shortLabel":"Er rijden stopbussen Heerlen - Landgraaf - Eygelshoven Mrkt - Herzogenrath - Aachen West - Aachen Hbf."}}]},{"type":"MAINTENANCE","id":"7006662","title":"Heerlen - Aachen Hbf.","isActive":false,"local":false,"titleSections":[[{"type":"STATION","value":"Heerlen"},{"type":"ICON","value":"MAINTENANCE"},{"type":"STATION","value":"Aachen Hbf"}]],"registrationTime":"2025-08-18T10:17:17+0200","start":"2025-09-10T21:50:00+0200","releaseTime":"2025-08-18T10:17:17+0200","end":"2025-09-11T01:15:00+0200","period":"Woensdag 10 september 21:50 uur t/m donderdag 11 september 1:15 uur.","impact":{"value":2},"publicationSections":[{"section":{"stations":[{"coordinate":{"lat":50.8908348083496,"lng":5.97499990463257},"countryCode":"NL","name":"Heerlen","stationCode":"HRL","uicCode":"8400307"},{"coordinate":{"lat":50.8963890075684,"lng":6.01916646957398},"countryCode":"NL","name":"Landgraaf","stationCode":"LG","uicCode":"8400548"},{"coordinate":{"lat":50.8960498196442,"lng":6.0602474212646396},"countryCode":"NL","name":"Eygelshoven Markt","stationCode":"EGHM","uicCode":"8400234"},{"coordinate":{"lat":50.870916,"lng":6.094486},"countryCode":"D","name":"Herzogenrath","stationCode":"HZ","uicCode":"8015190"},{"coordinate":{"lat":50.7678,"lng":6.091499},"countryCode":"D","name":"Aachen Hbf","stationCode":"AHBF","uicCode":"8015345"}],"direction":"BOTH","operators":["Arriva"]},"consequence":{"section":{"stations":[{"coordinate":{"lat":50.8908348083496,"lng":5.97499990463257},"countryCode":"NL","name":"Heerlen","stationCode":"HRL","uicCode":"8400307"},{"coordinate":{"lat":50.8963890075684,"lng":6.01916646957398},"countryCode":"NL","name":"Landgraaf","stationCode":"LG","uicCode":"8400548"},{"coordinate":{"lat":50.8960498196442,"lng":6.0602474212646396},"countryCode":"NL","name":"Eygelshoven Markt","stationCode":"EGHM","uicCode":"8400234"},{"coordinate":{"lat":50.870916,"lng":6.094486},"countryCode":"D","name":"Herzogenrath","stationCode":"HZ","uicCode":"8015190"},{"coordinate":{"lat":50.7678,"lng":6.091499},"countryCode":"D","name":"Aachen Hbf","stationCode":"AHBF","uicCode":"8015345"}],"direction":"BOTH","operators":["Arriva"]},"description":"er rijden bussen","level":"LESS_TRAINS"},"sectionType":"NEIGHBORING_COUNTRY"}],"summaryAdditionalTravelTime":{"label":"De extra reistijd is ongeveer 30 minuten.","shortLabel":"Extra reistijd 30 min.","minimumDurationInMinutes":30,"maximumDurationInMinutes":30},"timespans":[{"start":"2025-09-10T21:50:00+0200","end":"2025-09-11T01:15:00+0200","period":"Woensdag 10 september 21:50 uur t/m donderdag 11 september 1:15 uur.","situation":{"label":"Door werkzaamheden: tussen Heerlen en Aachen Hbf rijden er bussen."},"cause":{"label":"werkzaamheden","type":"OTHER"},"additionalTravelTime":{"label":"De extra reistijd is ongeveer 30 minuten.","shortLabel":"Extra reistijd 30 min.","minimumDurationInMinutes":30,"maximumDurationInMinutes":30},"alternativeTransport":{"label":"er rijden stopbussen","shortLabel":"er rijden stopbussen"},"advices":[]}],"alternativeTransportTimespans":[{"start":"2025-09-10T21:50:00+0200","end":"2025-09-11T01:15:00+0200","alternativeTransport":{"location":[{"station":{"coordinate":{"lat":50.8908348083496,"lng":5.97499990463257},"countryCode":"NL","name":"Heerlen","stationCode":"HRL","uicCode":"8400307"},"description":"vanaf het busstation Perron A"},{"station":{"coordinate":{"lat":50.8963890075684,"lng":6.01916646957398},"countryCode":"NL","name":"Landgraaf","stationCode":"LG","uicCode":"8400548"},"description":"vanaf de doorgaande weg, voorzijde station"},{"station":{"coordinate":{"lat":50.8960498196442,"lng":6.0602474212646396},"countryCode":"NL","name":"Eygelshoven Markt","stationCode":"EGHM","uicCode":"8400234"},"description":"vanaf de bushalte Centrum"},{"station":{"coordinate":{"lat":50.870916,"lng":6.094486},"countryCode":"D","name":"Herzogenrath","stationCode":"HZ","uicCode":"8015190"},"description":"volg de aanwijzingen op het station"},{"station":{"coordinate":{"lat":50.78036,"lng":6.070715},"countryCode":"D","name":"Aachen West","stationCode":"AW","uicCode":"8015199"},"description":"volg de aanwijzingen op het station"},{"station":{"coordinate":{"lat":50.7678,"lng":6.091499},"countryCode":"D","name":"Aachen Hbf","stationCode":"AHBF","uicCode":"8015345"},"description":"volg de aanwijzingen op het station"}],"label":"Er rijden stopbussen tussen Heerlen, Landgraaf, Eygelshoven Markt, Herzogenrath, Aachen West en Aachen Hbf.","shortLabel":"Er rijden stopbussen Heerlen - Landgraaf - Eygelshoven Mrkt - Herzogenrath - Aachen West - Aachen Hbf."}}]},{"type":"MAINTENANCE","id":"7006747","title":"Amsterdam - Köln - Zürich HB.","isActive":false,"local":false,"titleSections":[[{"type":"STATION","value":"Amsterdam C."},{"type":"STATION","value":"Zevenaar"},{"type":"ICON","value":"MAINTENANCE"},{"type":"STATION","value":"Emmerich-Elten"},{"type":"STATION","value":"Zürich HB"}]],"registrationTime":"2025-08-25T11:48:18+0200","start":"2025-09-11T20:15:05+0200","releaseTime":"2025-08-25T11:48:18+0200","end":"2025-09-19T23:55:00+0200","period":"Donderdag 11 september 20:15 uur t/m vrijdag 19 september 23:55 uur.","impact":{"value":2},"publicationSections":[{"section":{"stations":[{"coordinate":{"lat":52.3788871765137,"lng":4.90027761459351},"countryCode":"NL","name":"Amsterdam Centraal","stationCode":"ASD","uicCode":"8400058"},{"coordinate":{"lat":52.3605537414551,"lng":4.93111133575439},"countryCode":"NL","name":"Amsterdam Muiderpoort","stationCode":"ASDM","uicCode":"8400060"},{"coordinate":{"lat":52.3466682434082,"lng":4.91777801513672},"countryCode":"NL","name":"Amsterdam Amstel","stationCode":"ASA","uicCode":"8400057"},{"coordinate":{"lat":52.3233337402344,"lng":4.93638896942139},"countryCode":"NL","name":"Duivendrecht","stationCode":"DVD","uicCode":"8400194"},{"coordinate":{"lat":52.3122215270996,"lng":4.94694423675537},"countryCode":"NL","name":"Amsterdam Bijlmer ArenA","stationCode":"ASB","uicCode":"8400074"},{"coordinate":{"lat":52.29844,"lng":4.95972},"countryCode":"NL","name":"Amsterdam Holendrecht","stationCode":"ASHD","uicCode":"8400231"},{"coordinate":{"lat":52.2785,"lng":4.977},"countryCode":"NL","name":"Abcoude","stationCode":"AC","uicCode":"8400047"},{"coordinate":{"lat":52.17149,"lng":4.9906},"countryCode":"NL","name":"Breukelen","stationCode":"BKL","uicCode":"8400133"},{"coordinate":{"lat":52.1352767944336,"lng":5.03361129760742},"countryCode":"NL","name":"Maarssen","stationCode":"MAS","uicCode":"8400419"},{"coordinate":{"lat":52.103055,"lng":5.09},"countryCode":"NL","name":"Utrecht Zuilen","stationCode":"UTZL","uicCode":"8400613"},{"coordinate":{"lat":52.0888900756836,"lng":5.11027765274048},"countryCode":"NL","name":"Utrecht Centraal","stationCode":"UT","uicCode":"8400621"},{"coordinate":{"lat":52.078889,"lng":5.121667},"countryCode":"NL","name":"Utrecht Vaartsche Rijn","stationCode":"UTVR","uicCode":"8400606"},{"coordinate":{"lat":52.0630569458008,"lng":5.19444465637207},"countryCode":"NL","name":"Bunnik","stationCode":"BNK","uicCode":"8400141"},{"coordinate":{"lat":52.0652770996094,"lng":5.25861120223999},"countryCode":"NL","name":"Driebergen-Zeist","stationCode":"DB","uicCode":"8400182"},{"coordinate":{"lat":52.0641670227051,"lng":5.36999988555908},"countryCode":"NL","name":"Maarn","stationCode":"MRN","uicCode":"8400417"},{"coordinate":{"lat":52.0458335876465,"lng":5.57388877868652},"countryCode":"NL","name":"Veenendaal-De Klomp","stationCode":"KLP","uicCode":"8400637"},{"coordinate":{"lat":52.0277786254883,"lng":5.67305564880371},"countryCode":"NL","name":"Ede-Wageningen","stationCode":"ED","uicCode":"8400200"},{"coordinate":{"lat":52.0055541992188,"lng":5.7936110496521},"countryCode":"NL","name":"Wolfheze","stationCode":"WF","uicCode":"8400704"},{"coordinate":{"lat":51.9949989318848,"lng":5.84000015258789},"countryCode":"NL","name":"Oosterbeek","stationCode":"OTB","uicCode":"8400489"},{"coordinate":{"lat":51.9850006103516,"lng":5.89916658401489},"countryCode":"NL","name":"Arnhem Centraal","stationCode":"AH","uicCode":"8400071"},{"coordinate":{"lat":51.985279083252,"lng":5.91944456100464},"countryCode":"NL","name":"Arnhem Velperpoort","stationCode":"AHP","uicCode":"8400072"},{"coordinate":{"lat":51.96286,"lng":5.9695},"countryCode":"NL","name":"Westervoort","stationCode":"WTV","uicCode":"8400688"},{"coordinate":{"lat":51.9433326721191,"lng":6.01472234725952},"countryCode":"NL","name":"Duiven","stationCode":"DVN","uicCode":"8400193"},{"coordinate":{"lat":51.9230537414551,"lng":6.07194423675537},"countryCode":"NL","name":"Zevenaar","stationCode":"ZV","uicCode":"8400735"},{"coordinate":{"lat":51.8743,"lng":6.15417},"countryCode":"D","name":"Emmerich-Elten","stationCode":"EL","uicCode":"8033415"},{"coordinate":{"lat":51.834283,"lng":6.255718},"countryCode":"D","name":"Emmerich","stationCode":"EM","uicCode":"8010288"},{"coordinate":{"lat":51.47512,"lng":6.852038},"countryCode":"D","name":"Oberhausen Hbf","stationCode":"OBERH","uicCode":"8010263"},{"coordinate":{"lat":51.4297785713316,"lng":6.77590370178222},"countryCode":"D","name":"Duisburg Hbf","stationCode":"DUISB","uicCode":"8010316"},{"coordinate":{"lat":51.220146,"lng":6.793137},"countryCode":"D","name":"Düsseldorf Hbf","stationCode":"DUSSEL","uicCode":"8008094"},{"coordinate":{"lat":50.9432158,"lng":6.9589214},"countryCode":"D","name":"Köln Hbf","stationCode":"KOLN","uicCode":"8015458"},{"coordinate":{"lat":50.7320141646745,"lng":7.09712505340576},"countryCode":"D","name":"Bonn Hbf","stationCode":"BONN","uicCode":"8015485"},{"coordinate":{"lat":50.351085,"lng":7.588649},"countryCode":"D","name":"Koblenz Hbf","stationCode":"KKO","uicCode":"8019023"},{"coordinate":{"lat":50.001117,"lng":8.25872},"countryCode":"D","name":"Mainz Hbf","stationCode":"FMZ","uicCode":"8019051"},{"coordinate":{"lat":50.0531710299286,"lng":8.570237159729},"countryCode":"D","name":"Frankfurt Flughafen Fernb","stationCode":"FNAF","uicCode":"8061676"},{"coordinate":{"lat":50.1071222,"lng":8.6638338},"countryCode":"D","name":"Frankfurt (M) Hbf","stationCode":"FFFM","uicCode":"8011068"},{"coordinate":{"lat":49.479354,"lng":8.468921},"countryCode":"D","name":"Mannheim Hbf","stationCode":"MANNHE","uicCode":"8014008"},{"coordinate":{"lat":48.9936223,"lng":8.400743},"countryCode":"D","name":"Karlsruhe Hbf","stationCode":"KARLSR","uicCode":"8014228"},{"coordinate":{"lat":48.790082,"lng":8.190468},"countryCode":"D","name":"Baden-Baden","stationCode":"RBB","uicCode":"8014277"},{"coordinate":{"lat":48.476475,"lng":7.946723},"countryCode":"D","name":"Offenburg","stationCode":"RO","uicCode":"8014309"},{"coordinate":{"lat":47.99789,"lng":7.84134},"countryCode":"D","name":"Freiburg (Breisgau) Hbf","stationCode":"RF","uicCode":"8014350"},{"coordinate":{"lat":47.56815,"lng":7.6073},"countryCode":"D","name":"Basel Bad Bf","stationCode":"BASELB","uicCode":"8014431"},{"coordinate":{"lat":47.5474,"lng":7.58956},"countryCode":"CH","name":"Basel SBB","stationCode":"BASELS","uicCode":"8500010"},{"coordinate":{"lat":47.37819,"lng":8.5392},"countryCode":"CH","name":"Zürich HB","stationCode":"ZUE","uicCode":"8503000"}],"direction":"ONE_WAY","operators":["NS Int"]},"consequence":{"section":{"stations":[{"coordinate":{"lat":51.9230537414551,"lng":6.07194423675537},"countryCode":"NL","name":"Zevenaar","stationCode":"ZV","uicCode":"8400735"},{"coordinate":{"lat":51.8743,"lng":6.15417},"countryCode":"D","name":"Emmerich-Elten","stationCode":"EL","uicCode":"8033415"}],"direction":"ONE_WAY","operators":["NS Int"]},"description":"aangepaste internationale dienstregeling","level":"LESS_TRAINS"},"sectionType":"NEIGHBORING_COUNTRY"}],"summaryAdditionalTravelTime":{"label":"U heeft geen langere reistijd.","shortLabel":"Geen extra reistijd."},"timespans":[{"start":"2025-09-11T20:15:05+0200","end":"2025-09-19T23:55:00+0200","period":"Donderdag 11 september 20:15 uur t/m vrijdag 19 september 23:55 uur.","situation":{"label":"Door werkzaamheden: van Zevenaar naar Emmerich-Elten is de internationale dienstregeling aangepast."},"cause":{"label":"werkzaamheden","type":"OTHER"},"additionalTravelTime":{"label":"U heeft geen langere reistijd.","shortLabel":"Geen extra reistijd."},"advices":["Nightjet 421 stopt niet in München Hbf, maar in München Ost."]}],"alternativeTransportTimespans":[]},{"type":"MAINTENANCE","id":"7006745","title":"Amsterdam - Köln - Zürich HB.","isActive":false,"local":false,"titleSections":[[{"type":"STATION","value":"Amsterdam C."},{"type":"STATION","value":"Zevenaar"},{"type":"ICON","value":"MAINTENANCE"},{"type":"STATION","value":"Emmerich"},{"type":"STATION","value":"Zürich HB"}]],"registrationTime":"2025-08-25T11:22:37+0200","start":"2025-09-12T20:15:11+0200","releaseTime":"2025-08-25T11:22:37+0200","end":"2025-09-14T23:55:35+0200","period":"Vrijdag 12 september 20:15 uur t/m zondag 14 september 23:55 uur.","impact":{"value":2},"publicationSections":[{"section":{"stations":[{"coordinate":{"lat":52.3788871765137,"lng":4.90027761459351},"countryCode":"NL","name":"Amsterdam Centraal","stationCode":"ASD","uicCode":"8400058"},{"coordinate":{"lat":52.3605537414551,"lng":4.93111133575439},"countryCode":"NL","name":"Amsterdam Muiderpoort","stationCode":"ASDM","uicCode":"8400060"},{"coordinate":{"lat":52.3466682434082,"lng":4.91777801513672},"countryCode":"NL","name":"Amsterdam Amstel","stationCode":"ASA","uicCode":"8400057"},{"coordinate":{"lat":52.3233337402344,"lng":4.93638896942139},"countryCode":"NL","name":"Duivendrecht","stationCode":"DVD","uicCode":"8400194"},{"coordinate":{"lat":52.3122215270996,"lng":4.94694423675537},"countryCode":"NL","name":"Amsterdam Bijlmer ArenA","stationCode":"ASB","uicCode":"8400074"},{"coordinate":{"lat":52.29844,"lng":4.95972},"countryCode":"NL","name":"Amsterdam Holendrecht","stationCode":"ASHD","uicCode":"8400231"},{"coordinate":{"lat":52.2785,"lng":4.977},"countryCode":"NL","name":"Abcoude","stationCode":"AC","uicCode":"8400047"},{"coordinate":{"lat":52.17149,"lng":4.9906},"countryCode":"NL","name":"Breukelen","stationCode":"BKL","uicCode":"8400133"},{"coordinate":{"lat":52.1352767944336,"lng":5.03361129760742},"countryCode":"NL","name":"Maarssen","stationCode":"MAS","uicCode":"8400419"},{"coordinate":{"lat":52.103055,"lng":5.09},"countryCode":"NL","name":"Utrecht Zuilen","stationCode":"UTZL","uicCode":"8400613"},{"coordinate":{"lat":52.0888900756836,"lng":5.11027765274048},"countryCode":"NL","name":"Utrecht Centraal","stationCode":"UT","uicCode":"8400621"},{"coordinate":{"lat":52.078889,"lng":5.121667},"countryCode":"NL","name":"Utrecht Vaartsche Rijn","stationCode":"UTVR","uicCode":"8400606"},{"coordinate":{"lat":52.0630569458008,"lng":5.19444465637207},"countryCode":"NL","name":"Bunnik","stationCode":"BNK","uicCode":"8400141"},{"coordinate":{"lat":52.0652770996094,"lng":5.25861120223999},"countryCode":"NL","name":"Driebergen-Zeist","stationCode":"DB","uicCode":"8400182"},{"coordinate":{"lat":52.0641670227051,"lng":5.36999988555908},"countryCode":"NL","name":"Maarn","stationCode":"MRN","uicCode":"8400417"},{"coordinate":{"lat":52.0458335876465,"lng":5.57388877868652},"countryCode":"NL","name":"Veenendaal-De Klomp","stationCode":"KLP","uicCode":"8400637"},{"coordinate":{"lat":52.0277786254883,"lng":5.67305564880371},"countryCode":"NL","name":"Ede-Wageningen","stationCode":"ED","uicCode":"8400200"},{"coordinate":{"lat":52.0055541992188,"lng":5.7936110496521},"countryCode":"NL","name":"Wolfheze","stationCode":"WF","uicCode":"8400704"},{"coordinate":{"lat":51.9949989318848,"lng":5.84000015258789},"countryCode":"NL","name":"Oosterbeek","stationCode":"OTB","uicCode":"8400489"},{"coordinate":{"lat":51.9850006103516,"lng":5.89916658401489},"countryCode":"NL","name":"Arnhem Centraal","stationCode":"AH","uicCode":"8400071"},{"coordinate":{"lat":51.985279083252,"lng":5.91944456100464},"countryCode":"NL","name":"Arnhem Velperpoort","stationCode":"AHP","uicCode":"8400072"},{"coordinate":{"lat":51.96286,"lng":5.9695},"countryCode":"NL","name":"Westervoort","stationCode":"WTV","uicCode":"8400688"},{"coordinate":{"lat":51.9433326721191,"lng":6.01472234725952},"countryCode":"NL","name":"Duiven","stationCode":"DVN","uicCode":"8400193"},{"coordinate":{"lat":51.9230537414551,"lng":6.07194423675537},"countryCode":"NL","name":"Zevenaar","stationCode":"ZV","uicCode":"8400735"},{"coordinate":{"lat":51.8743,"lng":6.15417},"countryCode":"D","name":"Emmerich-Elten","stationCode":"EL","uicCode":"8033415"},{"coordinate":{"lat":51.834283,"lng":6.255718},"countryCode":"D","name":"Emmerich","stationCode":"EM","uicCode":"8010288"},{"coordinate":{"lat":51.47512,"lng":6.852038},"countryCode":"D","name":"Oberhausen Hbf","stationCode":"OBERH","uicCode":"8010263"},{"coordinate":{"lat":51.4297785713316,"lng":6.77590370178222},"countryCode":"D","name":"Duisburg Hbf","stationCode":"DUISB","uicCode":"8010316"},{"coordinate":{"lat":51.220146,"lng":6.793137},"countryCode":"D","name":"Düsseldorf Hbf","stationCode":"DUSSEL","uicCode":"8008094"},{"coordinate":{"lat":50.9432158,"lng":6.9589214},"countryCode":"D","name":"Köln Hbf","stationCode":"KOLN","uicCode":"8015458"},{"coordinate":{"lat":50.7320141646745,"lng":7.09712505340576},"countryCode":"D","name":"Bonn Hbf","stationCode":"BONN","uicCode":"8015485"},{"coordinate":{"lat":50.351085,"lng":7.588649},"countryCode":"D","name":"Koblenz Hbf","stationCode":"KKO","uicCode":"8019023"},{"coordinate":{"lat":50.001117,"lng":8.25872},"countryCode":"D","name":"Mainz Hbf","stationCode":"FMZ","uicCode":"8019051"},{"coordinate":{"lat":50.0531710299286,"lng":8.570237159729},"countryCode":"D","name":"Frankfurt Flughafen Fernb","stationCode":"FNAF","uicCode":"8061676"},{"coordinate":{"lat":50.1071222,"lng":8.6638338},"countryCode":"D","name":"Frankfurt (M) Hbf","stationCode":"FFFM","uicCode":"8011068"},{"coordinate":{"lat":49.479354,"lng":8.468921},"countryCode":"D","name":"Mannheim Hbf","stationCode":"MANNHE","uicCode":"8014008"},{"coordinate":{"lat":48.9936223,"lng":8.400743},"countryCode":"D","name":"Karlsruhe Hbf","stationCode":"KARLSR","uicCode":"8014228"},{"coordinate":{"lat":48.790082,"lng":8.190468},"countryCode":"D","name":"Baden-Baden","stationCode":"RBB","uicCode":"8014277"},{"coordinate":{"lat":48.476475,"lng":7.946723},"countryCode":"D","name":"Offenburg","stationCode":"RO","uicCode":"8014309"},{"coordinate":{"lat":47.99789,"lng":7.84134},"countryCode":"D","name":"Freiburg (Breisgau) Hbf","stationCode":"RF","uicCode":"8014350"},{"coordinate":{"lat":47.56815,"lng":7.6073},"countryCode":"D","name":"Basel Bad Bf","stationCode":"BASELB","uicCode":"8014431"},{"coordinate":{"lat":47.5474,"lng":7.58956},"countryCode":"CH","name":"Basel SBB","stationCode":"BASELS","uicCode":"8500010"},{"coordinate":{"lat":47.37819,"lng":8.5392},"countryCode":"CH","name":"Zürich HB","stationCode":"ZUE","uicCode":"8503000"}],"direction":"ONE_WAY","operators":["NS Int"]},"consequence":{"section":{"stations":[{"coordinate":{"lat":51.9230537414551,"lng":6.07194423675537},"countryCode":"NL","name":"Zevenaar","stationCode":"ZV","uicCode":"8400735"},{"coordinate":{"lat":51.8743,"lng":6.15417},"countryCode":"D","name":"Emmerich-Elten","stationCode":"EL","uicCode":"8033415"},{"coordinate":{"lat":51.834283,"lng":6.255718},"countryCode":"D","name":"Emmerich","stationCode":"EM","uicCode":"8010288"}],"direction":"ONE_WAY","operators":["NS Int"]},"description":"aangepaste internationale dienstregeling","level":"LESS_TRAINS"},"sectionType":"NEIGHBORING_COUNTRY"}],"summaryAdditionalTravelTime":{"label":"U heeft geen langere reistijd.","shortLabel":"Geen extra reistijd."},"timespans":[{"start":"2025-09-12T20:15:11+0200","end":"2025-09-14T23:55:35+0200","period":"Vrijdag 12 september 20:15 uur t/m zondag 14 september 23:55 uur.","situation":{"label":"Door werkzaamheden: van Zevenaar naar Emmerich is de internationale dienstregeling aangepast."},"cause":{"label":"werkzaamheden","type":"OTHER"},"additionalTravelTime":{"label":"U heeft geen langere reistijd.","shortLabel":"Geen extra reistijd."},"advices":["Nightjet 403 rijdt via een andere route en stopt niet in Köln Hbf en Bonn-Beuel maar stopt extra op Bonn Hbf."]}],"alternativeTransportTimespans":[]},{"type":"MAINTENANCE","id":"7006656","title":"Den Haag - Rotterdam; Rotterdam - Dordrecht; Dordrecht - Roosendaal.","isActive":false,"local":false,"titleSections":[[{"type":"STATION","value":"Den Haag C."},{"type":"ICON","value":"MAINTENANCE"},{"type":"STATION","value":"Rotterdam C."}],[{"type":"STATION","value":"Rotterdam C."},{"type":"STATION","value":"Lombardijen"},{"type":"ICON","value":"MAINTENANCE"},{"type":"STATION","value":"Dordrecht"}],[{"type":"STATION","value":"Dordrecht"},{"type":"ICON","value":"MAINTENANCE"},{"type":"STATION","value":"Roosendaal"}]],"registrationTime":"2025-08-20T09:16:29+0200","start":"2025-09-13T00:35:00+0200","releaseTime":"2025-08-20T09:16:29+0200","end":"2025-09-15T02:00:00+0200","period":"Zaterdag 13 september 0:35 uur t/m maandag 15 september 2:00 uur.","impact":{"value":4},"publicationSections":[{"section":{"stations":[{"coordinate":{"lat":52.0802764892578,"lng":4.32499980926514},"countryCode":"NL","name":"Den Haag Centraal","stationCode":"GVC","uicCode":"8400282"},{"coordinate":{"lat":52.0697212219238,"lng":4.32250022888184},"countryCode":"NL","name":"Den Haag HS","stationCode":"GV","uicCode":"8400280"},{"coordinate":{"lat":52.0538902282715,"lng":4.3086109161377},"countryCode":"NL","name":"Den Haag Moerwijk","stationCode":"GVMW","uicCode":"8400279"},{"coordinate":{"lat":52.039722442627,"lng":4.31916666030884},"countryCode":"NL","name":"Rijswijk","stationCode":"RSW","uicCode":"8400505"},{"coordinate":{"lat":52.0066680908203,"lng":4.35638904571533},"countryCode":"NL","name":"Delft","stationCode":"DT","uicCode":"8400170"},{"coordinate":{"lat":51.9908332824707,"lng":4.36472225189209},"countryCode":"NL","name":"Delft Campus","stationCode":"DTCP","uicCode":"8400166"},{"coordinate":{"lat":51.9212438128032,"lng":4.4089937210083},"countryCode":"NL","name":"Schiedam Centrum","stationCode":"SDM","uicCode":"8400553"},{"coordinate":{"lat":51.9249992370605,"lng":4.46888875961304},"countryCode":"NL","name":"Rotterdam Centraal","stationCode":"RTD","uicCode":"8400530"}],"direction":"BOTH","operators":["NS"]},"consequence":{"section":{"stations":[{"coordinate":{"lat":52.0802764892578,"lng":4.32499980926514},"countryCode":"NL","name":"Den Haag Centraal","stationCode":"GVC","uicCode":"8400282"},{"coordinate":{"lat":52.0697212219238,"lng":4.32250022888184},"countryCode":"NL","name":"Den Haag HS","stationCode":"GV","uicCode":"8400280"},{"coordinate":{"lat":52.0538902282715,"lng":4.3086109161377},"countryCode":"NL","name":"Den Haag Moerwijk","stationCode":"GVMW","uicCode":"8400279"},{"coordinate":{"lat":52.039722442627,"lng":4.31916666030884},"countryCode":"NL","name":"Rijswijk","stationCode":"RSW","uicCode":"8400505"},{"coordinate":{"lat":52.0066680908203,"lng":4.35638904571533},"countryCode":"NL","name":"Delft","stationCode":"DT","uicCode":"8400170"},{"coordinate":{"lat":51.9908332824707,"lng":4.36472225189209},"countryCode":"NL","name":"Delft Campus","stationCode":"DTCP","uicCode":"8400166"},{"coordinate":{"lat":51.9212438128032,"lng":4.4089937210083},"countryCode":"NL","name":"Schiedam Centrum","stationCode":"SDM","uicCode":"8400553"},{"coordinate":{"lat":51.9249992370605,"lng":4.46888875961304},"countryCode":"NL","name":"Rotterdam Centraal","stationCode":"RTD","uicCode":"8400530"}],"direction":"BOTH","operators":["NS"]},"description":"minder Sprinters","level":"LESS_TRAINS"},"sectionType":"NL"},{"section":{"stations":[{"coordinate":{"lat":51.9249992370605,"lng":4.46888875961304},"countryCode":"NL","name":"Rotterdam Centraal","stationCode":"RTD","uicCode":"8400530"},{"coordinate":{"lat":51.9202766418457,"lng":4.48888874053955},"countryCode":"NL","name":"Rotterdam Blaak","stationCode":"RTB","uicCode":"8400529"},{"coordinate":{"lat":51.9044456481934,"lng":4.51027774810791},"countryCode":"NL","name":"Rotterdam Zuid","stationCode":"RTZ","uicCode":"8400533"},{"coordinate":{"lat":51.8800010681152,"lng":4.53138875961304},"countryCode":"NL","name":"Rotterdam Lombardijen","stationCode":"RLB","uicCode":"8400542"},{"coordinate":{"lat":51.8547210693359,"lng":4.5533332824707},"countryCode":"NL","name":"Barendrecht","stationCode":"BRD","uicCode":"8400090"},{"coordinate":{"lat":51.814998626709,"lng":4.64166688919067},"countryCode":"NL","name":"Zwijndrecht","stationCode":"ZWD","uicCode":"8400752"},{"coordinate":{"lat":51.8072204589844,"lng":4.66833353042603},"countryCode":"NL","name":"Dordrecht","stationCode":"DDR","uicCode":"8400180"}],"direction":"BOTH","operators":["NS"]},"consequence":{"section":{"stations":[{"coordinate":{"lat":51.8800010681152,"lng":4.53138875961304},"countryCode":"NL","name":"Rotterdam Lombardijen","stationCode":"RLB","uicCode":"8400542"},{"coordinate":{"lat":51.8547210693359,"lng":4.5533332824707},"countryCode":"NL","name":"Barendrecht","stationCode":"BRD","uicCode":"8400090"},{"coordinate":{"lat":51.814998626709,"lng":4.64166688919067},"countryCode":"NL","name":"Zwijndrecht","stationCode":"ZWD","uicCode":"8400752"},{"coordinate":{"lat":51.8072204589844,"lng":4.66833353042603},"countryCode":"NL","name":"Dordrecht","stationCode":"DDR","uicCode":"8400180"}],"direction":"BOTH","operators":["NS"]},"description":"er rijden bussen","level":"LESS_TRAINS"},"sectionType":"NL"},{"section":{"stations":[{"coordinate":{"lat":51.8072204589844,"lng":4.66833353042603},"countryCode":"NL","name":"Dordrecht","stationCode":"DDR","uicCode":"8400180"},{"coordinate":{"lat":51.7900009155273,"lng":4.67138910293579},"countryCode":"NL","name":"Dordrecht Zuid","stationCode":"DDZD","uicCode":"8400181"},{"coordinate":{"lat":51.6911125183105,"lng":4.66305541992188},"countryCode":"NL","name":"Lage Zwaluwe","stationCode":"ZLW","uicCode":"8400382"},{"coordinate":{"lat":51.64042,"lng":4.60904},"countryCode":"NL","name":"Zevenbergen","stationCode":"ZVB","uicCode":"8400737"},{"coordinate":{"lat":51.587776184082,"lng":4.53333330154419},"countryCode":"NL","name":"Oudenbosch","stationCode":"ODB","uicCode":"8400498"},{"coordinate":{"lat":51.5402793884277,"lng":4.45833349227905},"countryCode":"NL","name":"Roosendaal","stationCode":"RSD","uicCode":"8400526"}],"direction":"BOTH","operators":["NS"]},"consequence":{"section":{"stations":[{"coordinate":{"lat":51.8072204589844,"lng":4.66833353042603},"countryCode":"NL","name":"Dordrecht","stationCode":"DDR","uicCode":"8400180"},{"coordinate":{"lat":51.7900009155273,"lng":4.67138910293579},"countryCode":"NL","name":"Dordrecht Zuid","stationCode":"DDZD","uicCode":"8400181"},{"coordinate":{"lat":51.6911125183105,"lng":4.66305541992188},"countryCode":"NL","name":"Lage Zwaluwe","stationCode":"ZLW","uicCode":"8400382"},{"coordinate":{"lat":51.64042,"lng":4.60904},"countryCode":"NL","name":"Zevenbergen","stationCode":"ZVB","uicCode":"8400737"},{"coordinate":{"lat":51.587776184082,"lng":4.53333330154419},"countryCode":"NL","name":"Oudenbosch","stationCode":"ODB","uicCode":"8400498"},{"coordinate":{"lat":51.5402793884277,"lng":4.45833349227905},"countryCode":"NL","name":"Roosendaal","stationCode":"RSD","uicCode":"8400526"}],"direction":"BOTH","operators":["NS"]},"description":"geen Intercity's","level":"LESS_TRAINS"},"sectionType":"NL"}],"summaryAdditionalTravelTime":{"label":"De extra reistijd is ongeveer 15 minuten.","shortLabel":"Extra reistijd 15 min.","minimumDurationInMinutes":15,"maximumDurationInMinutes":15},"timespans":[{"start":"2025-09-13T00:35:00+0200","end":"2025-09-15T02:00:00+0200","period":"Zaterdag 13 september 0:35 uur t/m maandag 15 september 2:00 uur.","situation":{"label":"Door werkzaamheden: tussen Den Haag Centraal en Rotterdam Centraal rijden er minder Sprinters en tussen Rotterdam Lombardijen en Dordrecht rijden er bussen en tussen Dordrecht en Roosendaal rijden er geen Intercity's."},"cause":{"label":"werkzaamheden","type":"OTHER"},"additionalTravelTime":{"label":"De extra reistijd is ongeveer 15 minuten.","shortLabel":"Extra reistijd 15 min.","minimumDurationInMinutes":15,"maximumDurationInMinutes":15},"advices":[]}],"alternativeTransportTimespans":[]},{"type":"MAINTENANCE","id":"7006770","title":"Dordrecht - Breda; Breda - Tilburg.","isActive":false,"local":false,"titleSections":[[{"type":"STATION","value":"Breda"},{"type":"ICON","value":"MAINTENANCE"},{"type":"STATION","value":"Tilburg"}],[{"type":"STATION","value":"Dordrecht"},{"type":"ICON","value":"MAINTENANCE"},{"type":"STATION","value":"Breda"}]],"registrationTime":"2025-08-28T09:43:51+0200","start":"2025-09-13T01:55:20+0200","releaseTime":"2025-08-28T09:44:40+0200","end":"2025-09-13T02:28:42+0200","period":"Zaterdag 13 september 1:55 uur t/m zaterdag 13 september 2:28 uur.","impact":{"value":3},"publicationSections":[{"section":{"stations":[{"coordinate":{"lat":51.5955543518066,"lng":4.78000020980835},"countryCode":"NL","name":"Breda","stationCode":"BD","uicCode":"8400131"},{"coordinate":{"lat":51.583610534668,"lng":4.92611122131348},"countryCode":"NL","name":"Gilze-Rijen","stationCode":"GZ","uicCode":"8400251"},{"coordinate":{"lat":51.5736122131348,"lng":4.99444437026978},"countryCode":"NL","name":"Tilburg Reeshof","stationCode":"TBR","uicCode":"8400598"},{"coordinate":{"lat":51.564985,"lng":5.051778},"countryCode":"NL","name":"Tilburg Universiteit","stationCode":"TBU","uicCode":"8400594"},{"coordinate":{"lat":51.5605545043945,"lng":5.08361101150513},"countryCode":"NL","name":"Tilburg","stationCode":"TB","uicCode":"8400597"}],"direction":"ONE_WAY","operators":["NS"]},"consequence":{"section":{"stations":[{"coordinate":{"lat":51.5955543518066,"lng":4.78000020980835},"countryCode":"NL","name":"Breda","stationCode":"BD","uicCode":"8400131"},{"coordinate":{"lat":51.583610534668,"lng":4.92611122131348},"countryCode":"NL","name":"Gilze-Rijen","stationCode":"GZ","uicCode":"8400251"},{"coordinate":{"lat":51.5736122131348,"lng":4.99444437026978},"countryCode":"NL","name":"Tilburg Reeshof","stationCode":"TBR","uicCode":"8400598"},{"coordinate":{"lat":51.564985,"lng":5.051778},"countryCode":"NL","name":"Tilburg Universiteit","stationCode":"TBU","uicCode":"8400594"},{"coordinate":{"lat":51.5605545043945,"lng":5.08361101150513},"countryCode":"NL","name":"Tilburg","stationCode":"TB","uicCode":"8400597"}],"direction":"ONE_WAY","operators":["NS"]},"description":"een bus","level":"LESS_TRAINS"},"sectionType":"NL"},{"section":{"stations":[{"coordinate":{"lat":51.8072204589844,"lng":4.66833353042603},"countryCode":"NL","name":"Dordrecht","stationCode":"DDR","uicCode":"8400180"},{"coordinate":{"lat":51.7900009155273,"lng":4.67138910293579},"countryCode":"NL","name":"Dordrecht Zuid","stationCode":"DDZD","uicCode":"8400181"},{"coordinate":{"lat":51.6911125183105,"lng":4.66305541992188},"countryCode":"NL","name":"Lage Zwaluwe","stationCode":"ZLW","uicCode":"8400382"},{"coordinate":{"lat":51.606388092041,"lng":4.72083330154419},"countryCode":"NL","name":"Breda-Prinsenbeek","stationCode":"BDPB","uicCode":"8400132"},{"coordinate":{"lat":51.5955543518066,"lng":4.78000020980835},"countryCode":"NL","name":"Breda","stationCode":"BD","uicCode":"8400131"}],"direction":"ONE_WAY","operators":["NS"]},"consequence":{"section":{"stations":[{"coordinate":{"lat":51.8072204589844,"lng":4.66833353042603},"countryCode":"NL","name":"Dordrecht","stationCode":"DDR","uicCode":"8400180"},{"coordinate":{"lat":51.7900009155273,"lng":4.67138910293579},"countryCode":"NL","name":"Dordrecht Zuid","stationCode":"DDZD","uicCode":"8400181"},{"coordinate":{"lat":51.6911125183105,"lng":4.66305541992188},"countryCode":"NL","name":"Lage Zwaluwe","stationCode":"ZLW","uicCode":"8400382"},{"coordinate":{"lat":51.606388092041,"lng":4.72083330154419},"countryCode":"NL","name":"Breda-Prinsenbeek","stationCode":"BDPB","uicCode":"8400132"},{"coordinate":{"lat":51.5955543518066,"lng":4.78000020980835},"countryCode":"NL","name":"Breda","stationCode":"BD","uicCode":"8400131"}],"direction":"ONE_WAY","operators":["NS"]},"description":"een bus","level":"LESS_TRAINS"},"sectionType":"NL"}],"summaryAdditionalTravelTime":{"label":"De extra reistijd kan oplopen tot 30 minuten.","shortLabel":"Extra reistijd tot 30 min.","maximumDurationInMinutes":30},"timespans":[{"start":"2025-09-13T01:55:20+0200","end":"2025-09-13T02:28:42+0200","period":"Zaterdag 13 september 1:55 uur t/m zaterdag 13 september 2:28 uur.","situation":{"label":"Door werkzaamheden: van Tilburg naar Breda rijdt een bus en van Breda naar Dordrecht rijdt een bus."},"cause":{"label":"werkzaamheden","type":"OTHER"},"additionalTravelTime":{"label":"De extra reistijd kan oplopen tot 30 minuten.","shortLabel":"Extra reistijd tot 30 min.","maximumDurationInMinutes":30},"alternativeTransport":{"label":"er rijden snelbussen","shortLabel":"er rijden snelbussen"},"advices":["Deze bus rijdt na Dordrecht door tot Rotterdam Centraal."]}],"alternativeTransportTimespans":[{"start":"2025-09-13T01:55:20+0200","end":"2025-09-13T02:28:42+0200","alternativeTransport":{"location":[{"station":{"coordinate":{"lat":51.5605545043945,"lng":5.08361101150513},"countryCode":"NL","name":"Tilburg","stationCode":"TB","uicCode":"8400597"},"description":"vanaf de achterzijde van het station"},{"station":{"coordinate":{"lat":51.5955543518066,"lng":4.78000020980835},"countryCode":"NL","name":"Breda","stationCode":"BD","uicCode":"8400131"},"description":"vanaf de Belcrumzijde"},{"station":{"coordinate":{"lat":51.8072204589844,"lng":4.66833353042603},"countryCode":"NL","name":"Dordrecht","stationCode":"DDR","uicCode":"8400180"},"description":"vanaf het busstation"}],"label":"Er rijden snelbussen van Tilburg, Breda naar Dordrecht.","shortLabel":"Er rijden snelbussen Tilburg -> Breda -> Dordrecht."}}]},{"type":"MAINTENANCE","id":"7006697","title":"Amsterdam - Alkmaar.; Amsterdam - Alkmaar; Amsterdam - Enkhuizen.","isActive":false,"local":false,"titleSections":[[{"type":"STATION","value":"Amsterdam C."},{"type":"ICON","value":"MAINTENANCE"},{"type":"STATION","value":"Alkmaar"}],[{"type":"STATION","value":"Amsterdam C."},{"type":"STATION","value":"Sloterdijk"},{"type":"ICON","value":"MAINTENANCE"},{"type":"STATION","value":"Zaandam"},{"type":"STATION","value":"Alkmaar"}],[{"type":"STATION","value":"Amsterdam C."},{"type":"STATION","value":"Sloterdijk"},{"type":"ICON","value":"MAINTENANCE"},{"type":"STATION","value":"Zaandam"},{"type":"STATION","value":"Enkhuizen"}],[{"type":"STATION","value":"Amsterdam C."},{"type":"ICON","value":"MAINTENANCE"},{"type":"STATION","value":"Sloterdijk"},{"type":"STATION","value":"Alkmaar"}],[{"type":"STATION","value":"Amsterdam C."},{"type":"ICON","value":"MAINTENANCE"},{"type":"STATION","value":"Sloterdijk"},{"type":"STATION","value":"Enkhuizen"}],[{"type":"STATION","value":"Amsterdam C."},{"type":"STATION","value":"Zaandam"},{"type":"ICON","value":"MAINTENANCE"},{"type":"STATION","value":"Alkmaar"}]],"registrationTime":"2025-09-01T15:48:52+0200","start":"2025-09-13T04:00:00+0200","releaseTime":"2025-09-01T15:48:52+0200","end":"2025-09-15T02:00:00+0200","period":"Zaterdag 13 september 4:00 uur t/m maandag 15 september 2:00 uur.","impact":{"value":4},"publicationSections":[{"section":{"stations":[{"coordinate":{"lat":52.3788871765137,"lng":4.90027761459351},"countryCode":"NL","name":"Amsterdam Centraal","stationCode":"ASD","uicCode":"8400058"},{"coordinate":{"lat":52.3888893127441,"lng":4.83777761459351},"countryCode":"NL","name":"Amsterdam Sloterdijk","stationCode":"ASS","uicCode":"8400059"},{"coordinate":{"lat":52.4388885498047,"lng":4.81361103057861},"countryCode":"NL","name":"Zaandam","stationCode":"ZD","uicCode":"8400731"},{"coordinate":{"lat":52.458610534668,"lng":4.80555534362793},"countryCode":"NL","name":"Koog aan de Zaan","stationCode":"KZ","uicCode":"8400363"},{"coordinate":{"lat":52.469165802002,"lng":4.80499982833862},"countryCode":"NL","name":"Zaandijk Zaanse Schans","stationCode":"ZZS","uicCode":"8400364"},{"coordinate":{"lat":52.4891662597656,"lng":4.79222202301025},"countryCode":"NL","name":"Wormerveer","stationCode":"WM","uicCode":"8400707"},{"coordinate":{"lat":52.49511,"lng":4.75417},"countryCode":"NL","name":"Krommenie-Assendelft","stationCode":"KMA","uicCode":"8400368"},{"coordinate":{"lat":52.5216674804687,"lng":4.70166683197022},"countryCode":"NL","name":"Uitgeest","stationCode":"UTG","uicCode":"8400615"},{"coordinate":{"lat":52.5458335876465,"lng":4.65861129760742},"countryCode":"NL","name":"Castricum","stationCode":"CAS","uicCode":"8400151"},{"coordinate":{"lat":52.5994453430176,"lng":4.70055532455444},"countryCode":"NL","name":"Heiloo","stationCode":"HLO","uicCode":"8400309"},{"coordinate":{"lat":52.6377792358398,"lng":4.73972225189209},"countryCode":"NL","name":"Alkmaar","stationCode":"AMR","uicCode":"8400050"}],"direction":"BOTH","operators":["NS"]},"consequence":{"section":{"stations":[{"coordinate":{"lat":52.3788871765137,"lng":4.90027761459351},"countryCode":"NL","name":"Amsterdam Centraal","stationCode":"ASD","uicCode":"8400058"},{"coordinate":{"lat":52.3888893127441,"lng":4.83777761459351},"countryCode":"NL","name":"Amsterdam Sloterdijk","stationCode":"ASS","uicCode":"8400059"},{"coordinate":{"lat":52.4388885498047,"lng":4.81361103057861},"countryCode":"NL","name":"Zaandam","stationCode":"ZD","uicCode":"8400731"},{"coordinate":{"lat":52.458610534668,"lng":4.80555534362793},"countryCode":"NL","name":"Koog aan de Zaan","stationCode":"KZ","uicCode":"8400363"},{"coordinate":{"lat":52.469165802002,"lng":4.80499982833862},"countryCode":"NL","name":"Zaandijk Zaanse Schans","stationCode":"ZZS","uicCode":"8400364"},{"coordinate":{"lat":52.4891662597656,"lng":4.79222202301025},"countryCode":"NL","name":"Wormerveer","stationCode":"WM","uicCode":"8400707"},{"coordinate":{"lat":52.49511,"lng":4.75417},"countryCode":"NL","name":"Krommenie-Assendelft","stationCode":"KMA","uicCode":"8400368"},{"coordinate":{"lat":52.5216674804687,"lng":4.70166683197022},"countryCode":"NL","name":"Uitgeest","stationCode":"UTG","uicCode":"8400615"},{"coordinate":{"lat":52.5458335876465,"lng":4.65861129760742},"countryCode":"NL","name":"Castricum","stationCode":"CAS","uicCode":"8400151"},{"coordinate":{"lat":52.5994453430176,"lng":4.70055532455444},"countryCode":"NL","name":"Heiloo","stationCode":"HLO","uicCode":"8400309"},{"coordinate":{"lat":52.6377792358398,"lng":4.73972225189209},"countryCode":"NL","name":"Alkmaar","stationCode":"AMR","uicCode":"8400050"}],"direction":"BOTH","operators":["NS"]},"description":"minder treinen","level":"LESS_TRAINS"},"sectionType":"NL"},{"section":{"stations":[{"coordinate":{"lat":52.3788871765137,"lng":4.90027761459351},"countryCode":"NL","name":"Amsterdam Centraal","stationCode":"ASD","uicCode":"8400058"},{"coordinate":{"lat":52.3888893127441,"lng":4.83777761459351},"countryCode":"NL","name":"Amsterdam Sloterdijk","stationCode":"ASS","uicCode":"8400059"},{"coordinate":{"lat":52.4388885498047,"lng":4.81361103057861},"countryCode":"NL","name":"Zaandam","stationCode":"ZD","uicCode":"8400731"},{"coordinate":{"lat":52.458610534668,"lng":4.80555534362793},"countryCode":"NL","name":"Koog aan de Zaan","stationCode":"KZ","uicCode":"8400363"},{"coordinate":{"lat":52.469165802002,"lng":4.80499982833862},"countryCode":"NL","name":"Zaandijk Zaanse Schans","stationCode":"ZZS","uicCode":"8400364"},{"coordinate":{"lat":52.4891662597656,"lng":4.79222202301025},"countryCode":"NL","name":"Wormerveer","stationCode":"WM","uicCode":"8400707"},{"coordinate":{"lat":52.49511,"lng":4.75417},"countryCode":"NL","name":"Krommenie-Assendelft","stationCode":"KMA","uicCode":"8400368"},{"coordinate":{"lat":52.5216674804687,"lng":4.70166683197022},"countryCode":"NL","name":"Uitgeest","stationCode":"UTG","uicCode":"8400615"},{"coordinate":{"lat":52.5458335876465,"lng":4.65861129760742},"countryCode":"NL","name":"Castricum","stationCode":"CAS","uicCode":"8400151"},{"coordinate":{"lat":52.5994453430176,"lng":4.70055532455444},"countryCode":"NL","name":"Heiloo","stationCode":"HLO","uicCode":"8400309"},{"coordinate":{"lat":52.6377792358398,"lng":4.73972225189209},"countryCode":"NL","name":"Alkmaar","stationCode":"AMR","uicCode":"8400050"}],"direction":"BOTH","operators":["NS"]},"consequence":{"section":{"stations":[{"coordinate":{"lat":52.3888893127441,"lng":4.83777761459351},"countryCode":"NL","name":"Amsterdam Sloterdijk","stationCode":"ASS","uicCode":"8400059"},{"coordinate":{"lat":52.4388885498047,"lng":4.81361103057861},"countryCode":"NL","name":"Zaandam","stationCode":"ZD","uicCode":"8400731"}],"direction":"BOTH","operators":["NS"]},"description":"geen treinen","level":"LESS_TRAINS"},"sectionType":"NL"},{"section":{"stations":[{"coordinate":{"lat":52.3788871765137,"lng":4.90027761459351},"countryCode":"NL","name":"Amsterdam Centraal","stationCode":"ASD","uicCode":"8400058"},{"coordinate":{"lat":52.3888893127441,"lng":4.83777761459351},"countryCode":"NL","name":"Amsterdam Sloterdijk","stationCode":"ASS","uicCode":"8400059"},{"coordinate":{"lat":52.4388885498047,"lng":4.81361103057861},"countryCode":"NL","name":"Zaandam","stationCode":"ZD","uicCode":"8400731"},{"coordinate":{"lat":52.4566650390625,"lng":4.82027769088745},"countryCode":"NL","name":"Zaandam Kogerveld","stationCode":"ZDK","uicCode":"8400728"},{"coordinate":{"lat":52.4965906325416,"lng":4.93562936782836},"countryCode":"NL","name":"Purmerend Weidevenne","stationCode":"PMW","uicCode":"8400499"},{"coordinate":{"lat":52.5030555725098,"lng":4.95361089706421},"countryCode":"NL","name":"Purmerend","stationCode":"PMR","uicCode":"8400508"},{"coordinate":{"lat":52.5113906860352,"lng":4.96833324432373},"countryCode":"NL","name":"Purmerend Overwhere","stationCode":"PMO","uicCode":"8400506"},{"coordinate":{"lat":52.6447219848633,"lng":5.05555534362793},"countryCode":"NL","name":"Hoorn","stationCode":"HN","uicCode":"8400337"},{"coordinate":{"lat":52.6536102294922,"lng":5.08555555343628},"countryCode":"NL","name":"Hoorn Kersenboogerd","stationCode":"HNK","uicCode":"8400336"},{"coordinate":{"lat":52.6905555725098,"lng":5.18388891220093},"countryCode":"NL","name":"Hoogkarspel","stationCode":"HKS","uicCode":"8400334"},{"coordinate":{"lat":52.6949996948242,"lng":5.23777770996094},"countryCode":"NL","name":"Bovenkarspel-Grootebroek","stationCode":"BKG","uicCode":"8400127"},{"coordinate":{"lat":52.6961097717285,"lng":5.25277757644653},"countryCode":"NL","name":"Bovenkarspel Flora","stationCode":"BKF","uicCode":"8400230"},{"coordinate":{"lat":52.6991653442383,"lng":5.28638887405396},"countryCode":"NL","name":"Enkhuizen","stationCode":"EKZ","uicCode":"8400210"}],"direction":"BOTH","operators":["NS"]},"consequence":{"section":{"stations":[{"coordinate":{"lat":52.3888893127441,"lng":4.83777761459351},"countryCode":"NL","name":"Amsterdam Sloterdijk","stationCode":"ASS","uicCode":"8400059"},{"coordinate":{"lat":52.4388885498047,"lng":4.81361103057861},"countryCode":"NL","name":"Zaandam","stationCode":"ZD","uicCode":"8400731"}],"direction":"BOTH","operators":["NS"]},"description":"geen treinen","level":"LESS_TRAINS"},"sectionType":"NL"},{"section":{"stations":[{"coordinate":{"lat":52.3788871765137,"lng":4.90027761459351},"countryCode":"NL","name":"Amsterdam Centraal","stationCode":"ASD","uicCode":"8400058"},{"coordinate":{"lat":52.3888893127441,"lng":4.83777761459351},"countryCode":"NL","name":"Amsterdam Sloterdijk","stationCode":"ASS","uicCode":"8400059"},{"coordinate":{"lat":52.4388885498047,"lng":4.81361103057861},"countryCode":"NL","name":"Zaandam","stationCode":"ZD","uicCode":"8400731"},{"coordinate":{"lat":52.458610534668,"lng":4.80555534362793},"countryCode":"NL","name":"Koog aan de Zaan","stationCode":"KZ","uicCode":"8400363"},{"coordinate":{"lat":52.469165802002,"lng":4.80499982833862},"countryCode":"NL","name":"Zaandijk Zaanse Schans","stationCode":"ZZS","uicCode":"8400364"},{"coordinate":{"lat":52.4891662597656,"lng":4.79222202301025},"countryCode":"NL","name":"Wormerveer","stationCode":"WM","uicCode":"8400707"},{"coordinate":{"lat":52.49511,"lng":4.75417},"countryCode":"NL","name":"Krommenie-Assendelft","stationCode":"KMA","uicCode":"8400368"},{"coordinate":{"lat":52.5216674804687,"lng":4.70166683197022},"countryCode":"NL","name":"Uitgeest","stationCode":"UTG","uicCode":"8400615"},{"coordinate":{"lat":52.5458335876465,"lng":4.65861129760742},"countryCode":"NL","name":"Castricum","stationCode":"CAS","uicCode":"8400151"},{"coordinate":{"lat":52.5994453430176,"lng":4.70055532455444},"countryCode":"NL","name":"Heiloo","stationCode":"HLO","uicCode":"8400309"},{"coordinate":{"lat":52.6377792358398,"lng":4.73972225189209},"countryCode":"NL","name":"Alkmaar","stationCode":"AMR","uicCode":"8400050"}],"direction":"BOTH","operators":["NS"]},"consequence":{"section":{"stations":[{"coordinate":{"lat":52.3788871765137,"lng":4.90027761459351},"countryCode":"NL","name":"Amsterdam Centraal","stationCode":"ASD","uicCode":"8400058"},{"coordinate":{"lat":52.3888893127441,"lng":4.83777761459351},"countryCode":"NL","name":"Amsterdam Sloterdijk","stationCode":"ASS","uicCode":"8400059"}],"direction":"BOTH","operators":["NS"]},"description":"minder treinen","level":"LESS_TRAINS"},"sectionType":"NL"},{"section":{"stations":[{"coordinate":{"lat":52.3788871765137,"lng":4.90027761459351},"countryCode":"NL","name":"Amsterdam Centraal","stationCode":"ASD","uicCode":"8400058"},{"coordinate":{"lat":52.3888893127441,"lng":4.83777761459351},"countryCode":"NL","name":"Amsterdam Sloterdijk","stationCode":"ASS","uicCode":"8400059"},{"coordinate":{"lat":52.4388885498047,"lng":4.81361103057861},"countryCode":"NL","name":"Zaandam","stationCode":"ZD","uicCode":"8400731"},{"coordinate":{"lat":52.4566650390625,"lng":4.82027769088745},"countryCode":"NL","name":"Zaandam Kogerveld","stationCode":"ZDK","uicCode":"8400728"},{"coordinate":{"lat":52.4965906325416,"lng":4.93562936782836},"countryCode":"NL","name":"Purmerend Weidevenne","stationCode":"PMW","uicCode":"8400499"},{"coordinate":{"lat":52.5030555725098,"lng":4.95361089706421},"countryCode":"NL","name":"Purmerend","stationCode":"PMR","uicCode":"8400508"},{"coordinate":{"lat":52.5113906860352,"lng":4.96833324432373},"countryCode":"NL","name":"Purmerend Overwhere","stationCode":"PMO","uicCode":"8400506"},{"coordinate":{"lat":52.6447219848633,"lng":5.05555534362793},"countryCode":"NL","name":"Hoorn","stationCode":"HN","uicCode":"8400337"},{"coordinate":{"lat":52.6536102294922,"lng":5.08555555343628},"countryCode":"NL","name":"Hoorn Kersenboogerd","stationCode":"HNK","uicCode":"8400336"},{"coordinate":{"lat":52.6905555725098,"lng":5.18388891220093},"countryCode":"NL","name":"Hoogkarspel","stationCode":"HKS","uicCode":"8400334"},{"coordinate":{"lat":52.6949996948242,"lng":5.23777770996094},"countryCode":"NL","name":"Bovenkarspel-Grootebroek","stationCode":"BKG","uicCode":"8400127"},{"coordinate":{"lat":52.6961097717285,"lng":5.25277757644653},"countryCode":"NL","name":"Bovenkarspel Flora","stationCode":"BKF","uicCode":"8400230"},{"coordinate":{"lat":52.6991653442383,"lng":5.28638887405396},"countryCode":"NL","name":"Enkhuizen","stationCode":"EKZ","uicCode":"8400210"}],"direction":"BOTH","operators":["NS"]},"consequence":{"section":{"stations":[{"coordinate":{"lat":52.3788871765137,"lng":4.90027761459351},"countryCode":"NL","name":"Amsterdam Centraal","stationCode":"ASD","uicCode":"8400058"},{"coordinate":{"lat":52.3888893127441,"lng":4.83777761459351},"countryCode":"NL","name":"Amsterdam Sloterdijk","stationCode":"ASS","uicCode":"8400059"}],"direction":"BOTH","operators":["NS"]},"description":"minder treinen","level":"LESS_TRAINS"},"sectionType":"NL"},{"section":{"stations":[{"coordinate":{"lat":52.3788871765137,"lng":4.90027761459351},"countryCode":"NL","name":"Amsterdam Centraal","stationCode":"ASD","uicCode":"8400058"},{"coordinate":{"lat":52.3888893127441,"lng":4.83777761459351},"countryCode":"NL","name":"Amsterdam Sloterdijk","stationCode":"ASS","uicCode":"8400059"},{"coordinate":{"lat":52.4388885498047,"lng":4.81361103057861},"countryCode":"NL","name":"Zaandam","stationCode":"ZD","uicCode":"8400731"},{"coordinate":{"lat":52.458610534668,"lng":4.80555534362793},"countryCode":"NL","name":"Koog aan de Zaan","stationCode":"KZ","uicCode":"8400363"},{"coordinate":{"lat":52.469165802002,"lng":4.80499982833862},"countryCode":"NL","name":"Zaandijk Zaanse Schans","stationCode":"ZZS","uicCode":"8400364"},{"coordinate":{"lat":52.4891662597656,"lng":4.79222202301025},"countryCode":"NL","name":"Wormerveer","stationCode":"WM","uicCode":"8400707"},{"coordinate":{"lat":52.49511,"lng":4.75417},"countryCode":"NL","name":"Krommenie-Assendelft","stationCode":"KMA","uicCode":"8400368"},{"coordinate":{"lat":52.5216674804687,"lng":4.70166683197022},"countryCode":"NL","name":"Uitgeest","stationCode":"UTG","uicCode":"8400615"},{"coordinate":{"lat":52.5458335876465,"lng":4.65861129760742},"countryCode":"NL","name":"Castricum","stationCode":"CAS","uicCode":"8400151"},{"coordinate":{"lat":52.5994453430176,"lng":4.70055532455444},"countryCode":"NL","name":"Heiloo","stationCode":"HLO","uicCode":"8400309"},{"coordinate":{"lat":52.6377792358398,"lng":4.73972225189209},"countryCode":"NL","name":"Alkmaar","stationCode":"AMR","uicCode":"8400050"}],"direction":"BOTH","operators":["NS"]},"consequence":{"section":{"stations":[{"coordinate":{"lat":52.4388885498047,"lng":4.81361103057861},"countryCode":"NL","name":"Zaandam","stationCode":"ZD","uicCode":"8400731"},{"coordinate":{"lat":52.458610534668,"lng":4.80555534362793},"countryCode":"NL","name":"Koog aan de Zaan","stationCode":"KZ","uicCode":"8400363"},{"coordinate":{"lat":52.469165802002,"lng":4.80499982833862},"countryCode":"NL","name":"Zaandijk Zaanse Schans","stationCode":"ZZS","uicCode":"8400364"},{"coordinate":{"lat":52.4891662597656,"lng":4.79222202301025},"countryCode":"NL","name":"Wormerveer","stationCode":"WM","uicCode":"8400707"},{"coordinate":{"lat":52.49511,"lng":4.75417},"countryCode":"NL","name":"Krommenie-Assendelft","stationCode":"KMA","uicCode":"8400368"},{"coordinate":{"lat":52.5216674804687,"lng":4.70166683197022},"countryCode":"NL","name":"Uitgeest","stationCode":"UTG","uicCode":"8400615"},{"coordinate":{"lat":52.5458335876465,"lng":4.65861129760742},"countryCode":"NL","name":"Castricum","stationCode":"CAS","uicCode":"8400151"},{"coordinate":{"lat":52.5994453430176,"lng":4.70055532455444},"countryCode":"NL","name":"Heiloo","stationCode":"HLO","uicCode":"8400309"},{"coordinate":{"lat":52.6377792358398,"lng":4.73972225189209},"countryCode":"NL","name":"Alkmaar","stationCode":"AMR","uicCode":"8400050"}],"direction":"BOTH","operators":["NS"]},"description":"minder treinen","level":"LESS_TRAINS"},"sectionType":"NL"}],"summaryAdditionalTravelTime":{"label":"De extra reistijd is meer dan 30 minuten.","shortLabel":"Extra reistijd meer dan 30 min.","minimumDurationInMinutes":30},"timespans":[{"start":"2025-09-13T04:00:00+0200","end":"2025-09-14T01:25:00+0200","period":"Zaterdag 13 september 4:00 uur t/m zondag 14 september 1:25 uur.","situation":{"label":"Door werkzaamheden: tussen Amsterdam Centraal en Alkmaar rijden er minder treinen."},"cause":{"label":"werkzaamheden","type":"OTHER"},"additionalTravelTime":{"label":"De extra reistijd kan oplopen tot 30 minuten.","shortLabel":"Extra reistijd tot 30 min.","maximumDurationInMinutes":30},"advices":["Tussen Amsterdam C. en Alkmaar reis via Haarlem."]},{"start":"2025-09-14T01:26:00+0200","end":"2025-09-14T13:30:00+0200","period":"Zondag 14 september 1:26 uur t/m zondag 14 september 13:30 uur.","situation":{"label":"Door werkzaamheden: tussen Amsterdam Sloterdijk en Zaandam rijden er geen treinen en tussen Amsterdam Centraal en Amsterdam Sloterdijk rijden er minder treinen en tussen Zaandam en Alkmaar rijden er minder treinen."},"cause":{"label":"werkzaamheden","type":"OTHER"},"additionalTravelTime":{"label":"De extra reistijd is meer dan 30 minuten.","shortLabel":"Extra reistijd meer dan 30 min.","minimumDurationInMinutes":30},"alternativeTransport":{"label":"er rijden snelbussen","shortLabel":"er rijden snelbussen"},"advices":["Reis tussen Zaandam en Amsterdam via Diemen. Er rijden NS bussen tussen Zaandam en Diemen.","Tussen Amsterdam C. en Alkmaar reis via Haarlem.","Tussen Amsterdam C. en Zaandam reis via Diemen.","Tussen Zaandam en Schiphol Airport reis via Diemen en Amsterdam C."]},{"start":"2025-09-14T13:31:00+0200","end":"2025-09-15T02:00:00+0200","period":"Zondag 14 september 13:31 uur t/m maandag 15 september 2:00 uur.","situation":{"label":"Door werkzaamheden: tussen Amsterdam Centraal en Alkmaar rijden er minder treinen."},"cause":{"label":"werkzaamheden","type":"OTHER"},"additionalTravelTime":{"label":"De extra reistijd kan oplopen tot 30 minuten.","shortLabel":"Extra reistijd tot 30 min.","maximumDurationInMinutes":30},