[{"id":"6024023","type":"DISRUPTION","registrationTime":"2023-06-27T18:03:01+0200","releaseTime":"2023-06-27T18:03:01+0200","local":false,"title":"Nijmegen-Wijchen","titleSections":[[{"type":"STATION","value":"Nijmegen"},{"type":"ICON","value":"DISRUPTION"},{"type":"STATION","value":"Wijchen"}]],"topic":"disruption_6024023_nl","isActive":true,"start":"2023-06-27T13:09:29+0200","end":"2023-06-27T20:00:00+0200","phase":{"id":"2","label":"Impact bekend"},"impact":{"value":2},"expectedDuration":{"description":"Dit duurt ten minste tot 20:00 uur.","endTime":"2023-06-27T20:00:00+0200"},"summaryAdditionalTravelTime":{"label":"De extra reistijd kan oplopen tot 15 minuten.","shortLabel":"Extra reistijd tot 15 min.","maximumDurationInMinutes":15},"publicationSections":[{"section":{"stations":[{"uicCode":"8400470","stationCode":"NM","name":"Nijmegen","coordinate":{"lat":51.8436126708984,"lng":5.85222244262695},"countryCode":"NL"},{"uicCode":"8400477","stationCode":"NMGO","name":"Nijmegen Goffert","coordinate":{"lat":51.8273,"lng":5.822722},"countryCode":"NL"},{"uicCode":"8400475","stationCode":"NMD","name":"Nijmegen Dukenburg","coordinate":{"lat":51.8241653442383,"lng":5.79555559158325},"countryCode":"NL"},{"uicCode":"8400710","stationCode":"WC","name":"Wijchen","coordinate":{"lat":51.8116683959961,"lng":5.73083353042603},"countryCode":"NL"}],"direction":"BOTH"},"consequence":{"section":{"stations":[{"uicCode":"8400470","stationCode":"NM","name":"Nijmegen","coordinate":{"lat":51.8436126708984,"lng":5.85222244262695},"countryCode":"NL"},{"uicCode":"8400477","stationCode":"NMGO","name":"Nijmegen Goffert","coordinate":{"lat":51.8273,"lng":5.822722},"countryCode":"NL"},{"uicCode":"8400475","stationCode":"NMD","name":"Nijmegen Dukenburg","coordinate":{"lat":51.8241653442383,"lng":5.79555559158325},"countryCode":"NL"},{"uicCode":"8400710","stationCode":"WC","name":"Wijchen","coordinate":{"lat":51.8116683959961,"lng":5.73083353042603},"countryCode":"NL"}],"direction":"ONE_WAY"},"description":"minder Sprinters","level":"LESS_TRAINS"},"sectionType":"NL"}],"timespans":[{"start":"2023-06-27T13:09:29+0200","end":"2023-06-27T20:00:00+0200","situation":{"label":"Tussen Nijmegen en Wijchen rijden er minder Sprinters door een defect spoor."},"cause":{"label":"Defect spoor"},"additionalTravelTime":{"label":"De extra reistijd kan oplopen tot 15 minuten.","shortLabel":"Extra reistijd tot 15 min.","maximumDurationInMinutes":15},"advices":[]}],"alternativeTransportTimespans":[]},{"id":"6024032","type":"DISRUPTION","registrationTime":"2023-06-27T18:28:20+0200","releaseTime":"2023-06-27T18:28:20+0200","local":false,"title":"Arnhem-Nijmegen","titleSections":[[{"type":"STATION","value":"Arnhem C."},{"type":"ICON","value":"DISRUPTION"},{"type":"STATION","value":"Lent"},{"type":"STATION","value":"Nijmegen"}]],"topic":"disruption_6024032_nl","isActive":true,"start":"2023-06-27T16:12:16+0200","end":"2023-06-27T20:00:00+0200","phase":{"id":"3","label":"Vervangend vervoer"},"impact":{"value":3},"expectedDuration":{"description":"Dit duurt ten minste tot 20:00 uur.","endTime":"2023-06-27T20:00:00+0200"},"publicationSections":[{"section":{"stations":[{"uicCode":"8400071","stationCode":"AH","name":"Arnhem Centraal","coordinate":{"lat":51.9850006103516,"lng":5.89916658401489},"countryCode":"NL"},{"uicCode":"8400227","stationCode":"AHZ","name":"Arnhem Zuid","coordinate":{"lat":51.9550018310547,"lng":5.85194444656372},"countryCode":"NL"},{"uicCode":"8400207","stationCode":"EST","name":"Elst","coordinate":{"lat":51.9169425964355,"lng":5.85500001907349},"countryCode":"NL"},{"uicCode":"8400451","stationCode":"NML","name":"Nijmegen Lent","coordinate":{"lat":51.863154,"lng":5.859625},"countryCode":"NL"},{"uicCode":"8400470","stationCode":"NM","name":"Nijmegen","coordinate":{"lat":51.8436126708984,"lng":5.85222244262695},"countryCode":"NL"}],"direction":"BOTH"},"consequence":{"section":{"stations":[{"uicCode":"8400071","stationCode":"AH","name":"Arnhem Centraal","coordinate":{"lat":51.9850006103516,"lng":5.89916658401489},"countryCode":"NL"},{"uicCode":"8400227","stationCode":"AHZ","name":"Arnhem Zuid","coordinate":{"lat":51.9550018310547,"lng":5.85194444656372},"countryCode":"NL"},{"uicCode":"8400207","stationCode":"EST","name":"Elst","coordinate":{"lat":51.9169425964355,"lng":5.85500001907349},"countryCode":"NL"},{"uicCode":"8400451","stationCode":"NML","name":"Nijmegen Lent","coordinate":{"lat":51.863154,"lng":5.859625},"countryCode":"NL"}],"direction":"ONE_WAY"},"description":"veel minder treinen","level":"LESS_TRAINS"},"sectionType":"NL"}],"timespans":[{"start":"2023-06-27T16:12:16+0200","end":"2023-06-27T20:00:00+0200","situation":{"label":"Tussen Arnhem Centraal en Nijmegen Lent rijden er veel minder treinen door een defect spoor."},"cause":{"label":"Defect spoor"},"alternativeTransport":{"label":"Er rijden stopbussen.","shortLabel":"Er rijden stopbussen"},"advices":["Er zijn zeer moeilijk bussen beschikbaar.","Tussen Nijmegen en Utrecht C. reist u via 's-Hertogenbosch. Extra reistijd tot 15 min.","Tussen Arnhem C. en Nijmegen reist u via Utrecht C.. Extra reistijd meer dan 90 min."]}],"alternativeTransportTimespans":[{"start":"2023-06-27T16:12:16+0200","end":"2023-06-27T20:00:00+0200","alternativeTransport":{"location":[{"station":{"uicCode":"8400470","stationCode":"NM","name":"Nijmegen","coordinate":{"lat":51.8436126708984,"lng":5.85222244262695},"countryCode":"NL"},"description":"vanaf het busstation"},{"station":{"uicCode":"8400451","stationCode":"NML","name":"Nijmegen Lent","coordinate":{"lat":51.863154,"lng":5.859625},"countryCode":"NL"},"description":"vanaf het Hertog Eduardplein"}],"label":"Er rijden stopbussen tussen Nijmegen en Nijmegen Lent.","shortLabel":"Er rijden stopbussen: Nijmegen, Lent"}}]},{"id":"7003670","type":"MAINTENANCE","registrationTime":"2023-06-17T18:24:24+0200","releaseTime":"2023-06-17T18:24:24+0200","local":false,"title":"Amsterdam - Hannover - Berlin.","titleSections":[[{"type":"STATION","value":"Amsterdam C."},{"type":"STATION","value":"Bad Bentheim"},{"type":"ICON","value":"MAINTENANCE"},{"type":"STATION","value":"Berlin Hbf"}]],"isActive":true,"start":"2023-06-10T04:00:00+0200","end":"2023-07-02T02:00:00+0200","period":"Zaterdag 10-06-2023 04:00 uur t/m zondag 02-07-2023 02:00 uur.","impact":{"value":2},"summaryAdditionalTravelTime":{"label":"U heeft geen langere reistijd.","shortLabel":"Geen extra reistijd"},"publicationSections":[{"section":{"stations":[{"uicCode":"8400058","stationCode":"ASD","name":"Amsterdam Centraal","coordinate":{"lat":52.3788871765137,"lng":4.90027761459351},"countryCode":"NL"},{"uicCode":"8400060","stationCode":"ASDM","name":"Amsterdam Muiderpoort","coordinate":{"lat":52.3605537414551,"lng":4.93111133575439},"countryCode":"NL"},{"uicCode":"8400235","stationCode":"ASSP","name":"Amsterdam Science Park","coordinate":{"lat":52.35526,"lng":4.94651},"countryCode":"NL"},{"uicCode":"8400165","stationCode":"DMN","name":"Diemen","coordinate":{"lat":52.34515,"lng":4.967566},"countryCode":"NL"},{"uicCode":"8400685","stationCode":"WP","name":"Weesp","coordinate":{"lat":52.3127784729004,"lng":5.04305553436279},"countryCode":"NL"},{"uicCode":"8400452","stationCode":"NDB","name":"Naarden-Bussum","coordinate":{"lat":52.2802772521973,"lng":5.15694427490234},"countryCode":"NL"},{"uicCode":"8400145","stationCode":"BSMZ","name":"Bussum Zuid","coordinate":{"lat":52.2658348083496,"lng":5.16305541992188},"countryCode":"NL"},{"uicCode":"8400324","stationCode":"HVSM","name":"Hilversum Media Park","coordinate":{"lat":52.2380561828613,"lng":5.17388868331909},"countryCode":"NL"},{"uicCode":"8400322","stationCode":"HVS","name":"Hilversum","coordinate":{"lat":52.2258338928223,"lng":5.18194437026978},"countryCode":"NL"},{"uicCode":"8400086","stationCode":"BRN","name":"Baarn","coordinate":{"lat":52.2083320617676,"lng":5.28083324432373},"countryCode":"NL"},{"uicCode":"8400055","stationCode":"AMF","name":"Amersfoort Centraal","coordinate":{"lat":52.1538887023926,"lng":5.37055540084839},"countryCode":"NL"},{"uicCode":"8400490","stationCode":"HVL","name":"Hoevelaken","coordinate":{"lat":52.16652,"lng":5.45718},"countryCode":"NL"},{"uicCode":"8400066","stationCode":"APD","name":"Apeldoorn","coordinate":{"lat":52.2091674804687,"lng":5.97027778625488},"countryCode":"NL"},{"uicCode":"8400229","stationCode":"APDO","name":"Apeldoorn Osseveld","coordinate":{"lat":52.2152786254883,"lng":6.00444459915161},"countryCode":"NL"},{"uicCode":"8400599","stationCode":"TWL","name":"Twello","coordinate":{"lat":52.2377777099609,"lng":6.09861087799072},"countryCode":"NL"},{"uicCode":"8400173","stationCode":"DV","name":"Deventer","coordinate":{"lat":52.2574996948242,"lng":6.16055536270142},"countryCode":"NL"},{"uicCode":"8400185","stationCode":"DVC","name":"Deventer Colmschate","coordinate":{"lat":52.2502784729004,"lng":6.21444463729858},"countryCode":"NL"},{"uicCode":"8400328","stationCode":"HON","name":"Holten","coordinate":{"lat":52.2838897705078,"lng":6.42027759552002},"countryCode":"NL"},{"uicCode":"8400538","stationCode":"RSN","name":"Rijssen","coordinate":{"lat":52.3122215270996,"lng":6.52027797698975},"countryCode":"NL"},{"uicCode":"8400691","stationCode":"WDN","name":"Wierden","coordinate":{"lat":52.3613891601562,"lng":6.59166669845581},"countryCode":"NL"},{"uicCode":"8400051","stationCode":"AML","name":"Almelo","coordinate":{"lat":52.3580551147461,"lng":6.65388870239258},"countryCode":"NL"},{"uicCode":"8400520","stationCode":"AMRI","name":"Almelo de Riet","coordinate":{"lat":52.3419456481934,"lng":6.66666650772095},"countryCode":"NL"},{"uicCode":"8400124","stationCode":"BN","name":"Borne","coordinate":{"lat":52.2988891601562,"lng":6.74805545806885},"countryCode":"NL"},{"uicCode":"8400316","stationCode":"HGL","name":"Hengelo","coordinate":{"lat":52.2616653442383,"lng":6.79388904571533},"countryCode":"NL"},{"uicCode":"8400312","stationCode":"HGLO","name":"Hengelo Oost","coordinate":{"lat":52.2688903808594,"lng":6.81944465637207},"countryCode":"NL"},{"uicCode":"8400483","stationCode":"ODZ","name":"Oldenzaal","coordinate":{"lat":52.3063888549805,"lng":6.93472242355347},"countryCode":"NL"},{"uicCode":"8021156","stationCode":"BH","name":"Bad Bentheim","coordinate":{"lat":52.309685595156,"lng":7.15853691101074},"countryCode":"D"},{"uicCode":"8021067","stationCode":"RHEINE","name":"Rheine","coordinate":{"lat":52.276299,"lng":7.434255},"countryCode":"D"},{"uicCode":"8021025","stationCode":"OSNH","name":"Osnabrück Hbf","coordinate":{"lat":52.272851,"lng":8.061781},"countryCode":"D"},{"uicCode":"8013552","stationCode":"HANN","name":"Hannover Hbf","coordinate":{"lat":52.3770401,"lng":9.7416759},"countryCode":"D"},{"uicCode":"8065969","stationCode":"BERHBL","name":"Berlin Hbf","coordinate":{"lat":52.52503,"lng":13.36946},"countryCode":"D"}],"direction":"BOTH"},"consequence":{"section":{"stations":[{"uicCode":"8021156","stationCode":"BH","name":"Bad Bentheim","coordinate":{"lat":52.309685595156,"lng":7.15853691101074},"countryCode":"D"},{"uicCode":"8021067","stationCode":"RHEINE","name":"Rheine","coordinate":{"lat":52.276299,"lng":7.434255},"countryCode":"D"},{"uicCode":"8021025","stationCode":"OSNH","name":"Osnabrück Hbf","coordinate":{"lat":52.272851,"lng":8.061781},"countryCode":"D"},{"uicCode":"8013552","stationCode":"HANN","name":"Hannover Hbf","coordinate":{"lat":52.3770401,"lng":9.7416759},"countryCode":"D"},{"uicCode":"8065969","stationCode":"BERHBL","name":"Berlin Hbf","coordinate":{"lat":52.52503,"lng":13.36946},"countryCode":"D"}],"direction":"ONE_WAY"},"description":"aangepaste internationale dienstregeling","level":"LESS_TRAINS"},"sectionType":"NEIGHBORING_COUNTRY"}],"timespans":[{"start":"2023-06-10T04:00:00+0200","end":"2023-07-02T02:00:00+0200","period":"Zaterdag 10-06-2023 04:00 uur t/m zondag 02-07-2023 02:00 uur.","situation":{"label":"Door werkzaamheden: tussen Bad Bentheim en Berlin Hbf is de internationale dienstregeling aangepast."},"cause":{"label":"werkzaamheden"},"additionalTravelTime":{"label":"U heeft geen langere reistijd.","shortLabel":"Geen extra reistijd"},"advices":["Dit kan gevolgen hebben voor uw reis. Plan uw reis in de (Internationale) app."]}],"alternativeTransportTimespans":[]},{"id":"7003582","type":"MAINTENANCE","registrationTime":"2023-06-05T09:36:10+0200","releaseTime":"2023-06-05T09:36:10+0200","local":false,"title":"Schiphol - Leiden.","titleSections":[[{"type":"STATION","value":"Schiphol Airport"},{"type":"ICON","value":"MAINTENANCE"},{"type":"STATION","value":"Leiden C."}]],"isActive":false,"start":"2023-06-28T01:30:00+0200","end":"2023-06-28T05:00:00+0200","period":"Woensdag 28-06-2023 01:30 uur t/m woensdag 28-06-2023 05:00 uur.","impact":{"value":3},"summaryAdditionalTravelTime":{"label":"De extra reistijd is ongeveer 15 minuten.","shortLabel":"Extra reistijd 15 min.","minimumDurationInMinutes":15,"maximumDurationInMinutes":15},"publicationSections":[{"section":{"stations":[{"uicCode":"8400561","stationCode":"SHL","name":"Schiphol Airport","coordinate":{"lat":52.3094444274902,"lng":4.76194429397583},"countryCode":"NL"},{"uicCode":"8400332","stationCode":"HFD","name":"Hoofddorp","coordinate":{"lat":52.2933349609375,"lng":4.70055532455444},"countryCode":"NL"},{"uicCode":"8400460","stationCode":"NVP","name":"Nieuw Vennep","coordinate":{"lat":52.2588882446289,"lng":4.64555549621582},"countryCode":"NL"},{"uicCode":"8400603","stationCode":"SSH","name":"Sassenheim","coordinate":{"lat":52.215278,"lng":4.517222},"countryCode":"NL"},{"uicCode":"8400390","stationCode":"LEDN","name":"Leiden Centraal","coordinate":{"lat":52.1661109924316,"lng":4.48166656494141},"countryCode":"NL"}],"direction":"BOTH"},"consequence":{"section":{"stations":[{"uicCode":"8400561","stationCode":"SHL","name":"Schiphol Airport","coordinate":{"lat":52.3094444274902,"lng":4.76194429397583},"countryCode":"NL"},{"uicCode":"8400332","stationCode":"HFD","name":"Hoofddorp","coordinate":{"lat":52.2933349609375,"lng":4.70055532455444},"countryCode":"NL"},{"uicCode":"8400460","stationCode":"NVP","name":"Nieuw Vennep","coordinate":{"lat":52.2588882446289,"lng":4.64555549621582},"countryCode":"NL"},{"uicCode":"8400603","stationCode":"SSH","name":"Sassenheim","coordinate":{"lat":52.215278,"lng":4.517222},"countryCode":"NL"},{"uicCode":"8400390","stationCode":"LEDN","name":"Leiden Centraal","coordinate":{"lat":52.1661109924316,"lng":4.48166656494141},"countryCode":"NL"}],"direction":"ONE_WAY"},"description":"rijden bussen","level":"LESS_TRAINS"},"sectionType":"NL"}],"timespans":[{"start":"2023-06-28T01:30:00+0200","end":"2023-06-28T05:00:00+0200","period":"Woensdag 28-06-2023 01:30 uur t/m woensdag 28-06-2023 05:00 uur.","situation":{"label":"Door werkzaamheden: tussen Schiphol Airport en Leiden Centraal rijden er bussen."},"cause":{"label":"werkzaamheden"},"additionalTravelTime":{"label":"De extra reistijd is ongeveer 15 minuten.","shortLabel":"Extra reistijd 15 min.","minimumDurationInMinutes":15,"maximumDurationInMinutes":15},"alternativeTransport":{"label":"er rijden bussen","shortLabel":"er rijden bussen"},"advices":[]}],"alternativeTransportTimespans":[{"start":"2023-06-28T01:30:00+0200","end":"2023-06-28T05:00:00+0200","alternativeTransport":{"location":[{"station":{"uicCode":"8400561","stationCode":"SHL","name":"Schiphol Airport","coordinate":{"lat":52.3094444274902,"lng":4.76194429397583},"countryCode":"NL"},"description":"van het busstation halte C15 en C17"},{"station":{"uicCode":"8400390","stationCode":"LEDN","name":"Leiden Centraal","coordinate":{"lat":52.1661109924316,"lng":4.48166656494141},"countryCode":"NL"},"description":"vanaf het stadsbusstation"}],"label":"Er rijden bussen tussen Schiphol Airport en Leiden Centraal.","shortLabel":"Er rijden bussen Schiphol Airport - Leiden C."}}]},{"id":"7003711","type":"MAINTENANCE","registrationTime":"2023-06-27T07:49:33+0200","releaseTime":"2023-06-27T07:49:33+0200","local":false,"title":"Amsterdam - Haarlem.","titleSections":[[{"type":"STATION","value":"Amsterdam C."},{"type":"STATION","value":"Sloterdijk"},{"type":"ICON","value":"MAINTENANCE"},{"type":"STATION","value":"Haarlem"}]],"isActive":false,"start":"2023-06-28T21:21:00+0200","end":"2023-06-29T05:15:00+0200","period":"Woensdag 28-06-2023 21:21 uur t/m donderdag 29-06-2023 05:15 uur.","impact":{"value":3},"summaryAdditionalTravelTime":{"label":"De extra reistijd kan oplopen tot 30 minuten.","shortLabel":"Extra reistijd tot 30 min.","maximumDurationInMinutes":30},"publicationSections":[{"section":{"stations":[{"uicCode":"8400058","stationCode":"ASD","name":"Amsterdam Centraal","coordinate":{"lat":52.3788871765137,"lng":4.90027761459351},"countryCode":"NL"},{"uicCode":"8400059","stationCode":"ASS","name":"Amsterdam Sloterdijk","coordinate":{"lat":52.3888893127441,"lng":4.83777761459351},"countryCode":"NL"},{"uicCode":"8400400","stationCode":"HWZB","name":"Halfweg-Zwanenburg","coordinate":{"lat":52.385935,"lng":4.747165},"countryCode":"NL"},{"uicCode":"8400270","stationCode":"HLMS","name":"Haarlem Spaarnwoude","coordinate":{"lat":52.3827781677246,"lng":4.67305564880371},"countryCode":"NL"},{"uicCode":"8400285","stationCode":"HLM","name":"Haarlem","coordinate":{"lat":52.3877792358398,"lng":4.63833332061768},"countryCode":"NL"}],"direction":"BOTH"},"consequence":{"section":{"stations":[{"uicCode":"8400059","stationCode":"ASS","name":"Amsterdam Sloterdijk","coordinate":{"lat":52.3888893127441,"lng":4.83777761459351},"countryCode":"NL"},{"uicCode":"8400400","stationCode":"HWZB","name":"Halfweg-Zwanenburg","coordinate":{"lat":52.385935,"lng":4.747165},"countryCode":"NL"},{"uicCode":"8400270","stationCode":"HLMS","name":"Haarlem Spaarnwoude","coordinate":{"lat":52.3827781677246,"lng":4.67305564880371},"countryCode":"NL"},{"uicCode":"8400285","stationCode":"HLM","name":"Haarlem","coordinate":{"lat":52.3877792358398,"lng":4.63833332061768},"countryCode":"NL"}],"direction":"ONE_WAY"},"description":"rijden bussen","level":"LESS_TRAINS"},"sectionType":"NL"}],"timespans":[{"start":"2023-06-28T21:21:00+0200","end":"2023-06-29T05:15:00+0200","period":"Woensdag 28-06-2023 21:21 uur t/m donderdag 29-06-2023 05:15 uur.","situation":{"label":"Door herstelwerkzaamheden: tussen Amsterdam Sloterdijk en Haarlem rijden er bussen."},"cause":{"label":"herstelwerkzaamheden"},"additionalTravelTime":{"label":"De extra reistijd kan oplopen tot 30 minuten.","shortLabel":"Extra reistijd tot 30 min.","maximumDurationInMinutes":30},"advices":["Ook op donderdagavond vanaf 21.15 uur is er businzet op dit traject.","Tussen Sloterdijk en Leiden C. reist u via Schiphol Airport"]}],"alternativeTransportTimespans":[]},{"id":"7003712","type":"MAINTENANCE","registrationTime":"2023-06-27T07:43:46+0200","releaseTime":"2023-06-27T07:43:46+0200","local":false,"title":"Amsterdam - Haarlem.","titleSections":[[{"type":"STATION","value":"Amsterdam C."},{"type":"STATION","value":"Sloterdijk"},{"type":"ICON","value":"MAINTENANCE"},{"type":"STATION","value":"Haarlem"}]],"isActive":false,"start":"2023-06-29T21:15:00+0200","end":"2023-06-30T02:00:00+0200","period":"Donderdag 29-06-2023 21:15 uur t/m vrijdag 30-06-2023 02:00 uur.","impact":{"value":3},"summaryAdditionalTravelTime":{"label":"De extra reistijd kan oplopen tot 30 minuten.","shortLabel":"Extra reistijd tot 30 min.","maximumDurationInMinutes":30},"publicationSections":[{"section":{"stations":[{"uicCode":"8400058","stationCode":"ASD","name":"Amsterdam Centraal","coordinate":{"lat":52.3788871765137,"lng":4.90027761459351},"countryCode":"NL"},{"uicCode":"8400059","stationCode":"ASS","name":"Amsterdam Sloterdijk","coordinate":{"lat":52.3888893127441,"lng":4.83777761459351},"countryCode":"NL"},{"uicCode":"8400400","stationCode":"HWZB","name":"Halfweg-Zwanenburg","coordinate":{"lat":52.385935,"lng":4.747165},"countryCode":"NL"},{"uicCode":"8400270","stationCode":"HLMS","name":"Haarlem Spaarnwoude","coordinate":{"lat":52.3827781677246,"lng":4.67305564880371},"countryCode":"NL"},{"uicCode":"8400285","stationCode":"HLM","name":"Haarlem","coordinate":{"lat":52.3877792358398,"lng":4.63833332061768},"countryCode":"NL"}],"direction":"BOTH"},"consequence":{"section":{"stations":[{"uicCode":"8400059","stationCode":"ASS","name":"Amsterdam Sloterdijk","coordinate":{"lat":52.3888893127441,"lng":4.83777761459351},"countryCode":"NL"},{"uicCode":"8400400","stationCode":"HWZB","name":"Halfweg-Zwanenburg","coordinate":{"lat":52.385935,"lng":4.747165},"countryCode":"NL"},{"uicCode":"8400270","stationCode":"HLMS","name":"Haarlem Spaarnwoude","coordinate":{"lat":52.3827781677246,"lng":4.67305564880371},"countryCode":"NL"},{"uicCode":"8400285","stationCode":"HLM","name":"Haarlem","coordinate":{"lat":52.3877792358398,"lng":4.63833332061768},"countryCode":"NL"}],"direction":"ONE_WAY"},"description":"rijden bussen","level":"LESS_TRAINS"},"sectionType":"NL"}],"timespans":[{"start":"2023-06-29T21:15:00+0200","end":"2023-06-30T02:00:00+0200","period":"Donderdag 29-06-2023 21:15 uur t/m vrijdag 30-06-2023 02:00 uur.","situation":{"label":"Door herstelwerkzaamheden: tussen Amsterdam Sloterdijk en Haarlem rijden er bussen."},"cause":{"label":"herstelwerkzaamheden"},"additionalTravelTime":{"label":"De extra reistijd kan oplopen tot 30 minuten.","shortLabel":"Extra reistijd tot 30 min.","maximumDurationInMinutes":30},"advices":["Tussen Sloterdijk en Leiden C. reist u via Schiphol Airport"]}],"alternativeTransportTimespans":[]},{"id":"7003607","type":"MAINTENANCE","registrationTime":"2023-06-27T09:50:10+0200","releaseTime":"2023-06-27T09:50:10+0200","local":false,"title":"Heerlen - Aachen Hbf.","titleSections":[[{"type":"STATION","value":"Heerlen"},{"type":"ICON","value":"MAINTENANCE"},{"type":"STATION","value":"Aachen Hbf"}]],"isActive":false,"start":"2023-06-30T22:30:00+0200","end":"2023-07-07T06:30:00+0200","period":"Vrijdag 30-06-2023 22:30 uur t/m vrijdag 07-07-2023 06:30 uur.","impact":{"value":2},"summaryAdditionalTravelTime":{"label":"De extra reistijd kan oplopen tot 30 minuten.","shortLabel":"Extra reistijd tot 30 min.","minimumDurationInMinutes":30,"maximumDurationInMinutes":30},"publicationSections":[{"section":{"stations":[{"uicCode":"8400307","stationCode":"HRL","name":"Heerlen","coordinate":{"lat":50.8908348083496,"lng":5.97499990463257},"countryCode":"NL"},{"uicCode":"8400548","stationCode":"LG","name":"Landgraaf","coordinate":{"lat":50.8963890075684,"lng":6.01916646957398},"countryCode":"NL"},{"uicCode":"8400234","stationCode":"EGHM","name":"Eygelshoven Markt","coordinate":{"lat":50.8960498196442,"lng":6.0602474212646396},"countryCode":"NL"},{"uicCode":"8015190","stationCode":"HZ","name":"Herzogenrath","coordinate":{"lat":50.870916,"lng":6.094486},"countryCode":"D"},{"uicCode":"8015345","stationCode":"AHBF","name":"Aachen Hbf","coordinate":{"lat":50.7678,"lng":6.091499},"countryCode":"D"}],"direction":"BOTH"},"consequence":{"section":{"stations":[{"uicCode":"8400307","stationCode":"HRL","name":"Heerlen","coordinate":{"lat":50.8908348083496,"lng":5.97499990463257},"countryCode":"NL"},{"uicCode":"8400548","stationCode":"LG","name":"Landgraaf","coordinate":{"lat":50.8963890075684,"lng":6.01916646957398},"countryCode":"NL"},{"uicCode":"8400234","stationCode":"EGHM","name":"Eygelshoven Markt","coordinate":{"lat":50.8960498196442,"lng":6.0602474212646396},"countryCode":"NL"},{"uicCode":"8015190","stationCode":"HZ","name":"Herzogenrath","coordinate":{"lat":50.870916,"lng":6.094486},"countryCode":"D"},{"uicCode":"8015345","stationCode":"AHBF","name":"Aachen Hbf","coordinate":{"lat":50.7678,"lng":6.091499},"countryCode":"D"}],"direction":"ONE_WAY"},"description":"rijden bussen","level":"LESS_TRAINS"},"sectionType":"NEIGHBORING_COUNTRY"}],"timespans":[{"start":"2023-06-30T22:30:00+0200","end":"2023-07-01T07:30:00+0200","period":"Vrijdag 30-06-2023 22:30 uur t/m zaterdag 01-07-2023 07:30 uur.","situation":{"label":"Door werkzaamheden: tussen Heerlen en Aachen Hbf rijden er bussen."},"cause":{"label":"werkzaamheden"},"additionalTravelTime":{"label":"De extra reistijd is ongeveer 30 minuten.","shortLabel":"Extra reistijd 30 min.","minimumDurationInMinutes":30,"maximumDurationInMinutes":30},"alternativeTransport":{"label":"er rijden stopbussen","shortLabel":"er rijden stopbussen"},"advices":[]},{"start":"2023-07-01T23:30:00+0200","end":"2023-07-02T08:30:00+0200","period":"Zaterdag 01-07-2023 23:30 uur t/m zondag 02-07-2023 08:30 uur.","situation":{"label":"Door werkzaamheden: tussen Heerlen en Aachen Hbf rijden er bussen."},"cause":{"label":"werkzaamheden"},"additionalTravelTime":{"label":"De extra reistijd is ongeveer 30 minuten.","shortLabel":"Extra reistijd 30 min.","minimumDurationInMinutes":30,"maximumDurationInMinutes":30},"alternativeTransport":{"label":"er rijden stopbussen","shortLabel":"er rijden stopbussen"},"advices":[]},{"start":"2023-07-02T23:30:00+0200","end":"2023-07-03T06:30:00+0200","period":"Zondag 02-07-2023 23:30 uur t/m maandag 03-07-2023 06:30 uur.","situation":{"label":"Door werkzaamheden: tussen Heerlen en Aachen Hbf rijden er bussen."},"cause":{"label":"werkzaamheden"},"additionalTravelTime":{"label":"De extra reistijd is ongeveer 30 minuten.","shortLabel":"Extra reistijd 30 min.","minimumDurationInMinutes":30,"maximumDurationInMinutes":30},"alternativeTransport":{"label":"er rijden stopbussen","shortLabel":"er rijden stopbussen"},"advices":[]},{"start":"2023-07-03T23:30:00+0200","end":"2023-07-04T06:30:00+0200","period":"Maandag 03-07-2023 23:30 uur t/m dinsdag 04-07-2023 06:30 uur.","situation":{"label":"Door werkzaamheden: tussen Heerlen en Aachen Hbf rijden er bussen."},"cause":{"label":"werkzaamheden"},"additionalTravelTime":{"label":"De extra reistijd is ongeveer 30 minuten.","shortLabel":"Extra reistijd 30 min.","minimumDurationInMinutes":30,"maximumDurationInMinutes":30},"alternativeTransport":{"label":"er rijden stopbussen","shortLabel":"er rijden stopbussen"},"advices":[]},{"start":"2023-07-04T23:30:00+0200","end":"2023-07-05T06:30:00+0200","period":"Dinsdag 04-07-2023 23:30 uur t/m woensdag 05-07-2023 06:30 uur.","situation":{"label":"Door werkzaamheden: tussen Heerlen en Aachen Hbf rijden er bussen."},"cause":{"label":"werkzaamheden"},"additionalTravelTime":{"label":"De extra reistijd is ongeveer 30 minuten.","shortLabel":"Extra reistijd 30 min.","minimumDurationInMinutes":30,"maximumDurationInMinutes":30},"alternativeTransport":{"label":"er rijden stopbussen","shortLabel":"er rijden stopbussen"},"advices":[]},{"start":"2023-07-05T23:30:00+0200","end":"2023-07-06T06:30:00+0200","period":"Woensdag 05-07-2023 23:30 uur t/m donderdag 06-07-2023 06:30 uur.","situation":{"label":"Door werkzaamheden: tussen Heerlen en Aachen Hbf rijden er bussen."},"cause":{"label":"werkzaamheden"},"additionalTravelTime":{"label":"De extra reistijd is ongeveer 30 minuten.","shortLabel":"Extra reistijd 30 min.","minimumDurationInMinutes":30,"maximumDurationInMinutes":30},"alternativeTransport":{"label":"er rijden stopbussen","shortLabel":"er rijden stopbussen"},"advices":[]},{"start":"2023-07-06T23:30:00+0200","end":"2023-07-07T06:30:00+0200","period":"Donderdag 06-07-2023 23:30 uur t/m vrijdag 07-07-2023 06:30 uur.","situation":{"label":"Door werkzaamheden: tussen Heerlen en Aachen Hbf rijden er bussen."},"cause":{"label":"werkzaamheden"},"additionalTravelTime":{"label":"De extra reistijd is ongeveer 30 minuten.","shortLabel":"Extra reistijd 30 min.","minimumDurationInMinutes":30,"maximumDurationInMinutes":30},"alternativeTransport":{"label":"er rijden stopbussen","shortLabel":"er rijden stopbussen"},"advices":[]}],"alternativeTransportTimespans":[{"start":"2023-06-30T22:30:00+0200","end":"2023-07-01T07:30:00+0200","alternativeTransport":{"location":[{"station":{"uicCode":"8400307","stationCode":"HRL","name":"Heerlen","coordinate":{"lat":50.8908348083496,"lng":5.97499990463257},"countryCode":"NL"},"description":"vanaf de achterzijde van het station"},{"station":{"uicCode":"8400548","stationCode":"LG","name":"Landgraaf","coordinate":{"lat":50.8963890075684,"lng":6.01916646957398},"countryCode":"NL"},"description":"vanaf de voorzijde van het station"},{"station":{"uicCode":"8400234","stationCode":"EGHM","name":"Eygelshoven Markt","coordinate":{"lat":50.8960498196442,"lng":6.0602474212646396},"countryCode":"NL"},"description":"vanaf de voorzijde van het station"}],"label":"Er rijden stopbussen tussen Heerlen, Landgraaf, Eygelshoven Markt, Herzogenrath, Aachen West en Aachen Hbf.","shortLabel":"Er rijden stopbussen Heerlen - Landgraaf - Eygelshoven Mrkt - Herzogenrath - Aachen West - Aachen Hbf"}},{"start":"2023-07-01T23:30:00+0200","end":"2023-07-02T08:30:00+0200","alternativeTransport":{"location":[{"station":{"uicCode":"8400307","stationCode":"HRL","name":"Heerlen","coordinate":{"lat":50.8908348083496,"lng":5.97499990463257},"countryCode":"NL"},"description":"vanaf de achterzijde van het station"},{"station":{"uicCode":"8400548","stationCode":"LG","name":"Landgraaf","coordinate":{"lat":50.8963890075684,"lng":6.01916646957398},"countryCode":"NL"},"description":"vanaf de voorzijde van het station"},{"station":{"uicCode":"8400234","stationCode":"EGHM","name":"Eygelshoven Markt","coordinate":{"lat":50.8960498196442,"lng":6.0602474212646396},"countryCode":"NL"},"description":"vanaf de voorzijde van het station"}],"label":"Er rijden stopbussen tussen Heerlen, Landgraaf, Eygelshoven Markt, Herzogenrath, Aachen West en Aachen Hbf.","shortLabel":"Er rijden stopbussen Heerlen - Landgraaf - Eygelshoven Mrkt - Herzogenrath - Aachen West - Aachen Hbf"}},{"start":"2023-07-02T23:30:00+0200","end":"2023-07-03T06:30:00+0200","alternativeTransport":{"location":[{"station":{"uicCode":"8400307","stationCode":"HRL","name":"Heerlen","coordinate":{"lat":50.8908348083496,"lng":5.97499990463257},"countryCode":"NL"},"description":"vanaf de achterzijde van het station"},{"station":{"uicCode":"8400548","stationCode":"LG","name":"Landgraaf","coordinate":{"lat":50.8963890075684,"lng":6.01916646957398},"countryCode":"NL"},"description":"vanaf de voorzijde van het station"},{"station":{"uicCode":"8400234","stationCode":"EGHM","name":"Eygelshoven Markt","coordinate":{"lat":50.8960498196442,"lng":6.0602474212646396},"countryCode":"NL"},"description":"vanaf de voorzijde van het station"}],"label":"Er rijden stopbussen tussen Heerlen, Landgraaf, Eygelshoven Markt, Herzogenrath, Aachen West en Aachen Hbf.","shortLabel":"Er rijden stopbussen Heerlen - Landgraaf - Eygelshoven Mrkt - Herzogenrath - Aachen West - Aachen Hbf"}},{"start":"2023-07-03T23:30:00+0200","end":"2023-07-04T06:30:00+0200","alternativeTransport":{"location":[{"station":{"uicCode":"8400307","stationCode":"HRL","name":"Heerlen","coordinate":{"lat":50.8908348083496,"lng":5.97499990463257},"countryCode":"NL"},"description":"vanaf de achterzijde van het station"},{"station":{"uicCode":"8400548","stationCode":"LG","name":"Landgraaf","coordinate":{"lat":50.8963890075684,"lng":6.01916646957398},"countryCode":"NL"},"description":"vanaf de voorzijde van het station"},{"station":{"uicCode":"8400234","stationCode":"EGHM","name":"Eygelshoven Markt","coordinate":{"lat":50.8960498196442,"lng":6.0602474212646396},"countryCode":"NL"},"description":"vanaf de voorzijde van het station"}],"label":"Er rijden stopbussen tussen Heerlen, Landgraaf, Eygelshoven Markt, Herzogenrath, Aachen West en Aachen Hbf.","shortLabel":"Er rijden stopbussen Heerlen - Landgraaf - Eygelshoven Mrkt - Herzogenrath - Aachen West - Aachen Hbf"}},{"start":"2023-07-04T23:30:00+0200","end":"2023-07-05T06:30:00+0200","alternativeTransport":{"location":[{"station":{"uicCode":"8400307","stationCode":"HRL","name":"Heerlen","coordinate":{"lat":50.8908348083496,"lng":5.97499990463257},"countryCode":"NL"},"description":"vanaf de achterzijde van het station"},{"station":{"uicCode":"8400548","stationCode":"LG","name":"Landgraaf","coordinate":{"lat":50.8963890075684,"lng":6.01916646957398},"countryCode":"NL"},"description":"vanaf de voorzijde van het station"},{"station":{"uicCode":"8400234","stationCode":"EGHM","name":"Eygelshoven Markt","coordinate":{"lat":50.8960498196442,"lng":6.0602474212646396},"countryCode":"NL"},"description":"vanaf de voorzijde van het station"}],"label":"Er rijden stopbussen tussen Heerlen, Landgraaf, Eygelshoven Markt, Herzogenrath, Aachen West en Aachen Hbf.","shortLabel":"Er rijden stopbussen Heerlen - Landgraaf - Eygelshoven Mrkt - Herzogenrath - Aachen West - Aachen Hbf"}},{"start":"2023-07-05T23:30:00+0200","end":"2023-07-06T06:30:00+0200","alternativeTransport":{"location":[{"station":{"uicCode":"8400307","stationCode":"HRL","name":"Heerlen","coordinate":{"lat":50.8908348083496,"lng":5.97499990463257},"countryCode":"NL"},"description":"vanaf de achterzijde van het station"},{"station":{"uicCode":"8400548","stationCode":"LG","name":"Landgraaf","coordinate":{"lat":50.8963890075684,"lng":6.01916646957398},"countryCode":"NL"},"description":"vanaf de voorzijde van het station"},{"station":{"uicCode":"8400234","stationCode":"EGHM","name":"Eygelshoven Markt","coordinate":{"lat":50.8960498196442,"lng":6.0602474212646396},"countryCode":"NL"},"description":"vanaf de voorzijde van het station"}],"label":"Er rijden stopbussen tussen Heerlen, Landgraaf, Eygelshoven Markt, Herzogenrath, Aachen West en Aachen Hbf.","shortLabel":"Er rijden stopbussen Heerlen - Landgraaf - Eygelshoven Mrkt - Herzogenrath - Aachen West - Aachen Hbf"}},{"start":"2023-07-06T23:30:00+0200","end":"2023-07-07T06:30:00+0200","alternativeTransport":{"location":[{"station":{"uicCode":"8400307","stationCode":"HRL","name":"Heerlen","coordinate":{"lat":50.8908348083496,"lng":5.97499990463257},"countryCode":"NL"},"description":"vanaf de achterzijde van het station"},{"station":{"uicCode":"8400548","stationCode":"LG","name":"Landgraaf","coordinate":{"lat":50.8963890075684,"lng":6.01916646957398},"countryCode":"NL"},"description":"vanaf de voorzijde van het station"},{"station":{"uicCode":"8400234","stationCode":"EGHM","name":"Eygelshoven Markt","coordinate":{"lat":50.8960498196442,"lng":6.0602474212646396},"countryCode":"NL"},"description":"vanaf de voorzijde van het station"}],"label":"Er rijden stopbussen tussen Heerlen, Landgraaf, Eygelshoven Markt, Herzogenrath, Aachen West en Aachen Hbf.","shortLabel":"Er rijden stopbussen Heerlen - Landgraaf - Eygelshoven Mrkt - Herzogenrath - Aachen West - Aachen Hbf"}}]},{"id":"7003688","type":"MAINTENANCE","registrationTime":"2023-06-14T19:22:37+0200","releaseTime":"2023-06-14T19:22:37+0200","local":false,"title":"Dordrecht - Geldermalsen.","titleSections":[[{"type":"STATION","value":"Dordrecht"},{"type":"ICON","value":"MAINTENANCE"},{"type":"STATION","value":"Geldermalsen"}]],"isActive":false,"start":"2023-07-01T01:15:00+0200","end":"2023-07-03T03:15:00+0200","period":"Zaterdag 01-07-2023 01:15 uur t/m maandag 03-07-2023 03:15 uur.","impact":{"value":3},"summaryAdditionalTravelTime":{"label":"De extra reistijd is ongeveer 45 minuten.","shortLabel":"Extra reistijd 45 min.","minimumDurationInMinutes":45,"maximumDurationInMinutes":45},"publicationSections":[{"section":{"stations":[{"uicCode":"8400180","stationCode":"DDR","name":"Dordrecht","coordinate":{"lat":51.8072204589844,"lng":4.66833353042603},"countryCode":"NL"},{"uicCode":"8400186","stationCode":"DDRS","name":"Dordrecht Stadspolders","coordinate":{"lat":51.801944732666,"lng":4.71666669845581},"countryCode":"NL"},{"uicCode":"8400497","stationCode":"SDTB","name":"Sliedrecht Baanhoek","coordinate":{"lat":51.829722,"lng":4.743333},"countryCode":"NL"},{"uicCode":"8400565","stationCode":"SDT","name":"Sliedrecht","coordinate":{"lat":51.8297233581543,"lng":4.77833318710327},"countryCode":"NL"},{"uicCode":"8400438","stationCode":"HBZM","name":"Hardinxveld Blauwe Zoom","coordinate":{"lat":51.82944,"lng":4.81556},"countryCode":"NL"},{"uicCode":"8400295","stationCode":"GND","name":"Hardinxveld-Giessendam","coordinate":{"lat":51.8305549621582,"lng":4.83583354949951},"countryCode":"NL"},{"uicCode":"8400236","stationCode":"BHDV","name":"Boven-Hardinxveld","coordinate":{"lat":51.832222,"lng":4.878056},"countryCode":"NL"},{"uicCode":"8400256","stationCode":"GR","name":"Gorinchem","coordinate":{"lat":51.8338890075684,"lng":4.96833324432373},"countryCode":"NL"},{"uicCode":"8400068","stationCode":"AKL","name":"Arkel","coordinate":{"lat":51.8719444274902,"lng":4.99277782440186},"countryCode":"NL"},{"uicCode":"8400386","stationCode":"LDM","name":"Leerdam","coordinate":{"lat":51.8947219848633,"lng":5.09138870239258},"countryCode":"NL"},{"uicCode":"8400097","stationCode":"BSD","name":"Beesd","coordinate":{"lat":51.8994445800781,"lng":5.19444465637207},"countryCode":"NL"},{"uicCode":"8400244","stationCode":"GDM","name":"Geldermalsen","coordinate":{"lat":51.88301,"lng":5.27127},"countryCode":"NL"}],"direction":"BOTH"},"consequence":{"section":{"stations":[{"uicCode":"8400180","stationCode":"DDR","name":"Dordrecht","coordinate":{"lat":51.8072204589844,"lng":4.66833353042603},"countryCode":"NL"},{"uicCode":"8400186","stationCode":"DDRS","name":"Dordrecht Stadspolders","coordinate":{"lat":51.801944732666,"lng":4.71666669845581},"countryCode":"NL"},{"uicCode":"8400497","stationCode":"SDTB","name":"Sliedrecht Baanhoek","coordinate":{"lat":51.829722,"lng":4.743333},"countryCode":"NL"},{"uicCode":"8400565","stationCode":"SDT","name":"Sliedrecht","coordinate":{"lat":51.8297233581543,"lng":4.77833318710327},"countryCode":"NL"},{"uicCode":"8400438","stationCode":"HBZM","name":"Hardinxveld Blauwe Zoom","coordinate":{"lat":51.82944,"lng":4.81556},"countryCode":"NL"},{"uicCode":"8400295","stationCode":"GND","name":"Hardinxveld-Giessendam","coordinate":{"lat":51.8305549621582,"lng":4.83583354949951},"countryCode":"NL"},{"uicCode":"8400236","stationCode":"BHDV","name":"Boven-Hardinxveld","coordinate":{"lat":51.832222,"lng":4.878056},"countryCode":"NL"},{"uicCode":"8400256","stationCode":"GR","name":"Gorinchem","coordinate":{"lat":51.8338890075684,"lng":4.96833324432373},"countryCode":"NL"},{"uicCode":"8400068","stationCode":"AKL","name":"Arkel","coordinate":{"lat":51.8719444274902,"lng":4.99277782440186},"countryCode":"NL"},{"uicCode":"8400386","stationCode":"LDM","name":"Leerdam","coordinate":{"lat":51.8947219848633,"lng":5.09138870239258},"countryCode":"NL"},{"uicCode":"8400097","stationCode":"BSD","name":"Beesd","coordinate":{"lat":51.8994445800781,"lng":5.19444465637207},"countryCode":"NL"},{"uicCode":"8400244","stationCode":"GDM","name":"Geldermalsen","coordinate":{"lat":51.88301,"lng":5.27127},"countryCode":"NL"}],"direction":"ONE_WAY"},"description":"rijden bussen","level":"LESS_TRAINS"},"sectionType":"NL"}],"timespans":[{"start":"2023-07-01T01:15:00+0200","end":"2023-07-03T03:15:00+0200","period":"Zaterdag 01-07-2023 01:15 uur t/m maandag 03-07-2023 03:15 uur.","situation":{"label":"Door werkzaamheden: tussen Dordrecht en Geldermalsen rijden er bussen."},"cause":{"label":"werkzaamheden"},"additionalTravelTime":{"label":"De extra reistijd is ongeveer 45 minuten.","shortLabel":"Extra reistijd 45 min.","minimumDurationInMinutes":45,"maximumDurationInMinutes":45},"alternativeTransport":{"label":"maak gebruik van het vervangende vervoer","shortLabel":"gebruik het vervangende vervoer"},"advices":["Tussen Arkel en Leerdam/Geldermalsen reist u via Gorinchem","Tussen Stadspolders en Sliedrecht/Gorinchem reist u via Dordrecht"]}],"alternativeTransportTimespans":[{"start":"2023-07-01T01:15:00+0200","end":"2023-07-01T22:00:00+0200","alternativeTransport":{"location":[{"station":{"uicCode":"8400180","stationCode":"DDR","name":"Dordrecht","coordinate":{"lat":51.8072204589844,"lng":4.66833353042603},"countryCode":"NL"},"description":"vanaf de voorzijde van het station"},{"station":{"uicCode":"8400497","stationCode":"SDTB","name":"Sliedrecht Baanhoek","coordinate":{"lat":51.829722,"lng":4.743333},"countryCode":"NL"},"description":"onder het spoorviaduct"},{"station":{"uicCode":"8400565","stationCode":"SDT","name":"Sliedrecht","coordinate":{"lat":51.8297233581543,"lng":4.77833318710327},"countryCode":"NL"},"description":"vanaf de voorzijde van het station"},{"station":{"uicCode":"8400295","stationCode":"GND","name":"Hardinxveld-Giessendam","coordinate":{"lat":51.8305549621582,"lng":4.83583354949951},"countryCode":"NL"},"description":"vanaf de voorzijde van het station"},{"station":{"uicCode":"8400256","stationCode":"GR","name":"Gorinchem","coordinate":{"lat":51.8338890075684,"lng":4.96833324432373},"countryCode":"NL"},"description":"vanaf de voorzijde van het station"},{"station":{"uicCode":"8400386","stationCode":"LDM","name":"Leerdam","coordinate":{"lat":51.8947219848633,"lng":5.09138870239258},"countryCode":"NL"},"description":"vanaf de bushalte"},{"station":{"uicCode":"8400097","stationCode":"BSD","name":"Beesd","coordinate":{"lat":51.8994445800781,"lng":5.19444465637207},"countryCode":"NL"},"description":"vanaf het voorplein"},{"station":{"uicCode":"8400244","stationCode":"GDM","name":"Geldermalsen","coordinate":{"lat":51.88301,"lng":5.27127},"countryCode":"NL"},"description":"vanaf het busstation"}],"label":"Er rijden snelbussen tussen Dordrecht, Sliedrecht Baanhoek, Sliedrecht, Hardinxveld-Giessendam, Gorinchem, Leerdam, Beesd en Geldermalsen.","shortLabel":"Er rijden snelbussen Dordrecht - Baanhoek - Sliedrecht - Hardinxveld-G. - Gorinchem - Leerdam - Beesd - Geldermalsen"}},{"start":"2023-07-01T01:15:00+0200","end":"2023-07-01T22:00:00+0200","alternativeTransport":{"location":[{"station":{"uicCode":"8400180","stationCode":"DDR","name":"Dordrecht","coordinate":{"lat":51.8072204589844,"lng":4.66833353042603},"countryCode":"NL"},"description":"vanaf de voorzijde van het station"},{"station":{"uicCode":"8400186","stationCode":"DDRS","name":"Dordrecht Stadspolders","coordinate":{"lat":51.801944732666,"lng":4.71666669845581},"countryCode":"NL"},"description":"vanaf de voorzijde van het station"}],"label":"Maak gebruik van de stadsbussen tussen Dordrecht en Dordrecht Stadspolders.","shortLabel":"Gebruik de stadsbussen Dordrecht - Stadspolders"}},{"start":"2023-07-01T01:15:00+0200","end":"2023-07-01T22:00:00+0200","alternativeTransport":{"location":[{"station":{"uicCode":"8400438","stationCode":"HBZM","name":"Hardinxveld Blauwe Zoom","coordinate":{"lat":51.82944,"lng":4.81556},"countryCode":"NL"},"description":"vanaf de voorzijde van het station"},{"station":{"uicCode":"8400295","stationCode":"GND","name":"Hardinxveld-Giessendam","coordinate":{"lat":51.8305549621582,"lng":4.83583354949951},"countryCode":"NL"},"description":"vanaf de voorzijde van het station"},{"station":{"uicCode":"8400236","stationCode":"BHDV","name":"Boven-Hardinxveld","coordinate":{"lat":51.832222,"lng":4.878056},"countryCode":"NL"},"description":"vanaf de bushalte"}],"label":"Er rijden stopbussen tussen Hardinxveld Blauwe Zoom, Hardinxveld-Giessendam en Boven-Hardinxveld.","shortLabel":"Er rijden stopbussen Blauwe Zoom - Hardinxveld-G. - Boven-Hardinxv."}},{"start":"2023-07-01T01:15:00+0200","end":"2023-07-01T22:00:00+0200","alternativeTransport":{"location":[{"station":{"uicCode":"8400256","stationCode":"GR","name":"Gorinchem","coordinate":{"lat":51.8338890075684,"lng":4.96833324432373},"countryCode":"NL"},"description":"vanaf de voorzijde van het station"},{"station":{"uicCode":"8400068","stationCode":"AKL","name":"Arkel","coordinate":{"lat":51.8719444274902,"lng":4.99277782440186},"countryCode":"NL"},"description":"vanaf de bushalte"}],"label":"Er rijden stopbussen tussen Gorinchem en Arkel.","shortLabel":"Er rijden stopbussen Gorinchem - Arkel"}},{"start":"2023-07-01T22:00:00+0200","end":"2023-07-03T03:15:00+0200","alternativeTransport":{"location":[{"station":{"uicCode":"8400180","stationCode":"DDR","name":"Dordrecht","coordinate":{"lat":51.8072204589844,"lng":4.66833353042603},"countryCode":"NL"},"description":"vanaf de voorzijde van het station"},{"station":{"uicCode":"8400497","stationCode":"SDTB","name":"Sliedrecht Baanhoek","coordinate":{"lat":51.829722,"lng":4.743333},"countryCode":"NL"},"description":"onder het spoorviaduct"},{"station":{"uicCode":"8400565","stationCode":"SDT","name":"Sliedrecht","coordinate":{"lat":51.8297233581543,"lng":4.77833318710327},"countryCode":"NL"},"description":"vanaf de voorzijde van het station"},{"station":{"uicCode":"8400295","stationCode":"GND","name":"Hardinxveld-Giessendam","coordinate":{"lat":51.8305549621582,"lng":4.83583354949951},"countryCode":"NL"},"description":"vanaf de voorzijde van het station"},{"station":{"uicCode":"8400256","stationCode":"GR","name":"Gorinchem","coordinate":{"lat":51.8338890075684,"lng":4.96833324432373},"countryCode":"NL"},"description":"vanaf de voorzijde van het station"},{"station":{"uicCode":"8400386","stationCode":"LDM","name":"Leerdam","coordinate":{"lat":51.8947219848633,"lng":5.09138870239258},"countryCode":"NL"},"description":"vanaf de bushalte"},{"station":{"uicCode":"8400097","stationCode":"BSD","name":"Beesd","coordinate":{"lat":51.8994445800781,"lng":5.19444465637207},"countryCode":"NL"},"description":"vanaf het voorplein"},{"station":{"uicCode":"8400244","stationCode":"GDM","name":"Geldermalsen","coordinate":{"lat":51.88301,"lng":5.27127},"countryCode":"NL"},"description":"vanaf het busstation"}],"label":"Er rijden snelbussen tussen Dordrecht, Sliedrecht Baanhoek, Sliedrecht, Hardinxveld-Giessendam, Gorinchem, Leerdam, Beesd en Geldermalsen.","shortLabel":"Er rijden snelbussen Dordrecht - Baanhoek - Sliedrecht - Hardinxveld-G. - Gorinchem - Leerdam - Beesd - Geldermalsen"}},{"start":"2023-07-01T22:00:00+0200","end":"2023-07-03T03:15:00+0200","alternativeTransport":{"location":[{"station":{"uicCode":"8400180","stationCode":"DDR","name":"Dordrecht","coordinate":{"lat":51.8072204589844,"lng":4.66833353042603},"countryCode":"NL"},"description":"vanaf de voorzijde van het station"},{"station":{"uicCode":"8400497","stationCode":"SDTB","name":"Sliedrecht Baanhoek","coordinate":{"lat":51.829722,"lng":4.743333},"countryCode":"NL"},"description":"onder het spoorviaduct"},{"station":{"uicCode":"8400565","stationCode":"SDT","name":"Sliedrecht","coordinate":{"lat":51.8297233581543,"lng":4.77833318710327},"countryCode":"NL"},"description":"vanaf de voorzijde van het station"},{"station":{"uicCode":"8400295","stationCode":"GND","name":"Hardinxveld-Giessendam","coordinate":{"lat":51.8305549621582,"lng":4.83583354949951},"countryCode":"NL"},"description":"vanaf de voorzijde van het station"},{"station":{"uicCode":"8400256","stationCode":"GR","name":"Gorinchem","coordinate":{"lat":51.8338890075684,"lng":4.96833324432373},"countryCode":"NL"},"description":"vanaf de voorzijde van het station"},{"station":{"uicCode":"8400068","stationCode":"AKL","name":"Arkel","coordinate":{"lat":51.8719444274902,"lng":4.99277782440186},"countryCode":"NL"},"description":"vanaf de bushalte"}],"label":"Er rijden snelbussen tussen Dordrecht, Sliedrecht Baanhoek, Sliedrecht, Hardinxveld-Giessendam, Gorinchem en Arkel.","shortLabel":"Er rijden snelbussen Dordrecht - Baanhoek - Sliedrecht - Hardinxveld-G. - Gorinchem - Arkel"}},{"start":"2023-07-01T22:00:00+0200","end":"2023-07-03T03:15:00+0200","alternativeTransport":{"location":[{"station":{"uicCode":"8400180","stationCode":"DDR","name":"Dordrecht","coordinate":{"lat":51.8072204589844,"lng":4.66833353042603},"countryCode":"NL"},"description":"vanaf de voorzijde van het station"},{"station":{"uicCode":"8400186","stationCode":"DDRS","name":"Dordrecht Stadspolders","coordinate":{"lat":51.801944732666,"lng":4.71666669845581},"countryCode":"NL"},"description":"vanaf de voorzijde van het station"}],"label":"Maak gebruik van de stadsbussen tussen Dordrecht en Dordrecht Stadspolders.","shortLabel":"Gebruik de stadsbussen Dordrecht - Stadspolders"}},{"start":"2023-07-01T22:00:00+0200","end":"2023-07-03T03:15:00+0200","alternativeTransport":{"location":[{"station":{"uicCode":"8400236","stationCode":"BHDV","name":"Boven-Hardinxveld","coordinate":{"lat":51.832222,"lng":4.878056},"countryCode":"NL"},"description":"vanaf de bushalte"},{"station":{"uicCode":"8400295","stationCode":"GND","name":"Hardinxveld-Giessendam","coordinate":{"lat":51.8305549621582,"lng":4.83583354949951},"countryCode":"NL"},"description":"vanaf de voorzijde van het station"},{"station":{"uicCode":"8400438","stationCode":"HBZM","name":"Hardinxveld Blauwe Zoom","coordinate":{"lat":51.82944,"lng":4.81556},"countryCode":"NL"},"description":"vanaf de voorzijde van het station"}],"label":"Er rijden stopbussen tussen Boven-Hardinxveld, Hardinxveld-Giessendam en Hardinxveld Blauwe Zoom.","shortLabel":"Er rijden stopbussen Boven-Hardinxv. - Hardinxveld-G. - Blauwe Zoom"}}]},{"id":"7003596","type":"MAINTENANCE","registrationTime":"2023-06-21T16:05:00+0200","releaseTime":"2023-06-21T16:05:00+0200","local":false,"title":"Amsterdam - Utrecht; Schiphol - Utrecht.","titleSections":[[{"type":"STATION","value":"Amsterdam C."},{"type":"ICON","value":"MAINTENANCE"},{"type":"STATION","value":"Utrecht C."}],[{"type":"STATION","value":"Schiphol Airport"},{"type":"ICON","value":"MAINTENANCE"},{"type":"STATION","value":"Utrecht C."}]],"isActive":false,"start":"2023-07-01T01:15:00+0200","end":"2023-07-03T04:45:00+0200","period":"Zaterdag 01-07-2023 01:15 uur t/m maandag 03-07-2023 04:45 uur.","impact":{"value":4},"summaryAdditionalTravelTime":{"label":"U heeft geen langere reistijd.","shortLabel":"Geen extra reistijd"},"publicationSections":[{"section":{"stations":[{"uicCode":"8400058","stationCode":"ASD","name":"Amsterdam Centraal","coordinate":{"lat":52.3788871765137,"lng":4.90027761459351},"countryCode":"NL"},{"uicCode":"8400060","stationCode":"ASDM","name":"Amsterdam Muiderpoort","coordinate":{"lat":52.3605537414551,"lng":4.93111133575439},"countryCode":"NL"},{"uicCode":"8400057","stationCode":"ASA","name":"Amsterdam Amstel","coordinate":{"lat":52.3466682434082,"lng":4.91777801513672},"countryCode":"NL"},{"uicCode":"8400194","stationCode":"DVD","name":"Duivendrecht","coordinate":{"lat":52.3233337402344,"lng":4.93638896942139},"countryCode":"NL"},{"uicCode":"8400074","stationCode":"ASB","name":"Amsterdam Bijlmer ArenA","coordinate":{"lat":52.3122215270996,"lng":4.94694423675537},"countryCode":"NL"},{"uicCode":"8400231","stationCode":"ASHD","name":"Amsterdam Holendrecht","coordinate":{"lat":52.29844,"lng":4.95972},"countryCode":"NL"},{"uicCode":"8400047","stationCode":"AC","name":"Abcoude","coordinate":{"lat":52.2785,"lng":4.977},"countryCode":"NL"},{"uicCode":"8400133","stationCode":"BKL","name":"Breukelen","coordinate":{"lat":52.17149,"lng":4.9906},"countryCode":"NL"},{"uicCode":"8400419","stationCode":"MAS","name":"Maarssen","coordinate":{"lat":52.1352767944336,"lng":5.03361129760742},"countryCode":"NL"},{"uicCode":"8400613","stationCode":"UTZL","name":"Utrecht Zuilen","coordinate":{"lat":52.103055,"lng":5.09},"countryCode":"NL"},{"uicCode":"8400621","stationCode":"UT","name":"Utrecht Centraal","coordinate":{"lat":52.0888900756836,"lng":5.11027765274048},"countryCode":"NL"}],"direction":"BOTH"},"consequence":{"section":{"stations":[{"uicCode":"8400058","stationCode":"ASD","name":"Amsterdam Centraal","coordinate":{"lat":52.3788871765137,"lng":4.90027761459351},"countryCode":"NL"},{"uicCode":"8400060","stationCode":"ASDM","name":"Amsterdam Muiderpoort","coordinate":{"lat":52.3605537414551,"lng":4.93111133575439},"countryCode":"NL"},{"uicCode":"8400057","stationCode":"ASA","name":"Amsterdam Amstel","coordinate":{"lat":52.3466682434082,"lng":4.91777801513672},"countryCode":"NL"},{"uicCode":"8400194","stationCode":"DVD","name":"Duivendrecht","coordinate":{"lat":52.3233337402344,"lng":4.93638896942139},"countryCode":"NL"},{"uicCode":"8400074","stationCode":"ASB","name":"Amsterdam Bijlmer ArenA","coordinate":{"lat":52.3122215270996,"lng":4.94694423675537},"countryCode":"NL"},{"uicCode":"8400231","stationCode":"ASHD","name":"Amsterdam Holendrecht","coordinate":{"lat":52.29844,"lng":4.95972},"countryCode":"NL"},{"uicCode":"8400047","stationCode":"AC","name":"Abcoude","coordinate":{"lat":52.2785,"lng":4.977},"countryCode":"NL"},{"uicCode":"8400133","stationCode":"BKL","name":"Breukelen","coordinate":{"lat":52.17149,"lng":4.9906},"countryCode":"NL"},{"uicCode":"8400419","stationCode":"MAS","name":"Maarssen","coordinate":{"lat":52.1352767944336,"lng":5.03361129760742},"countryCode":"NL"},{"uicCode":"8400613","stationCode":"UTZL","name":"Utrecht Zuilen","coordinate":{"lat":52.103055,"lng":5.09},"countryCode":"NL"},{"uicCode":"8400621","stationCode":"UT","name":"Utrecht Centraal","coordinate":{"lat":52.0888900756836,"lng":5.11027765274048},"countryCode":"NL"}],"direction":"ONE_WAY"},"description":"dienstregeling aangepast","level":"LESS_TRAINS"},"sectionType":"NL"},{"section":{"stations":[{"uicCode":"8400561","stationCode":"SHL","name":"Schiphol Airport","coordinate":{"lat":52.3094444274902,"lng":4.76194429397583},"countryCode":"NL"},{"uicCode":"8400061","stationCode":"ASDZ","name":"Amsterdam Zuid","coordinate":{"lat":52.338889,"lng":4.872356},"countryCode":"NL"},{"uicCode":"8400056","stationCode":"RAI","name":"Amsterdam RAI","coordinate":{"lat":52.3372230529785,"lng":4.89027786254883},"countryCode":"NL"},{"uicCode":"8400074","stationCode":"ASB","name":"Amsterdam Bijlmer ArenA","coordinate":{"lat":52.3122215270996,"lng":4.94694423675537},"countryCode":"NL"},{"uicCode":"8400231","stationCode":"ASHD","name":"Amsterdam Holendrecht","coordinate":{"lat":52.29844,"lng":4.95972},"countryCode":"NL"},{"uicCode":"8400047","stationCode":"AC","name":"Abcoude","coordinate":{"lat":52.2785,"lng":4.977},"countryCode":"NL"},{"uicCode":"8400133","stationCode":"BKL","name":"Breukelen","coordinate":{"lat":52.17149,"lng":4.9906},"countryCode":"NL"},{"uicCode":"8400419","stationCode":"MAS","name":"Maarssen","coordinate":{"lat":52.1352767944336,"lng":5.03361129760742},"countryCode":"NL"},{"uicCode":"8400613","stationCode":"UTZL","name":"Utrecht Zuilen","coordinate":{"lat":52.103055,"lng":5.09},"countryCode":"NL"},{"uicCode":"8400621","stationCode":"UT","name":"Utrecht Centraal","coordinate":{"lat":52.0888900756836,"lng":5.11027765274048},"countryCode":"NL"}],"direction":"BOTH"},"consequence":{"section":{"stations":[{"uicCode":"8400561","stationCode":"SHL","name":"Schiphol Airport","coordinate":{"lat":52.3094444274902,"lng":4.76194429397583},"countryCode":"NL"},{"uicCode":"8400061","stationCode":"ASDZ","name":"Amsterdam Zuid","coordinate":{"lat":52.338889,"lng":4.872356},"countryCode":"NL"},{"uicCode":"8400056","stationCode":"RAI","name":"Amsterdam RAI","coordinate":{"lat":52.3372230529785,"lng":4.89027786254883},"countryCode":"NL"},{"uicCode":"8400074","stationCode":"ASB","name":"Amsterdam Bijlmer ArenA","coordinate":{"lat":52.3122215270996,"lng":4.94694423675537},"countryCode":"NL"},{"uicCode":"8400231","stationCode":"ASHD","name":"Amsterdam Holendrecht","coordinate":{"lat":52.29844,"lng":4.95972},"countryCode":"NL"},{"uicCode":"8400047","stationCode":"AC","name":"Abcoude","coordinate":{"lat":52.2785,"lng":4.977},"countryCode":"NL"},{"uicCode":"8400133","stationCode":"BKL","name":"Breukelen","coordinate":{"lat":52.17149,"lng":4.9906},"countryCode":"NL"},{"uicCode":"8400419","stationCode":"MAS","name":"Maarssen","coordinate":{"lat":52.1352767944336,"lng":5.03361129760742},"countryCode":"NL"},{"uicCode":"8400613","stationCode":"UTZL","name":"Utrecht Zuilen","coordinate":{"lat":52.103055,"lng":5.09},"countryCode":"NL"},{"uicCode":"8400621","stationCode":"UT","name":"Utrecht Centraal","coordinate":{"lat":52.0888900756836,"lng":5.11027765274048},"countryCode":"NL"}],"direction":"ONE_WAY"},"description":"dienstregeling aangepast","level":"LESS_TRAINS"},"sectionType":"NL"}],"timespans":[{"start":"2023-07-01T01:15:00+0200","end":"2023-07-03T04:45:00+0200","period":"Zaterdag 01-07-2023 01:15 uur t/m maandag 03-07-2023 04:45 uur.","situation":{"label":"Door werkzaamheden: tussen Amsterdam Centraal en Utrecht Centraal is de dienstregeling aangepast en tussen Schiphol Airport en Utrecht Centraal is de dienstregeling aangepast."},"cause":{"label":"werkzaamheden"},"additionalTravelTime":{"label":"U heeft geen langere reistijd.","shortLabel":"Geen extra reistijd"},"alternativeTransport":{"label":"maak gebruik van het vervangende vervoer","shortLabel":"gebruik het vervangende vervoer"},"advices":["Tussen Amsterdam C. en Utrecht C. reist u via Hilversum","Tussen Schiphol Airport en Utrecht C. reist u via Hilversum"]}],"alternativeTransportTimespans":[{"start":"2023-07-01T05:45:00+0200","end":"2023-07-03T02:00:00+0200","alternativeTransport":{"location":[{"station":{"uicCode":"8400133","stationCode":"BKL","name":"Breukelen","coordinate":{"lat":52.17149,"lng":4.9906},"countryCode":"NL"},"description":"vanaf de NS Bushalte"},{"station":{"uicCode":"8400419","stationCode":"MAS","name":"Maarssen","coordinate":{"lat":52.1352767944336,"lng":5.03361129760742},"countryCode":"NL"},"description":"vanaf het busstation"},{"station":{"uicCode":"8400613","stationCode":"UTZL","name":"Utrecht Zuilen","coordinate":{"lat":52.103055,"lng":5.09},"countryCode":"NL"},"description":"vanaf de bushalte"},{"station":{"uicCode":"8400621","stationCode":"UT","name":"Utrecht Centraal","coordinate":{"lat":52.0888900756836,"lng":5.11027765274048},"countryCode":"NL"},"description":"vanaf de Jaarbeurszijde"}],"label":"Er rijden stopbussen tussen Breukelen, Maarssen, Utrecht Zuilen en Utrecht Centraal.","shortLabel":"Er rijden stopbussen Breukelen - Maarssen - Zuilen - Utrecht C."}},{"start":"2023-07-01T06:08:00+0200","end":"2023-07-01T10:53:00+0200","alternativeTransport":{"location":[{"station":{"uicCode":"8400231","stationCode":"ASHD","name":"Amsterdam Holendrecht","coordinate":{"lat":52.29844,"lng":4.95972},"countryCode":"NL"},"description":"vanaf de voorzijde van het station"},{"station":{"uicCode":"8400047","stationCode":"AC","name":"Abcoude","coordinate":{"lat":52.2785,"lng":4.977},"countryCode":"NL"},"description":"vanaf de voorzijde van het station"},{"station":{"uicCode":"8400133","stationCode":"BKL","name":"Breukelen","coordinate":{"lat":52.17149,"lng":4.9906},"countryCode":"NL"},"description":"vanaf de NS Bushalte"},{"station":{"uicCode":"8400607","stationCode":"UTLR","name":"Utrecht Leidsche Rijn","coordinate":{"lat":52.09896,"lng":5.06523},"countryCode":"NL"},"description":"vanaf het busstation"}],"label":"Er rijden bussen tussen Amsterdam Holendrecht, Abcoude, Breukelen en Utrecht Leidsche Rijn.","shortLabel":"Er rijden bussen Holendrecht - Abcoude - Breukelen - Leidsche Rijn"}},{"start":"2023-07-01T06:08:00+0200","end":"2023-07-01T10:53:00+0200","alternativeTransport":{"location":[],"label":"Maak gebruik van de Amsterdamse metro lijn 54 tussen Amsterdam Centraal, Amsterdam Amstel, Duivendrecht, Amsterdam Bijlmer ArenA en Amsterdam Holendrecht.","shortLabel":"Gebruik de Amsterdamse metro lijn 54 Amsterdam C. - Amstel - Duivendrecht - Bijlmer ArenA - Holendrecht"}},{"start":"2023-07-01T06:08:00+0200","end":"2023-07-01T10:53:00+0200","alternativeTransport":{"location":[],"label":"Er rijden GVB bussen tussen Amsterdam Muiderpoort en Amsterdam Amstel.","shortLabel":"Er rijden GVB bussen Muiderpoort - Amstel"}},{"start":"2023-07-02T01:00:00+0200","end":"2023-07-02T02:00:00+0200","alternativeTransport":{"location":[{"station":{"uicCode":"8400621","stationCode":"UT","name":"Utrecht Centraal","coordinate":{"lat":52.0888900756836,"lng":5.11027765274048},"countryCode":"NL"},"description":"vanaf de Jaarbeurszijde"},{"station":{"uicCode":"8400074","stationCode":"ASB","name":"Amsterdam Bijlmer ArenA","coordinate":{"lat":52.3122215270996,"lng":4.94694423675537},"countryCode":"NL"},"description":"vanaf het busstation"}],"label":"Er rijden snelbussen tussen Utrecht Centraal en Amsterdam Bijlmer ArenA.","shortLabel":"Er rijden snelbussen Utrecht C. - Bijlmer ArenA"}},{"start":"2023-07-02T01:00:00+0200","end":"2023-07-02T02:00:00+0200","alternativeTransport":{"location":[{"station":{"uicCode":"8400058","stationCode":"ASD","name":"Amsterdam Centraal","coordinate":{"lat":52.3788871765137,"lng":4.90027761459351},"countryCode":"NL"},"description":"vanaf het busstation"},{"station":{"uicCode":"8400074","stationCode":"ASB","name":"Amsterdam Bijlmer ArenA","coordinate":{"lat":52.3122215270996,"lng":4.94694423675537},"countryCode":"NL"},"description":"vanaf het busstation"}],"label":"Er rijden snelbussen tussen Amsterdam Centraal en Amsterdam Bijlmer ArenA.","shortLabel":"Er rijden snelbussen Amsterdam C. - Bijlmer ArenA"}},{"start":"2023-07-02T07:33:00+0200","end":"2023-07-02T10:23:00+0200","alternativeTransport":{"location":[{"station":{"uicCode":"8400231","stationCode":"ASHD","name":"Amsterdam Holendrecht","coordinate":{"lat":52.29844,"lng":4.95972},"countryCode":"NL"},"description":"vanaf de voorzijde van het station"},{"station":{"uicCode":"8400047","stationCode":"AC","name":"Abcoude","coordinate":{"lat":52.2785,"lng":4.977},"countryCode":"NL"},"description":"vanaf de voorzijde van het station"},{"station":{"uicCode":"8400133","stationCode":"BKL","name":"Breukelen","coordinate":{"lat":52.17149,"lng":4.9906},"countryCode":"NL"},"description":"vanaf de NS Bushalte"},{"station":{"uicCode":"8400607","stationCode":"UTLR","name":"Utrecht Leidsche Rijn","coordinate":{"lat":52.09896,"lng":5.06523},"countryCode":"NL"},"description":"vanaf het busstation"}],"label":"Er rijden bussen tussen Amsterdam Holendrecht, Abcoude, Breukelen en Utrecht Leidsche Rijn.","shortLabel":"Er rijden bussen Holendrecht - Abcoude - Breukelen - Leidsche Rijn"}},{"start":"2023-07-02T07:33:00+0200","end":"2023-07-02T10:23:00+0200","alternativeTransport":{"location":[],"label":"Maak gebruik van de Amsterdamse metro lijn 54 tussen Amsterdam Centraal, Amsterdam Amstel, Duivendrecht, Amsterdam Bijlmer ArenA en Amsterdam Holendrecht.","shortLabel":"Gebruik de Amsterdamse metro lijn 54 Amsterdam C. - Amstel - Duivendrecht - Bijlmer ArenA - Holendrecht"}},{"start":"2023-07-02T07:33:00+0200","end":"2023-07-02T10:23:00+0200","alternativeTransport":{"location":[],"label":"Er rijden GVB bussen tussen Amsterdam Muiderpoort en Amsterdam Amstel.","shortLabel":"Er rijden GVB bussen Muiderpoort - Amstel"}},{"start":"2023-07-03T01:15:00+0200","end":"2023-07-03T04:45:00+0200","alternativeTransport":{"location":[{"station":{"uicCode":"8400058","stationCode":"ASD","name":"Amsterdam Centraal","coordinate":{"lat":52.3788871765137,"lng":4.90027761459351},"countryCode":"NL"},"description":"vanaf het busstation"},{"station":{"uicCode":"8400621","stationCode":"UT","name":"Utrecht Centraal","coordinate":{"lat":52.0888900756836,"lng":5.11027765274048},"countryCode":"NL"},"description":"vanaf de Jaarbeurszijde"}],"label":"Er rijden snelbussen tussen Amsterdam Centraal en Utrecht Centraal.","shortLabel":"Er rijden snelbussen Amsterdam C. - Utrecht C."}}]},{"id":"7003651","type":"MAINTENANCE","registrationTime":"2023-06-02T12:27:38+0200","releaseTime":"2023-06-02T12:27:38+0200","local":false,"title":"Utrecht - Baarn.","titleSections":[[{"type":"STATION","value":"Utrecht C."},{"type":"ICON","value":"MAINTENANCE"},{"type":"STATION","value":"Baarn"}]],"isActive":false,"start":"2023-07-01T04:00:00+0200","end":"2023-07-03T02:00:00+0200","period":"Zaterdag 01-07-2023 04:00 uur t/m maandag 03-07-2023 02:00 uur.","impact":{"value":2},"summaryAdditionalTravelTime":{"label":"U heeft geen langere reistijd.","shortLabel":"Geen extra reistijd"},"publicationSections":[{"section":{"stations":[{"uicCode":"8400621","stationCode":"UT","name":"Utrecht Centraal","coordinate":{"lat":52.0888900756836,"lng":5.11027765274048},"countryCode":"NL"},{"uicCode":"8400620","stationCode":"UTO","name":"Utrecht Overvecht","coordinate":{"lat":52.1100006103516,"lng":5.12472200393677},"countryCode":"NL"},{"uicCode":"8400114","stationCode":"BHV","name":"Bilthoven","coordinate":{"lat":52.1300010681152,"lng":5.20388889312744},"countryCode":"NL"},{"uicCode":"8400179","stationCode":"DLD","name":"Den Dolder","coordinate":{"lat":52.1402778625488,"lng":5.24277782440186},"countryCode":"NL"},{"uicCode":"8400571","stationCode":"STZ","name":"Soest Zuid","coordinate":{"lat":52.1652793884277,"lng":5.30305576324463},"countryCode":"NL"},{"uicCode":"8400567","stationCode":"ST","name":"Soest","coordinate":{"lat":52.1733322143555,"lng":5.30999994277954},"countryCode":"NL"},{"uicCode":"8400569","stationCode":"SD","name":"Soestdijk","coordinate":{"lat":52.1836128234863,"lng":5.30000019073486},"countryCode":"NL"},{"uicCode":"8400086","stationCode":"BRN","name":"Baarn","coordinate":{"lat":52.2083320617676,"lng":5.28083324432373},"countryCode":"NL"}],"direction":"BOTH"},"consequence":{"section":{"stations":[{"uicCode":"8400621","stationCode":"UT","name":"Utrecht Centraal","coordinate":{"lat":52.0888900756836,"lng":5.11027765274048},"countryCode":"NL"},{"uicCode":"8400620","stationCode":"UTO","name":"Utrecht Overvecht","coordinate":{"lat":52.1100006103516,"lng":5.12472200393677},"countryCode":"NL"},{"uicCode":"8400114","stationCode":"BHV","name":"Bilthoven","coordinate":{"lat":52.1300010681152,"lng":5.20388889312744},"countryCode":"NL"},{"uicCode":"8400179","stationCode":"DLD","name":"Den Dolder","coordinate":{"lat":52.1402778625488,"lng":5.24277782440186},"countryCode":"NL"},{"uicCode":"8400571","stationCode":"STZ","name":"Soest Zuid","coordinate":{"lat":52.1652793884277,"lng":5.30305576324463},"countryCode":"NL"},{"uicCode":"8400567","stationCode":"ST","name":"Soest","coordinate":{"lat":52.1733322143555,"lng":5.30999994277954},"countryCode":"NL"},{"uicCode":"8400569","stationCode":"SD","name":"Soestdijk","coordinate":{"lat":52.1836128234863,"lng":5.30000019073486},"countryCode":"NL"},{"uicCode":"8400086","stationCode":"BRN","name":"Baarn","coordinate":{"lat":52.2083320617676,"lng":5.28083324432373},"countryCode":"NL"}],"direction":"ONE_WAY"},"description":"dienstregeling aangepast","level":"LESS_TRAINS"},"sectionType":"NL"}],"timespans":[{"start":"2023-07-01T04:00:00+0200","end":"2023-07-03T02:00:00+0200","period":"Zaterdag 01-07-2023 04:00 uur t/m maandag 03-07-2023 02:00 uur.","situation":{"label":"Door werkzaamheden elders: tussen Utrecht Centraal en Baarn is de dienstregeling aangepast."},"cause":{"label":"werkzaamheden elders"},"additionalTravelTime":{"label":"U heeft geen langere reistijd.","shortLabel":"Geen extra reistijd"},"advices":["Sprinters Utrecht C-Baarn rijden 1x per uur met aangepaste vertrektijden."]}],"alternativeTransportTimespans":[]},{"id":"7003652","type":"MAINTENANCE","registrationTime":"2023-06-02T12:24:11+0200","releaseTime":"2023-06-02T12:24:11+0200","local":false,"title":"Utrecht - Almere.","titleSections":[[{"type":"STATION","value":"Utrecht C."},{"type":"ICON","value":"MAINTENANCE"},{"type":"STATION","value":"Almere C."}]],"isActive":false,"start":"2023-07-01T04:00:00+0200","end":"2023-07-03T02:00:00+0200","period":"Zaterdag 01-07-2023 04:00 uur t/m maandag 03-07-2023 02:00 uur.","impact":{"value":2},"summaryAdditionalTravelTime":{"label":"U heeft geen langere reistijd.","shortLabel":"Geen extra reistijd"},"publicationSections":[{"section":{"stations":[{"uicCode":"8400621","stationCode":"UT","name":"Utrecht Centraal","coordinate":{"lat":52.0888900756836,"lng":5.11027765274048},"countryCode":"NL"},{"uicCode":"8400620","stationCode":"UTO","name":"Utrecht Overvecht","coordinate":{"lat":52.1100006103516,"lng":5.12472200393677},"countryCode":"NL"},{"uicCode":"8400327","stationCode":"HOR","name":"Hollandsche Rading","coordinate":{"lat":52.1777763366699,"lng":5.17916679382324},"countryCode":"NL"},{"uicCode":"8400570","stationCode":"HVSP","name":"Hilversum Sportpark","coordinate":{"lat":52.2161102294922,"lng":5.18722200393677},"countryCode":"NL"},{"uicCode":"8400322","stationCode":"HVS","name":"Hilversum","coordinate":{"lat":52.2258338928223,"lng":5.18194437026978},"countryCode":"NL"},{"uicCode":"8400324","stationCode":"HVSM","name":"Hilversum Media Park","coordinate":{"lat":52.2380561828613,"lng":5.17388868331909},"countryCode":"NL"},{"uicCode":"8400145","stationCode":"BSMZ","name":"Bussum Zuid","coordinate":{"lat":52.2658348083496,"lng":5.16305541992188},"countryCode":"NL"},{"uicCode":"8400452","stationCode":"NDB","name":"Naarden-Bussum","coordinate":{"lat":52.2802772521973,"lng":5.15694427490234},"countryCode":"NL"},{"uicCode":"8400450","stationCode":"AMPO","name":"Almere Poort","coordinate":{"lat":52.342778,"lng":5.151944},"countryCode":"NL"},{"uicCode":"8400082","stationCode":"ALMM","name":"Almere Muziekwijk","coordinate":{"lat":52.3675003051758,"lng":5.19027757644653},"countryCode":"NL"},{"uicCode":"8400080","stationCode":"ALM","name":"Almere Centrum","coordinate":{"lat":52.37503,"lng":5.21764},"countryCode":"NL"}],"direction":"BOTH"},"consequence":{"section":{"stations":[{"uicCode":"8400621","stationCode":"UT","name":"Utrecht Centraal","coordinate":{"lat":52.0888900756836,"lng":5.11027765274048},"countryCode":"NL"},{"uicCode":"8400620","stationCode":"UTO","name":"Utrecht Overvecht","coordinate":{"lat":52.1100006103516,"lng":5.12472200393677},"countryCode":"NL"},{"uicCode":"8400327","stationCode":"HOR","name":"Hollandsche Rading","coordinate":{"lat":52.1777763366699,"lng":5.17916679382324},"countryCode":"NL"},{"uicCode":"8400570","stationCode":"HVSP","name":"Hilversum Sportpark","coordinate":{"lat":52.2161102294922,"lng":5.18722200393677},"countryCode":"NL"},{"uicCode":"8400322","stationCode":"HVS","name":"Hilversum","coordinate":{"lat":52.2258338928223,"lng":5.18194437026978},"countryCode":"NL"},{"uicCode":"8400324","stationCode":"HVSM","name":"Hilversum Media Park","coordinate":{"lat":52.2380561828613,"lng":5.17388868331909},"countryCode":"NL"},{"uicCode":"8400145","stationCode":"BSMZ","name":"Bussum Zuid","coordinate":{"lat":52.2658348083496,"lng":5.16305541992188},"countryCode":"NL"},{"uicCode":"8400452","stationCode":"NDB","name":"Naarden-Bussum","coordinate":{"lat":52.2802772521973,"lng":5.15694427490234},"countryCode":"NL"},{"uicCode":"8400450","stationCode":"AMPO","name":"Almere Poort","coordinate":{"lat":52.342778,"lng":5.151944},"countryCode":"NL"},{"uicCode":"8400082","stationCode":"ALMM","name":"Almere Muziekwijk","coordinate":{"lat":52.3675003051758,"lng":5.19027757644653},"countryCode":"NL"},{"uicCode":"8400080","stationCode":"ALM","name":"Almere Centrum","coordinate":{"lat":52.37503,"lng":5.21764},"countryCode":"NL"}],"direction":"ONE_WAY"},"description":"dienstregeling aangepast","level":"LESS_TRAINS"},"sectionType":"NL"}],"timespans":[{"start":"2023-07-01T04:00:00+0200","end":"2023-07-03T02:00:00+0200","period":"Zaterdag 01-07-2023 04:00 uur t/m maandag 03-07-2023 02:00 uur.","situation":{"label":"Door werkzaamheden elders: tussen Utrecht Centraal en Almere Centrum is de dienstregeling aangepast."},"cause":{"label":"werkzaamheden elders"},"additionalTravelTime":{"label":"U heeft geen langere reistijd.","shortLabel":"Geen extra reistijd"},"advices":["Sprinters Utrecht C-Almere Centrum rijden 1x per uur met aangepaste vertrektijden."]}],"alternativeTransportTimespans":[]},{"id":"7003598","type":"MAINTENANCE","registrationTime":"2023-06-26T13:40:54+0200","releaseTime":"2023-06-26T13:40:54+0200","local":false,"title":"Maastricht - Liège / Luik.","titleSections":[[{"type":"STATION","value":"Maastricht"},{"type":"ICON","value":"MAINTENANCE"},{"type":"STATION","value":"Visé"},{"type":"STATION","value":"Liège-Guillemins"}]],"isActive":false,"start":"2023-07-01T05:30:00+0200","end":"2023-07-03T01:10:00+0200","period":"Zaterdag 01-07-2023 05:30 uur t/m maandag 03-07-2023 01:10 uur.","impact":{"value":3},"summaryAdditionalTravelTime":{"label":"De extra reistijd is ongeveer 30 minuten.","shortLabel":"Extra reistijd 30 min.","minimumDurationInMinutes":30,"maximumDurationInMinutes":30},"publicationSections":[{"section":{"stations":[{"uicCode":"8400424","stationCode":"MT","name":"Maastricht","coordinate":{"lat":50.8502769470215,"lng":5.70555543899536},"countryCode":"NL"},{"uicCode":"8400426","stationCode":"MTR","name":"Maastricht Randwyck","coordinate":{"lat":50.8386116027832,"lng":5.71722221374512},"countryCode":"NL"},{"uicCode":"8400219","stationCode":"EDN","name":"Eijsden","coordinate":{"lat":50.7719459533691,"lng":5.71000003814697},"countryCode":"NL"},{"uicCode":"8846201","stationCode":"FVS","name":"Visé","coordinate":{"lat":50.73781,"lng":5.69232},"countryCode":"B"},{"uicCode":"8843901","stationCode":"BRESSX","name":"Bressoux","coordinate":{"lat":50.643829,"lng":5.6112542},"countryCode":"B"},{"uicCode":"8841004","stationCode":"LUIK","name":"Liège-Guillemins","coordinate":{"lat":50.62436,"lng":5.56648},"countryCode":"B"}],"direction":"BOTH"},"consequence":{"section":{"stations":[{"uicCode":"8400424","stationCode":"MT","name":"Maastricht","coordinate":{"lat":50.8502769470215,"lng":5.70555543899536},"countryCode":"NL"},{"uicCode":"8400426","stationCode":"MTR","name":"Maastricht Randwyck","coordinate":{"lat":50.8386116027832,"lng":5.71722221374512},"countryCode":"NL"},{"uicCode":"8400219","stationCode":"EDN","name":"Eijsden","coordinate":{"lat":50.7719459533691,"lng":5.71000003814697},"countryCode":"NL"},{"uicCode":"8846201","stationCode":"FVS","name":"Visé","coordinate":{"lat":50.73781,"lng":5.69232},"countryCode":"B"}],"direction":"ONE_WAY"},"description":"rijden bussen","level":"LESS_TRAINS"},"sectionType":"NEIGHBORING_COUNTRY"}],"timespans":[{"start":"2023-07-01T05:30:00+0200","end":"2023-07-03T01:10:00+0200","period":"Zaterdag 01-07-2023 05:30 uur t/m maandag 03-07-2023 01:10 uur.","situation":{"label":"Door werkzaamheden: tussen Maastricht en Visé rijden er bussen."},"cause":{"label":"werkzaamheden"},"additionalTravelTime":{"label":"De extra reistijd is ongeveer 30 minuten.","shortLabel":"Extra reistijd 30 min.","minimumDurationInMinutes":30,"maximumDurationInMinutes":30},"alternativeTransport":{"label":"er rijden stopbussen","shortLabel":"er rijden stopbussen"},"advices":[]}],"alternativeTransportTimespans":[{"start":"2023-07-01T05:30:00+0200","end":"2023-07-03T01:10:00+0200","alternativeTransport":{"location":[{"station":{"uicCode":"8400424","stationCode":"MT","name":"Maastricht","coordinate":{"lat":50.8502769470215,"lng":5.70555543899536},"countryCode":"NL"},"description":"vanaf het Stationsplein"},{"station":{"uicCode":"8400426","stationCode":"MTR","name":"Maastricht Randwyck","coordinate":{"lat":50.8386116027832,"lng":5.71722221374512},"countryCode":"NL"},"description":"vanaf de OV-halte aan de Joseph Bechlaan op het viaduct"},{"station":{"uicCode":"8400219","stationCode":"EDN","name":"Eijsden","coordinate":{"lat":50.7719459533691,"lng":5.71000003814697},"countryCode":"NL"},"description":"vanaf de voorzijde van het station"}],"label":"Er rijden stopbussen tussen Maastricht, Maastricht Randwyck, Eijsden en Visé.","shortLabel":"Er rijden stopbussen Maastricht - Randwyck - Eijsden - Visé"}}]},{"id":"7003715","type":"MAINTENANCE","registrationTime":"2023-06-26T13:44:21+0200","releaseTime":"2023-06-26T13:44:21+0200","local":false,"title":"Maastricht - Randwijck.","titleSections":[[{"type":"STATION","value":"Maastricht"},{"type":"ICON","value":"MAINTENANCE"},{"type":"STATION","value":"Randwyck"}]],"isActive":false,"start":"2023-07-01T05:30:00+0200","end":"2023-07-03T01:10:00+0200","period":"Zaterdag 01-07-2023 05:30 uur t/m maandag 03-07-2023 01:10 uur.","impact":{"value":3},"summaryAdditionalTravelTime":{"label":"De extra reistijd is ongeveer 15 minuten.","shortLabel":"Extra reistijd 15 min.","minimumDurationInMinutes":15,"maximumDurationInMinutes":15},"publicationSections":[{"section":{"stations":[{"uicCode":"8400424","stationCode":"MT","name":"Maastricht","coordinate":{"lat":50.8502769470215,"lng":5.70555543899536},"countryCode":"NL"},{"uicCode":"8400426","stationCode":"MTR","name":"Maastricht Randwyck","coordinate":{"lat":50.8386116027832,"lng":5.71722221374512},"countryCode":"NL"}],"direction":"BOTH"},"consequence":{"section":{"stations":[{"uicCode":"8400424","stationCode":"MT","name":"Maastricht","coordinate":{"lat":50.8502769470215,"lng":5.70555543899536},"countryCode":"NL"},{"uicCode":"8400426","stationCode":"MTR","name":"Maastricht Randwyck","coordinate":{"lat":50.8386116027832,"lng":5.71722221374512},"countryCode":"NL"}],"direction":"ONE_WAY"},"description":"rijden bussen","level":"LESS_TRAINS"},"sectionType":"NL"}],"timespans":[{"start":"2023-07-01T05:30:00+0200","end":"2023-07-03T01:10:00+0200","period":"Zaterdag 01-07-2023 05:30 uur t/m maandag 03-07-2023 01:10 uur.","situation":{"label":"Door werkzaamheden: tussen Maastricht en Maastricht Randwyck rijden er bussen."},"cause":{"label":"werkzaamheden"},"additionalTravelTime":{"label":"De extra reistijd is ongeveer 15 minuten.","shortLabel":"Extra reistijd 15 min.","minimumDurationInMinutes":15,"maximumDurationInMinutes":15},"alternativeTransport":{"label":"maak gebruik van de stadsbussen","shortLabel":"gebruik de stadsbussen"},"advices":[]}],"alternativeTransportTimespans":[{"start":"2023-07-01T05:30:00+0200","end":"2023-07-03T01:10:00+0200","alternativeTransport":{"location":[{"station":{"uicCode":"8400424","stationCode":"MT","name":"Maastricht","coordinate":{"lat":50.8502769470215,"lng":5.70555543899536},"countryCode":"NL"},"description":"vanaf het Stationsplein"},{"station":{"uicCode":"8400426","stationCode":"MTR","name":"Maastricht Randwyck","coordinate":{"lat":50.8386116027832,"lng":5.71722221374512},"countryCode":"NL"},"description":"vanaf de OV-halte aan de Joseph Bechlaan op het viaduct"}],"label":"Maak gebruik van de stadsbussen tussen Maastricht en Maastricht Randwyck.","shortLabel":"Gebruik de stadsbussen Maastricht - Randwyck"}}]},{"id":"7003654","type":"MAINTENANCE","registrationTime":"2023-06-06T07:13:44+0200","releaseTime":"2023-06-06T07:13:44+0200","local":false,"title":"Amsterdam - Gouda.","titleSections":[[{"type":"STATION","value":"Amsterdam C."},{"type":"ICON","value":"MAINTENANCE"},{"type":"STATION","value":"Woerden"},{"type":"STATION","value":"Gouda"}]],"isActive":false,"start":"2023-07-01T06:15:00+0200","end":"2023-07-02T10:20:00+0200","period":"Zaterdag 01-07-2023 06:15 uur t/m zondag 02-07-2023 10:20 uur.","impact":{"value":2},"summaryAdditionalTravelTime":{"label":"De extra reistijd kan oplopen tot 30 minuten.","shortLabel":"Extra reistijd tot 30 min.","maximumDurationInMinutes":30},"publicationSections":[{"section":{"stations":[{"uicCode":"8400058","stationCode":"ASD","name":"Amsterdam Centraal","coordinate":{"lat":52.3788871765137,"lng":4.90027761459351},"countryCode":"NL"},{"uicCode":"8400060","stationCode":"ASDM","name":"Amsterdam Muiderpoort","coordinate":{"lat":52.3605537414551,"lng":4.93111133575439},"countryCode":"NL"},{"uicCode":"8400057","stationCode":"ASA","name":"Amsterdam Amstel","coordinate":{"lat":52.3466682434082,"lng":4.91777801513672},"countryCode":"NL"},{"uicCode":"8400194","stationCode":"DVD","name":"Duivendrecht","coordinate":{"lat":52.3233337402344,"lng":4.93638896942139},"countryCode":"NL"},{"uicCode":"8400074","stationCode":"ASB","name":"Amsterdam Bijlmer ArenA","coordinate":{"lat":52.3122215270996,"lng":4.94694423675537},"countryCode":"NL"},{"uicCode":"8400231","stationCode":"ASHD","name":"Amsterdam Holendrecht","coordinate":{"lat":52.29844,"lng":4.95972},"countryCode":"NL"},{"uicCode":"8400047","stationCode":"AC","name":"Abcoude","coordinate":{"lat":52.2785,"lng":4.977},"countryCode":"NL"},{"uicCode":"8400133","stationCode":"BKL","name":"Breukelen","coordinate":{"lat":52.17149,"lng":4.9906},"countryCode":"NL"},{"uicCode":"8400702","stationCode":"WD","name":"Woerden","coordinate":{"lat":52.0849990844727,"lng":4.89361095428467},"countryCode":"NL"},{"uicCode":"8400257","stationCode":"GDG","name":"Gouda Goverwelle","coordinate":{"lat":52.0149993896484,"lng":4.7408332824707},"countryCode":"NL"},{"uicCode":"8400258","stationCode":"GD","name":"Gouda","coordinate":{"lat":52.0175018310547,"lng":4.70444440841675},"countryCode":"NL"}],"direction":"BOTH"},"consequence":{"section":{"stations":[{"uicCode":"8400058","stationCode":"ASD","name":"Amsterdam Centraal","coordinate":{"lat":52.3788871765137,"lng":4.90027761459351},"countryCode":"NL"},{"uicCode":"8400060","stationCode":"ASDM","name":"Amsterdam Muiderpoort","coordinate":{"lat":52.3605537414551,"lng":4.93111133575439},"countryCode":"NL"},{"uicCode":"8400057","stationCode":"ASA","name":"Amsterdam Amstel","coordinate":{"lat":52.3466682434082,"lng":4.91777801513672},"countryCode":"NL"},{"uicCode":"8400194","stationCode":"DVD","name":"Duivendrecht","coordinate":{"lat":52.3233337402344,"lng":4.93638896942139},"countryCode":"NL"},{"uicCode":"8400074","stationCode":"ASB","name":"Amsterdam Bijlmer ArenA","coordinate":{"lat":52.3122215270996,"lng":4.94694423675537},"countryCode":"NL"},{"uicCode":"8400231","stationCode":"ASHD","name":"Amsterdam Holendrecht","coordinate":{"lat":52.29844,"lng":4.95972},"countryCode":"NL"},{"uicCode":"8400047","stationCode":"AC","name":"Abcoude","coordinate":{"lat":52.2785,"lng":4.977},"countryCode":"NL"},{"uicCode":"8400133","stationCode":"BKL","name":"Breukelen","coordinate":{"lat":52.17149,"lng":4.9906},"countryCode":"NL"},{"uicCode":"8400702","stationCode":"WD","name":"Woerden","coordinate":{"lat":52.0849990844727,"lng":4.89361095428467},"countryCode":"NL"}],"direction":"ONE_WAY"},"description":"geen treinen","level":"LESS_TRAINS"},"sectionType":"NL"}],"timespans":[{"start":"2023-07-01T06:15:00+0200","end":"2023-07-02T10:20:00+0200","period":"Zaterdag 01-07-2023 06:15 uur t/m zondag 02-07-2023 10:20 uur.","situation":{"label":"Door werkzaamheden: tussen Amsterdam Centraal en Woerden rijden er geen treinen."},"cause":{"label":"werkzaamheden"},"additionalTravelTime":{"label":"De extra reistijd kan oplopen tot 30 minuten.","shortLabel":"Extra reistijd tot 30 min.","maximumDurationInMinutes":30},"advices":["Tussen Amsterdam C. en Woerden reist u via Utrecht C."]}],"alternativeTransportTimespans":[]},{"id":"7003633","type":"MAINTENANCE","registrationTime":"2023-06-09T12:51:45+0200","releaseTime":"2023-06-09T12:51:45+0200","local":false,"title":"Amersfoort - Ede-Wageningen.","titleSections":[[{"type":"STATION","value":"Amersfoort C."},{"type":"ICON","value":"MAINTENANCE"},{"type":"STATION","value":"Ede-Wageningen"}]],"isActive":false,"start":"2023-07-02T00:45:00+0200","end":"2023-07-02T04:00:00+0200","period":"Zondag 02-07-2023 00:45 uur t/m zondag 02-07-2023 04:00 uur.","impact":{"value":3},"summaryAdditionalTravelTime":{"label":"De extra reistijd kan oplopen tot 30 minuten.","shortLabel":"Extra reistijd tot 30 min.","maximumDurationInMinutes":30},"publicationSections":[{"section":{"stations":[{"uicCode":"8400055","stationCode":"AMF","name":"Amersfoort Centraal","coordinate":{"lat":52.1538887023926,"lng":5.37055540084839},"countryCode":"NL"},{"uicCode":"8400490","stationCode":"HVL","name":"Hoevelaken","coordinate":{"lat":52.16652,"lng":5.45718},"countryCode":"NL"},{"uicCode":"8400092","stationCode":"BNN","name":"Barneveld Noord","coordinate":{"lat":52.1613883972168,"lng":5.59805536270142},"countryCode":"NL"},{"uicCode":"8400091","stationCode":"BNC","name":"Barneveld Centrum","coordinate":{"lat":52.1399993896484,"lng":5.59027767181396},"countryCode":"NL"},{"uicCode":"8400115","stationCode":"BNZ","name":"Barneveld Zuid","coordinate":{"lat":52.128853,"lng":5.60246},"countryCode":"NL"},{"uicCode":"8400405","stationCode":"LTN","name":"Lunteren","coordinate":{"lat":52.085277557373,"lng":5.62444448471069},"countryCode":"NL"},{"uicCode":"8400201","stationCode":"EDC","name":"Ede Centrum","coordinate":{"lat":52.0436096191406,"lng":5.66833353042603},"countryCode":"NL"},{"uicCode":"8400200","stationCode":"ED","name":"Ede-Wageningen","coordinate":{"lat":52.0277786254883,"lng":5.67305564880371},"countryCode":"NL"}],"direction":"BOTH"},"consequence":{"section":{"stations":[{"uicCode":"8400055","stationCode":"AMF","name":"Amersfoort Centraal","coordinate":{"lat":52.1538887023926,"lng":5.37055540084839},"countryCode":"NL"},{"uicCode":"8400490","stationCode":"HVL","name":"Hoevelaken","coordinate":{"lat":52.16652,"lng":5.45718},"countryCode":"NL"},{"uicCode":"8400092","stationCode":"BNN","name":"Barneveld Noord","coordinate":{"lat":52.1613883972168,"lng":5.59805536270142},"countryCode":"NL"},{"uicCode":"8400091","stationCode":"BNC","name":"Barneveld Centrum","coordinate":{"lat":52.1399993896484,"lng":5.59027767181396},"countryCode":"NL"},{"uicCode":"8400115","stationCode":"BNZ","name":"Barneveld Zuid","coordinate":{"lat":52.128853,"lng":5.60246},"countryCode":"NL"},{"uicCode":"8400405","stationCode":"LTN","name":"Lunteren","coordinate":{"lat":52.085277557373,"lng":5.62444448471069},"countryCode":"NL"},{"uicCode":"8400201","stationCode":"EDC","name":"Ede Centrum","coordinate":{"lat":52.0436096191406,"lng":5.66833353042603},"countryCode":"NL"},{"uicCode":"8400200","stationCode":"ED","name":"Ede-Wageningen","coordinate":{"lat":52.0277786254883,"lng":5.67305564880371},"countryCode":"NL"}],"direction":"ONE_WAY"},"description":"rijden bussen","level":"LESS_TRAINS"},"sectionType":"NL"}],"timespans":[{"start":"2023-07-02T00:45:00+0200","end":"2023-07-02T04:00:00+0200","period":"Zondag 02-07-2023 00:45 uur t/m zondag 02-07-2023 04:00 uur.","situation":{"label":"Door werkzaamheden: tussen Amersfoort Centraal en Ede-Wageningen rijden er bussen."},"cause":{"label":"werkzaamheden"},"additionalTravelTime":{"label":"De extra reistijd kan oplopen tot 30 minuten.","shortLabel":"Extra reistijd tot 30 min.","maximumDurationInMinutes":30},"alternativeTransport":{"label":"er rijden stopbussen","shortLabel":"er rijden stopbussen"},"advices":[]}],"alternativeTransportTimespans":[{"start":"2023-07-02T00:45:00+0200","end":"2023-07-02T04:00:00+0200","alternativeTransport":{"location":[{"station":{"uicCode":"8400055","stationCode":"AMF","name":"Amersfoort Centraal","coordinate":{"lat":52.1538887023926,"lng":5.37055540084839},"countryCode":"NL"},"description":"vanaf het busstation, centrumzijde"},{"station":{"uicCode":"8400490","stationCode":"HVL","name":"Hoevelaken","coordinate":{"lat":52.16652,"lng":5.45718},"countryCode":"NL"},"description":"vanaf de bushalte aan de Stoutenburg"},{"station":{"uicCode":"8400092","stationCode":"BNN","name":"Barneveld Noord","coordinate":{"lat":52.1613883972168,"lng":5.59805536270142},"countryCode":"NL"},"description":"vanaf het Stationsplein"},{"station":{"uicCode":"8400091","stationCode":"BNC","name":"Barneveld Centrum","coordinate":{"lat":52.1399993896484,"lng":5.59027767181396},"countryCode":"NL"},"description":"vanaf de voorzijde van het station"},{"station":{"uicCode":"8400405","stationCode":"LTN","name":"Lunteren","coordinate":{"lat":52.085277557373,"lng":5.62444448471069},"countryCode":"NL"},"description":"vanaf het Stationsplein"},{"station":{"uicCode":"8400201","stationCode":"EDC","name":"Ede Centrum","coordinate":{"lat":52.0436096191406,"lng":5.66833353042603},"countryCode":"NL"},"description":"vanaf de bushalte aan de Telefoonweg"},{"station":{"uicCode":"8400200","stationCode":"ED","name":"Ede-Wageningen","coordinate":{"lat":52.0277786254883,"lng":5.67305564880371},"countryCode":"NL"},"description":"vanaf het Noordplein"}],"label":"Er rijden stopbussen tussen Amersfoort Centraal, Hoevelaken, Barneveld Noord, Barneveld Centrum, Lunteren, Ede Centrum en Ede-Wageningen.","shortLabel":"Er rijden stopbussen Amersfoort C. - Hoevelaken - Barneveld Noord - Barneveld C. - Lunteren - Ede C. - Ede-Wageningen"}}]},{"id":"7003708","type":"MAINTENANCE","registrationTime":"2023-06-27T07:44:55+0200","releaseTime":"2023-06-27T07:44:55+0200","local":false,"title":"Amsterdam - Haarlem.","titleSections":[[{"type":"STATION","value":"Amsterdam C."},{"type":"ICON","value":"MAINTENANCE"},{"type":"STATION","value":"Haarlem"}]],"isActive":false,"start":"2023-07-02T02:40:00+0200","end":"2023-07-02T04:15:00+0200","period":"Zondag 02-07-2023 02:40 uur t/m zondag 02-07-2023 04:15 uur.","impact":{"value":2},"summaryAdditionalTravelTime":{"label":"De extra reistijd kan oplopen tot 15 minuten.","shortLabel":"Extra reistijd tot 15 min.","maximumDurationInMinutes":15},"publicationSections":[{"section":{"stations":[{"uicCode":"8400058","stationCode":"ASD","name":"Amsterdam Centraal","coordinate":{"lat":52.3788871765137,"lng":4.90027761459351},"countryCode":"NL"},{"uicCode":"8400059","stationCode":"ASS","name":"Amsterdam Sloterdijk","coordinate":{"lat":52.3888893127441,"lng":4.83777761459351},"countryCode":"NL"},{"uicCode":"8400400","stationCode":"HWZB","name":"Halfweg-Zwanenburg","coordinate":{"lat":52.385935,"lng":4.747165},"countryCode":"NL"},{"uicCode":"8400270","stationCode":"HLMS","name":"Haarlem Spaarnwoude","coordinate":{"lat":52.3827781677246,"lng":4.67305564880371},"countryCode":"NL"},{"uicCode":"8400285","stationCode":"HLM","name":"Haarlem","coordinate":{"lat":52.3877792358398,"lng":4.63833332061768},"countryCode":"NL"}],"direction":"BOTH"},"consequence":{"section":{"stations":[{"uicCode":"8400058","stationCode":"ASD","name":"Amsterdam Centraal","coordinate":{"lat":52.3788871765137,"lng":4.90027761459351},"countryCode":"NL"},{"uicCode":"8400059","stationCode":"ASS","name":"Amsterdam Sloterdijk","coordinate":{"lat":52.3888893127441,"lng":4.83777761459351},"countryCode":"NL"},{"uicCode":"8400400","stationCode":"HWZB","name":"Halfweg-Zwanenburg","coordinate":{"lat":52.385935,"lng":4.747165},"countryCode":"NL"},{"uicCode":"8400270","stationCode":"HLMS","name":"Haarlem Spaarnwoude","coordinate":{"lat":52.3827781677246,"lng":4.67305564880371},"countryCode":"NL"},{"uicCode":"8400285","stationCode":"HLM","name":"Haarlem","coordinate":{"lat":52.3877792358398,"lng":4.63833332061768},"countryCode":"NL"}],"direction":"ONE_WAY"},"description":"rijden bussen","level":"LESS_TRAINS"},"sectionType":"NL"}],"timespans":[{"start":"2023-07-02T02:40:00+0200","end":"2023-07-02T04:15:00+0200","period":"Zondag 02-07-2023 02:40 uur t/m zondag 02-07-2023 04:15 uur.","situation":{"label":"Door werkzaamheden: tussen Amsterdam Centraal en Haarlem rijden er bussen."},"cause":{"label":"werkzaamheden"},"additionalTravelTime":{"label":"De extra reistijd kan oplopen tot 15 minuten.","shortLabel":"Extra reistijd tot 15 min.","maximumDurationInMinutes":15},"alternativeTransport":{"label":"er rijden bussen","shortLabel":"er rijden bussen"},"advices":[]}],"alternativeTransportTimespans":[{"start":"2023-07-02T02:40:00+0200","end":"2023-07-02T04:15:00+0200","alternativeTransport":{"location":[{"station":{"uicCode":"8400058","stationCode":"ASD","name":"Amsterdam Centraal","coordinate":{"lat":52.3788871765137,"lng":4.90027761459351},"countryCode":"NL"},"description":"vanaf het busstation"},{"station":{"uicCode":"8400285","stationCode":"HLM","name":"Haarlem","coordinate":{"lat":52.3877792358398,"lng":4.63833332061768},"countryCode":"NL"},"description":"vanaf de Jansweg"}],"label":"Er rijden bussen tussen Amsterdam Centraal en Haarlem.","shortLabel":"Er rijden bussen Amsterdam C. - Haarlem"}}]},{"id":"7003660","type":"MAINTENANCE","registrationTime":"2023-06-20T11:10:31+0200","releaseTime":"2023-06-20T11:10:31+0200","local":false,"title":"Breda - Roosendaal.","titleSections":[[{"type":"STATION","value":"Breda"},{"type":"ICON","value":"MAINTENANCE"},{"type":"STATION","value":"Roosendaal"}]],"isActive":false,"start":"2023-07-07T00:45:00+0200","end":"2023-07-07T01:20:00+0200","period":"Vrijdag 07-07-2023 00:45 uur t/m vrijdag 07-07-2023 01:20 uur.","impact":{"value":3},"summaryAdditionalTravelTime":{"label":"De extra reistijd is ongeveer 15 minuten.","shortLabel":"Extra reistijd 15 min.","minimumDurationInMinutes":15,"maximumDurationInMinutes":15},"publicationSections":[{"section":{"stations":[{"uicCode":"8400131","stationCode":"BD","name":"Breda","coordinate":{"lat":51.5955543518066,"lng":4.78000020980835},"countryCode":"NL"},{"uicCode":"8400218","stationCode":"ETN","name":"Etten-Leur","coordinate":{"lat":51.5750007629395,"lng":4.63583326339722},"countryCode":"NL"},{"uicCode":"8400526","stationCode":"RSD","name":"Roosendaal","coordinate":{"lat":51.5402793884277,"lng":4.45833349227905},"countryCode":"NL"}],"direction":"ONE_WAY"},"consequence":{"section":{"stations":[{"uicCode":"8400131","stationCode":"BD","name":"Breda","coordinate":{"lat":51.5955543518066,"lng":4.78000020980835},"countryCode":"NL"},{"uicCode":"8400218","stationCode":"ETN","name":"Etten-Leur","coordinate":{"lat":51.5750007629395,"lng":4.63583326339722},"countryCode":"NL"},{"uicCode":"8400526","stationCode":"RSD","name":"Roosendaal","coordinate":{"lat":51.5402793884277,"lng":4.45833349227905},"countryCode":"NL"}],"direction":"ONE_WAY"},"description":"rijden bussen","level":"LESS_TRAINS"},"sectionType":"NL"}],"timespans":[{"start":"2023-07-07T00:45:00+0200","end":"2023-07-07T01:20:00+0200","period":"Vrijdag 07-07-2023 00:45 uur t/m vrijdag 07-07-2023 01:20 uur.","situation":{"label":"Door werkzaamheden: van Breda naar Roosendaal rijden er bussen."},"cause":{"label":"werkzaamheden"},"additionalTravelTime":{"label":"De extra reistijd is ongeveer 15 minuten.","shortLabel":"Extra reistijd 15 min.","minimumDurationInMinutes":15,"maximumDurationInMinutes":15},"alternativeTransport":{"label":"er rijden snelbussen","shortLabel":"er rijden snelbussen"},"advices":[]}],"alternativeTransportTimespans":[{"start":"2023-07-07T00:45:00+0200","end":"2023-07-07T01:20:00+0200","alternativeTransport":{"location":[{"station":{"uicCode":"8400131","stationCode":"BD","name":"Breda","coordinate":{"lat":51.5955543518066,"lng":4.78000020980835},"countryCode":"NL"},"description":"vanaf de Belcrumzijde"},{"station":{"uicCode":"8400218","stationCode":"ETN","name":"Etten-Leur","coordinate":{"lat":51.5750007629395,"lng":4.63583326339722},"countryCode":"NL"},"description":"vanaf de voorzijde van het station"},{"station":{"uicCode":"8400526","stationCode":"RSD","name":"Roosendaal","coordinate":{"lat":51.5402793884277,"lng":4.45833349227905},"countryCode":"NL"},"description":"vanaf de voorzijde van het station"}],"label":"Er rijden snelbussen van Breda, Etten-Leur naar Roosendaal.","shortLabel":"Er rijden snelbussen Breda -> Etten-Leur -> Roosendaal"}}]},{"id":"7003631","type":"MAINTENANCE","registrationTime":"2023-06-13T09:52:16+0200","releaseTime":"2023-06-13T09:52:16+0200","local":false,"title":"Dordrecht - Roosendaal.","titleSections":[[{"type":"STATION","value":"Dordrecht"},{"type":"STATION","value":"Lage Zwaluwe"},{"type":"ICON","value":"MAINTENANCE"},{"type":"STATION","value":"Roosendaal"}]],"isActive":false,"start":"2023-07-07T00:45:00+0200","end":"2023-07-10T01:50:00+0200","period":"Vrijdag 07-07-2023 00:45 uur t/m maandag 10-07-2023 01:50 uur.","impact":{"value":3},"summaryAdditionalTravelTime":{"label":"De extra reistijd kan oplopen tot 45 minuten.","shortLabel":"Extra reistijd tot 45 min.","maximumDurationInMinutes":45},"publicationSections":[{"section":{"stations":[{"uicCode":"8400180","stationCode":"DDR","name":"Dordrecht","coordinate":{"lat":51.8072204589844,"lng":4.66833353042603},"countryCode":"NL"},{"uicCode":"8400181","stationCode":"DDZD","name":"Dordrecht Zuid","coordinate":{"lat":51.7900009155273,"lng":4.67138910293579},"countryCode":"NL"},{"uicCode":"8400382","stationCode":"ZLW","name":"Lage Zwaluwe","coordinate":{"lat":51.6911125183105,"lng":4.66305541992188},"countryCode":"NL"},{"uicCode":"8400737","stationCode":"ZVB","name":"Zevenbergen","coordinate":{"lat":51.64042,"lng":4.60904},"countryCode":"NL"},{"uicCode":"8400498","stationCode":"ODB","name":"Oudenbosch","coordinate":{"lat":51.587776184082,"lng":4.53333330154419},"countryCode":"NL"},{"uicCode":"8400526","stationCode":"RSD","name":"Roosendaal","coordinate":{"lat":51.5402793884277,"lng":4.45833349227905},"countryCode":"NL"}],"direction":"BOTH"},"consequence":{"section":{"stations":[{"uicCode":"8400382","stationCode":"ZLW","name":"Lage Zwaluwe","coordinate":{"lat":51.6911125183105,"lng":4.66305541992188},"countryCode":"NL"},{"uicCode":"8400737","stationCode":"ZVB","name":"Zevenbergen","coordinate":{"lat":51.64042,"lng":4.60904},"countryCode":"NL"},{"uicCode":"8400498","stationCode":"ODB","name":"Oudenbosch","coordinate":{"lat":51.587776184082,"lng":4.53333330154419},"countryCode":"NL"},{"uicCode":"8400526","stationCode":"RSD","name":"Roosendaal","coordinate":{"lat":51.5402793884277,"lng":4.45833349227905},"countryCode":"NL"}],"direction":"ONE_WAY"},"description":"rijden bussen","level":"LESS_TRAINS"},"sectionType":"NL"}],"timespans":[{"start":"2023-07-07T00:45:00+0200","end":"2023-07-10T01:50:00+0200","period":"Vrijdag 07-07-2023 00:45 uur t/m maandag 10-07-2023 01:50 uur.","situation":{"label":"Door werkzaamheden: tussen Lage Zwaluwe en Roosendaal rijden er bussen."},"cause":{"label":"werkzaamheden"},"additionalTravelTime":{"label":"De extra reistijd kan oplopen tot 45 minuten.","shortLabel":"Extra reistijd tot 45 min.","maximumDurationInMinutes":45},"alternativeTransport":{"label":"er rijden stop- en snelbussen","shortLabel":"er rijden stop- en snelbussen"},"advices":["Tussen Rotterdam C. en Roosendaal reist u via Breda","Tussen Dordrecht en Roosendaal reist u via Breda"]}],"alternativeTransportTimespans":[{"start":"2023-07-07T01:05:00+0200","end":"2023-07-07T02:25:00+0200","alternativeTransport":{"location":[{"station":{"uicCode":"8400180","stationCode":"DDR","name":"Dordrecht","coordinate":{"lat":51.8072204589844,"lng":4.66833353042603},"countryCode":"NL"},"description":"vanaf de voorzijde van het station"},{"station":{"uicCode":"8400526","stationCode":"RSD","name":"Roosendaal","coordinate":{"lat":51.5402793884277,"lng":4.45833349227905},"countryCode":"NL"},"description":"vanaf de voorzijde van het station"}],"label":"Er rijden snelbussen van Dordrecht naar Roosendaal.","shortLabel":"Er rijden snelbussen Dordrecht -> Roosendaal"}},{"start":"2023-07-07T01:05:00+0200","end":"2023-07-07T02:25:00+0200","alternativeTransport":{"location":[{"station":{"uicCode":"8400180","stationCode":"DDR","name":"Dordrecht","coordinate":{"lat":51.8072204589844,"lng":4.66833353042603},"countryCode":"NL"},"description":"vanaf de voorzijde van het station"},{"station":{"uicCode":"8400181","stationCode":"DDZD","name":"Dordrecht Zuid","coordinate":{"lat":51.7900009155273,"lng":4.67138910293579},"countryCode":"NL"},"description":"vanaf de Spirea"},{"station":{"uicCode":"8400382","stationCode":"ZLW","name":"Lage Zwaluwe","coordinate":{"lat":51.6911125183105,"lng":4.66305541992188},"countryCode":"NL"},"description":"vanaf de Westelijke Parallelweg"},{"station":{"uicCode":"8400737","stationCode":"ZVB","name":"Zevenbergen","coordinate":{"lat":51.64042,"lng":4.60904},"countryCode":"NL"},"description":"vanaf de Stationslaan"},{"station":{"uicCode":"8400498","stationCode":"ODB","name":"Oudenbosch","coordinate":{"lat":51.587776184082,"lng":4.53333330154419},"countryCode":"NL"},"description":"vanaf de Stationsstraat"},{"station":{"uicCode":"8400526","stationCode":"RSD","name":"Roosendaal","coordinate":{"lat":51.5402793884277,"lng":4.45833349227905},"countryCode":"NL"},"description":"vanaf de voorzijde van het station"}],"label":"Er rijden stopbussen van Dordrecht, Dordrecht Zuid, Lage Zwaluwe, Zevenbergen, Oudenbosch naar Roosendaal.","shortLabel":"Er rijden stopbussen Dordrecht -> Dordrecht Zuid -> Lage Zwaluwe -> Zevenbergen -> Oudenbosch -> Roosendaal"}},{"start":"2023-07-07T04:40:00+0200","end":"2023-07-10T00:30:00+0200","alternativeTransport":{"location":[{"station":{"uicCode":"8400382","stationCode":"ZLW","name":"Lage Zwaluwe","coordinate":{"lat":51.6911125183105,"lng":4.66305541992188},"countryCode":"NL"},"description":"vanaf de Westelijke Parallelweg"},{"station":{"uicCode":"8400737","stationCode":"ZVB","name":"Zevenbergen","coordinate":{"lat":51.64042,"lng":4.60904},"countryCode":"NL"},"description":"vanaf de voorzijde van het station"},{"station":{"uicCode":"8400498","stationCode":"ODB","name":"Oudenbosch","coordinate":{"lat":51.587776184082,"lng":4.53333330154419},"countryCode":"NL"},"description":"vanaf de Stationsstraat"},{"station":{"uicCode":"8400526","stationCode":"RSD","name":"Roosendaal","coordinate":{"lat":51.5402793884277,"lng":4.45833349227905},"countryCode":"NL"},"description":"vanaf de voorzijde van het station"}],"label":"Er rijden bussen tussen Lage Zwaluwe, Zevenbergen, Oudenbosch en Roosendaal.","shortLabel":"Er rijden bussen Lage Zwaluwe - Zevenbergen - Oudenbosch - Roosendaal"}},