[{"id":"6026088","type":"DISRUPTION","registrationTime":"2023-10-06T05:24:05+0200","releaseTime":"2023-10-06T05:24:05+0200","local":false,"title":"Amsterdam Sloterdijk-Hoorn Kersenboogerd","titleSections":[[{"type":"STATION","value":"Sloterdijk"},{"type":"STATION","value":"Hoorn"},{"type":"ICON","value":"DISRUPTION"},{"type":"STATION","value":"Kersenboogerd"}]],"topic":"disruption_6026088_nl","isActive":true,"start":"2023-10-06T04:15:02+0200","end":"2023-10-06T07:54:05+0200","phase":{"id":"2","label":"Impact bekend"},"impact":{"value":2},"expectedDuration":{"description":"Dit duurt de rest van de dag."},"summaryAdditionalTravelTime":{"label":"De extra reistijd kan oplopen tot 30 minuten.","shortLabel":"Extra reistijd tot 30 min.","maximumDurationInMinutes":30},"publicationSections":[{"section":{"stations":[{"uicCode":"8400059","stationCode":"ASS","name":"Amsterdam Sloterdijk","coordinate":{"lat":52.3888893127441,"lng":4.83777761459351},"countryCode":"NL"},{"uicCode":"8400731","stationCode":"ZD","name":"Zaandam","coordinate":{"lat":52.4388885498047,"lng":4.81361103057861},"countryCode":"NL"},{"uicCode":"8400728","stationCode":"ZDK","name":"Zaandam Kogerveld","coordinate":{"lat":52.4566650390625,"lng":4.82027769088745},"countryCode":"NL"},{"uicCode":"8400499","stationCode":"PMW","name":"Purmerend Weidevenne","coordinate":{"lat":52.4965906325416,"lng":4.93562936782836},"countryCode":"NL"},{"uicCode":"8400508","stationCode":"PMR","name":"Purmerend","coordinate":{"lat":52.5030555725098,"lng":4.95361089706421},"countryCode":"NL"},{"uicCode":"8400506","stationCode":"PMO","name":"Purmerend Overwhere","coordinate":{"lat":52.5113906860352,"lng":4.96833324432373},"countryCode":"NL"},{"uicCode":"8400337","stationCode":"HN","name":"Hoorn","coordinate":{"lat":52.6447219848633,"lng":5.05555534362793},"countryCode":"NL"},{"uicCode":"8400336","stationCode":"HNK","name":"Hoorn Kersenboogerd","coordinate":{"lat":52.6536102294922,"lng":5.08555555343628},"countryCode":"NL"}],"direction":"BOTH"},"consequence":{"section":{"stations":[{"uicCode":"8400337","stationCode":"HN","name":"Hoorn","coordinate":{"lat":52.6447219848633,"lng":5.05555534362793},"countryCode":"NL"},{"uicCode":"8400336","stationCode":"HNK","name":"Hoorn Kersenboogerd","coordinate":{"lat":52.6536102294922,"lng":5.08555555343628},"countryCode":"NL"}],"direction":"ONE_WAY"},"description":"geen Sprinters","level":"LESS_TRAINS"},"sectionType":"NL"}],"timespans":[{"start":"2023-10-06T04:15:02+0200","end":"2023-10-06T07:54:05+0200","situation":{"label":"Tussen Hoorn en Hoorn Kersenboogerd rijden er geen Sprinters door hinder op het spoor."},"cause":{"label":"Hinder op het spoor"},"additionalTravelTime":{"label":"De extra reistijd kan oplopen tot 30 minuten.","shortLabel":"Extra reistijd tot 30 min.","maximumDurationInMinutes":30},"advices":[]}],"alternativeTransportTimespans":[]},{"id":"c5231d3c-9b24-446a-84c0-4c5e0c339ca3","title":"Nachtnet stopt niet op Delft","topic":"disruption_c5231d3c-9b24-446a-84c0-4c5e0c339ca3_nl","description":"Door werkzaamheden rijdt het nachtnet tussen Rotterdam en Den Haag Hollands Spoor via een andere route en stopt tussen 00.30 en 05.00 uur niet op Delft.\r\nEr rijden bussen. Plan je reis in de app.","priority":"PRIO_3","lastUpdated":"2023-10-05T14:31:00+0200","bodyItems":[],"buttons":{"position":["BOTTOM"],"items":[{"label":"Plan je reis","type":"PLANNER","accessibilityLabel":"Plan je reis","url":"https://www.ns.nl/reisplanner"}]},"url":"https://www.ns.nl/reisinformatie/calamiteiten/witte-regel-buta-delft.html","type":"CALAMITY","isActive":true},{"id":"7003946","type":"MAINTENANCE","registrationTime":"2023-09-26T09:47:33+0200","releaseTime":"2023-09-26T09:47:33+0200","local":false,"title":"Enschede - Gronau - Dortmund.","titleSections":[[{"type":"STATION","value":"Enschede"},{"type":"STATION","value":"Lünen Hbf"},{"type":"ICON","value":"MAINTENANCE"},{"type":"STATION","value":"Dortmund Hbf"}]],"isActive":true,"start":"2023-09-29T20:30:00+0200","end":"2023-10-10T00:00:00+0200","period":"Vrijdag 29-09-2023 20:30 uur t/m dinsdag 10-10-2023 00:00 uur.","impact":{"value":2},"summaryAdditionalTravelTime":{"label":"U heeft geen langere reistijd.","shortLabel":"Geen extra reistijd"},"publicationSections":[{"section":{"stations":[{"uicCode":"8400212","stationCode":"ES","name":"Enschede","coordinate":{"lat":52.2224998474121,"lng":6.8899998664856},"countryCode":"NL"},{"uicCode":"8400217","stationCode":"ESE","name":"Enschede De Eschmarke","coordinate":{"lat":52.2213897705078,"lng":6.95111131668091},"countryCode":"NL"},{"uicCode":"8400262","stationCode":"GBR","name":"Glanerbrug","coordinate":{"lat":52.2186126708984,"lng":6.97444438934326},"countryCode":"NL"},{"uicCode":"8021128","stationCode":"G","name":"Gronau (Westf.)","coordinate":{"lat":52.21521,"lng":7.022109},"countryCode":"D"},{"uicCode":"8021126","stationCode":"EEPE","name":"Epe (Westf)","coordinate":{"lat":52.18346,"lng":7.03009},"countryCode":"D"},{"uicCode":"8021123","stationCode":"EAHS","name":"Ahaus","coordinate":{"lat":52.079796120944,"lng":7.01635837554931},"countryCode":"D"},{"uicCode":"8021122","stationCode":"ELGD","name":"Legden","coordinate":{"lat":52.034924,"lng":7.088538},"countryCode":"D"},{"uicCode":"8021121","stationCode":"EHW","name":"Rosendahl-Holtwick","coordinate":{"lat":51.9994672604096,"lng":7.1215009689331},"countryCode":"D"},{"uicCode":"8021119","stationCode":"ECMF","name":"Coesfeld (Westf)","coordinate":{"lat":51.939,"lng":7.1642},"countryCode":"D"},{"uicCode":"8021117","stationCode":"ELET","name":"Lette (Kr Coesfeld)","coordinate":{"lat":51.8925,"lng":7.187},"countryCode":"D"},{"uicCode":"8021005","stationCode":"EDULH","name":"Dülmen","coordinate":{"lat":51.827927,"lng":7.295756},"countryCode":"D"},{"uicCode":"8021113","stationCode":"ELDH","name":"Lüdinghausen","coordinate":{"lat":51.76184,"lng":7.43165},"countryCode":"D"},{"uicCode":"8021112","stationCode":"ESEM","name":"Selm","coordinate":{"lat":51.707885,"lng":7.453396},"countryCode":"D"},{"uicCode":"8021120","stationCode":"ESEB","name":"Selm-Beifang","coordinate":{"lat":51.692947,"lng":7.454829},"countryCode":"D"},{"uicCode":"8021111","stationCode":"EBOK","name":"Bork (Westf)","coordinate":{"lat":51.66988,"lng":7.45664},"countryCode":"D"},{"uicCode":"8010098","stationCode":"ELUE","name":"Lünen Hbf","coordinate":{"lat":51.61713,"lng":7.52949},"countryCode":"D"},{"uicCode":"8010100","stationCode":"EPRN","name":"Preussen","coordinate":{"lat":51.58833,"lng":7.53933},"countryCode":"D"},{"uicCode":"8010101","stationCode":"EDD","name":"Dortmund Derne","coordinate":{"lat":51.56754,"lng":7.52855},"countryCode":"D"},{"uicCode":"8010102","stationCode":"EDKD","name":"Dortmund Kirchderne","coordinate":{"lat":51.547076,"lng":7.510099},"countryCode":"D"},{"uicCode":"8010053","stationCode":"EDO","name":"Dortmund Hbf","coordinate":{"lat":51.517896,"lng":7.45929},"countryCode":"D"}],"direction":"BOTH"},"consequence":{"section":{"stations":[{"uicCode":"8010098","stationCode":"ELUE","name":"Lünen Hbf","coordinate":{"lat":51.61713,"lng":7.52949},"countryCode":"D"},{"uicCode":"8010100","stationCode":"EPRN","name":"Preussen","coordinate":{"lat":51.58833,"lng":7.53933},"countryCode":"D"},{"uicCode":"8010101","stationCode":"EDD","name":"Dortmund Derne","coordinate":{"lat":51.56754,"lng":7.52855},"countryCode":"D"},{"uicCode":"8010102","stationCode":"EDKD","name":"Dortmund Kirchderne","coordinate":{"lat":51.547076,"lng":7.510099},"countryCode":"D"},{"uicCode":"8010053","stationCode":"EDO","name":"Dortmund Hbf","coordinate":{"lat":51.517896,"lng":7.45929},"countryCode":"D"}],"direction":"ONE_WAY"},"description":"aangepaste internationale dienstregeling","level":"LESS_TRAINS"},"sectionType":"NEIGHBORING_COUNTRY"}],"timespans":[{"start":"2023-09-29T20:30:00+0200","end":"2023-10-10T00:00:00+0200","period":"Vrijdag 29-09-2023 20:30 uur t/m dinsdag 10-10-2023 00:00 uur.","situation":{"label":"Door werkzaamheden: tussen Lünen Hbf en Dortmund Hbf is de internationale dienstregeling aangepast."},"cause":{"label":"werkzaamheden"},"additionalTravelTime":{"label":"U heeft geen langere reistijd.","shortLabel":"Geen extra reistijd"},"alternativeTransport":{"label":"er rijden stopbussen","shortLabel":"er rijden stopbussen"},"advices":["Dagelijks businzet tussen Lünen Hbf en Dortmund Hbf tussen 20.50 en 00.00 uur."]}],"alternativeTransportTimespans":[{"start":"2023-09-29T20:30:00+0200","end":"2023-10-10T00:00:00+0200","alternativeTransport":{"location":[],"label":"Er rijden stopbussen tussen Lünen Hbf en Dortmund Hbf.","shortLabel":"er rijden stopbussen Lünen Hbf - Dortmund Hbf"}}]},{"id":"7003918","type":"MAINTENANCE","registrationTime":"2023-10-03T12:52:52+0200","releaseTime":"2023-10-03T12:52:52+0200","local":false,"title":"Dordrecht - Roosendaal.; Dordrecht - Breda","titleSections":[[{"type":"STATION","value":"Dordrecht"},{"type":"STATION","value":"Lage Zwaluwe"},{"type":"ICON","value":"MAINTENANCE"},{"type":"STATION","value":"Roosendaal"}],[{"type":"STATION","value":"Dordrecht"},{"type":"ICON","value":"MAINTENANCE"},{"type":"STATION","value":"Roosendaal"}],[{"type":"STATION","value":"Dordrecht"},{"type":"ICON","value":"MAINTENANCE"},{"type":"STATION","value":"Lage Zwaluwe"},{"type":"STATION","value":"Breda"}]],"isActive":true,"start":"2023-09-30T04:00:00+0200","end":"2023-10-11T02:00:00+0200","period":"Zaterdag 30-09-2023 04:00 uur t/m woensdag 11-10-2023 02:00 uur.","impact":{"value":5},"summaryAdditionalTravelTime":{"label":"De extra reistijd kan oplopen tot 30 minuten.","shortLabel":"Extra reistijd tot 30 min.","minimumDurationInMinutes":30,"maximumDurationInMinutes":30},"publicationSections":[{"section":{"stations":[{"uicCode":"8400180","stationCode":"DDR","name":"Dordrecht","coordinate":{"lat":51.8072204589844,"lng":4.66833353042603},"countryCode":"NL"},{"uicCode":"8400181","stationCode":"DDZD","name":"Dordrecht Zuid","coordinate":{"lat":51.7900009155273,"lng":4.67138910293579},"countryCode":"NL"},{"uicCode":"8400382","stationCode":"ZLW","name":"Lage Zwaluwe","coordinate":{"lat":51.6911125183105,"lng":4.66305541992188},"countryCode":"NL"},{"uicCode":"8400737","stationCode":"ZVB","name":"Zevenbergen","coordinate":{"lat":51.64042,"lng":4.60904},"countryCode":"NL"},{"uicCode":"8400498","stationCode":"ODB","name":"Oudenbosch","coordinate":{"lat":51.587776184082,"lng":4.53333330154419},"countryCode":"NL"},{"uicCode":"8400526","stationCode":"RSD","name":"Roosendaal","coordinate":{"lat":51.5402793884277,"lng":4.45833349227905},"countryCode":"NL"}],"direction":"BOTH"},"consequence":{"section":{"stations":[{"uicCode":"8400382","stationCode":"ZLW","name":"Lage Zwaluwe","coordinate":{"lat":51.6911125183105,"lng":4.66305541992188},"countryCode":"NL"},{"uicCode":"8400737","stationCode":"ZVB","name":"Zevenbergen","coordinate":{"lat":51.64042,"lng":4.60904},"countryCode":"NL"},{"uicCode":"8400498","stationCode":"ODB","name":"Oudenbosch","coordinate":{"lat":51.587776184082,"lng":4.53333330154419},"countryCode":"NL"},{"uicCode":"8400526","stationCode":"RSD","name":"Roosendaal","coordinate":{"lat":51.5402793884277,"lng":4.45833349227905},"countryCode":"NL"}],"direction":"ONE_WAY"},"description":"rijden bussen","level":"LESS_TRAINS"},"sectionType":"NL"},{"section":{"stations":[{"uicCode":"8400180","stationCode":"DDR","name":"Dordrecht","coordinate":{"lat":51.8072204589844,"lng":4.66833353042603},"countryCode":"NL"},{"uicCode":"8400181","stationCode":"DDZD","name":"Dordrecht Zuid","coordinate":{"lat":51.7900009155273,"lng":4.67138910293579},"countryCode":"NL"},{"uicCode":"8400382","stationCode":"ZLW","name":"Lage Zwaluwe","coordinate":{"lat":51.6911125183105,"lng":4.66305541992188},"countryCode":"NL"},{"uicCode":"8400737","stationCode":"ZVB","name":"Zevenbergen","coordinate":{"lat":51.64042,"lng":4.60904},"countryCode":"NL"},{"uicCode":"8400498","stationCode":"ODB","name":"Oudenbosch","coordinate":{"lat":51.587776184082,"lng":4.53333330154419},"countryCode":"NL"},{"uicCode":"8400526","stationCode":"RSD","name":"Roosendaal","coordinate":{"lat":51.5402793884277,"lng":4.45833349227905},"countryCode":"NL"}],"direction":"BOTH"},"consequence":{"section":{"stations":[{"uicCode":"8400180","stationCode":"DDR","name":"Dordrecht","coordinate":{"lat":51.8072204589844,"lng":4.66833353042603},"countryCode":"NL"},{"uicCode":"8400181","stationCode":"DDZD","name":"Dordrecht Zuid","coordinate":{"lat":51.7900009155273,"lng":4.67138910293579},"countryCode":"NL"},{"uicCode":"8400382","stationCode":"ZLW","name":"Lage Zwaluwe","coordinate":{"lat":51.6911125183105,"lng":4.66305541992188},"countryCode":"NL"},{"uicCode":"8400737","stationCode":"ZVB","name":"Zevenbergen","coordinate":{"lat":51.64042,"lng":4.60904},"countryCode":"NL"},{"uicCode":"8400498","stationCode":"ODB","name":"Oudenbosch","coordinate":{"lat":51.587776184082,"lng":4.53333330154419},"countryCode":"NL"},{"uicCode":"8400526","stationCode":"RSD","name":"Roosendaal","coordinate":{"lat":51.5402793884277,"lng":4.45833349227905},"countryCode":"NL"}],"direction":"ONE_WAY"},"description":"rijden bussen","level":"LESS_TRAINS"},"sectionType":"NL"},{"section":{"stations":[{"uicCode":"8400180","stationCode":"DDR","name":"Dordrecht","coordinate":{"lat":51.8072204589844,"lng":4.66833353042603},"countryCode":"NL"},{"uicCode":"8400181","stationCode":"DDZD","name":"Dordrecht Zuid","coordinate":{"lat":51.7900009155273,"lng":4.67138910293579},"countryCode":"NL"},{"uicCode":"8400382","stationCode":"ZLW","name":"Lage Zwaluwe","coordinate":{"lat":51.6911125183105,"lng":4.66305541992188},"countryCode":"NL"},{"uicCode":"8400132","stationCode":"BDPB","name":"Breda-Prinsenbeek","coordinate":{"lat":51.606388092041,"lng":4.72083330154419},"countryCode":"NL"},{"uicCode":"8400131","stationCode":"BD","name":"Breda","coordinate":{"lat":51.5955543518066,"lng":4.78000020980835},"countryCode":"NL"}],"direction":"BOTH"},"consequence":{"section":{"stations":[{"uicCode":"8400180","stationCode":"DDR","name":"Dordrecht","coordinate":{"lat":51.8072204589844,"lng":4.66833353042603},"countryCode":"NL"},{"uicCode":"8400181","stationCode":"DDZD","name":"Dordrecht Zuid","coordinate":{"lat":51.7900009155273,"lng":4.67138910293579},"countryCode":"NL"},{"uicCode":"8400382","stationCode":"ZLW","name":"Lage Zwaluwe","coordinate":{"lat":51.6911125183105,"lng":4.66305541992188},"countryCode":"NL"}],"direction":"ONE_WAY"},"description":"rijden bussen","level":"LESS_TRAINS"},"sectionType":"NL"}],"timespans":[{"start":"2023-09-30T04:00:00+0200","end":"2023-10-07T03:00:00+0200","period":"Zaterdag 30-09-2023 04:00 uur t/m zaterdag 07-10-2023 03:00 uur.","situation":{"label":"Door werkzaamheden: tussen Lage Zwaluwe en Roosendaal rijden er bussen."},"cause":{"label":"werkzaamheden"},"additionalTravelTime":{"label":"De extra reistijd is ongeveer 30 minuten.","shortLabel":"extra reistijd 30 min.","minimumDurationInMinutes":30,"maximumDurationInMinutes":30},"alternativeTransport":{"label":"er rijden stopbussen","shortLabel":"er rijden stopbussen"},"advices":["tussen Rotterdam C. en Roosendaal/Vlissingen reist u via Breda"]},{"start":"2023-10-07T03:00:00+0200","end":"2023-10-09T02:00:00+0200","period":"Zaterdag 07-10-2023 03:00 uur t/m maandag 09-10-2023 02:00 uur.","situation":{"label":"Door werkzaamheden: tussen Dordrecht en Roosendaal rijden er bussen en tussen Dordrecht en Lage Zwaluwe rijden er bussen."},"cause":{"label":"werkzaamheden"},"additionalTravelTime":{"label":"De extra reistijd is ongeveer 30 minuten.","shortLabel":"extra reistijd 30 min.","minimumDurationInMinutes":30,"maximumDurationInMinutes":30},"alternativeTransport":{"label":"maak gebruik van het vervangende vervoer","shortLabel":"gebruik het vervangende vervoer"},"advices":["tussen Rotterdam C. en Roosendaal/Vlissingen reist u via Breda"]},{"start":"2023-10-09T03:00:00+0200","end":"2023-10-11T02:00:00+0200","period":"Maandag 09-10-2023 03:00 uur t/m woensdag 11-10-2023 02:00 uur.","situation":{"label":"Door werkzaamheden: tussen Lage Zwaluwe en Roosendaal rijden er bussen."},"cause":{"label":"werkzaamheden"},"additionalTravelTime":{"label":"De extra reistijd is ongeveer 30 minuten.","shortLabel":"extra reistijd 30 min.","minimumDurationInMinutes":30,"maximumDurationInMinutes":30},"alternativeTransport":{"label":"er rijden stopbussen","shortLabel":"er rijden stopbussen"},"advices":["tussen Rotterdam C. en Roosendaal/Vlissingen reist u via Breda"]}],"alternativeTransportTimespans":[{"start":"2023-09-30T04:00:00+0200","end":"2023-10-02T02:00:00+0200","alternativeTransport":{"location":[{"station":{"uicCode":"8400382","stationCode":"ZLW","name":"Lage Zwaluwe","coordinate":{"lat":51.6911125183105,"lng":4.66305541992188},"countryCode":"NL"},"description":"vanaf de Westelijke Parallelweg"},{"station":{"uicCode":"8400737","stationCode":"ZVB","name":"Zevenbergen","coordinate":{"lat":51.64042,"lng":4.60904},"countryCode":"NL"},"description":"vanaf de voorzijde van het station"},{"station":{"uicCode":"8400498","stationCode":"ODB","name":"Oudenbosch","coordinate":{"lat":51.587776184082,"lng":4.53333330154419},"countryCode":"NL"},"description":"vanaf de Stationsstraat"},{"station":{"uicCode":"8400526","stationCode":"RSD","name":"Roosendaal","coordinate":{"lat":51.5402793884277,"lng":4.45833349227905},"countryCode":"NL"},"description":"vanaf de voorzijde van het station"}],"label":"Er rijden stopbussen tussen Lage Zwaluwe, Zevenbergen, Oudenbosch en Roosendaal.","shortLabel":"er rijden stopbussen Lage Zwaluwe - Zevenbergen - Oudenbosch - Roosendaal"}},{"start":"2023-10-02T04:00:00+0200","end":"2023-10-07T02:00:00+0200","alternativeTransport":{"location":[{"station":{"uicCode":"8400382","stationCode":"ZLW","name":"Lage Zwaluwe","coordinate":{"lat":51.6911125183105,"lng":4.66305541992188},"countryCode":"NL"},"description":"vanaf de Westelijke Parallelweg"},{"station":{"uicCode":"8400737","stationCode":"ZVB","name":"Zevenbergen","coordinate":{"lat":51.64042,"lng":4.60904},"countryCode":"NL"},"description":"vanaf de voorzijde van het station"},{"station":{"uicCode":"8400498","stationCode":"ODB","name":"Oudenbosch","coordinate":{"lat":51.587776184082,"lng":4.53333330154419},"countryCode":"NL"},"description":"vanaf de Stationsstraat"},{"station":{"uicCode":"8400526","stationCode":"RSD","name":"Roosendaal","coordinate":{"lat":51.5402793884277,"lng":4.45833349227905},"countryCode":"NL"},"description":"vanaf de voorzijde van het station"}],"label":"Er rijden stopbussen tussen Lage Zwaluwe, Zevenbergen, Oudenbosch en Roosendaal.","shortLabel":"er rijden stopbussen Lage Zwaluwe - Zevenbergen - Oudenbosch - Roosendaal"}},{"start":"2023-10-07T00:55:00+0200","end":"2023-10-07T03:10:00+0200","alternativeTransport":{"location":[{"station":{"uicCode":"8400530","stationCode":"RTD","name":"Rotterdam Centraal","coordinate":{"lat":51.9249992370605,"lng":4.46888875961304},"countryCode":"NL"},"description":"vanaf de Conradstraat aan de centrumzijde"},{"station":{"uicCode":"8400180","stationCode":"DDR","name":"Dordrecht","coordinate":{"lat":51.8072204589844,"lng":4.66833353042603},"countryCode":"NL"},"description":"Burgemeester de Raadtsingel"},{"station":{"uicCode":"8400131","stationCode":"BD","name":"Breda","coordinate":{"lat":51.5955543518066,"lng":4.78000020980835},"countryCode":"NL"},"description":"vanaf de Belcrumzijde"}],"label":"Er rijden snelbussen tussen Rotterdam Centraal, Dordrecht en Breda.","shortLabel":"er rijden snelbussen Rotterdam C. - Dordrecht - Breda"}},{"start":"2023-10-07T03:00:00+0200","end":"2023-10-09T02:00:00+0200","alternativeTransport":{"location":[{"station":{"uicCode":"8400180","stationCode":"DDR","name":"Dordrecht","coordinate":{"lat":51.8072204589844,"lng":4.66833353042603},"countryCode":"NL"},"description":"Burgemeester de Raadtsingel"},{"station":{"uicCode":"8400382","stationCode":"ZLW","name":"Lage Zwaluwe","coordinate":{"lat":51.6911125183105,"lng":4.66305541992188},"countryCode":"NL"},"description":"vanaf de Westelijke Parallelweg"},{"station":{"uicCode":"8400737","stationCode":"ZVB","name":"Zevenbergen","coordinate":{"lat":51.64042,"lng":4.60904},"countryCode":"NL"},"description":"vanaf de voorzijde van het station"},{"station":{"uicCode":"8400498","stationCode":"ODB","name":"Oudenbosch","coordinate":{"lat":51.587776184082,"lng":4.53333330154419},"countryCode":"NL"},"description":"vanaf de Stationsstraat"},{"station":{"uicCode":"8400526","stationCode":"RSD","name":"Roosendaal","coordinate":{"lat":51.5402793884277,"lng":4.45833349227905},"countryCode":"NL"},"description":"vanaf de voorzijde van het station"}],"label":"Er rijden stopbussen tussen Dordrecht, Lage Zwaluwe, Zevenbergen, Oudenbosch en Roosendaal.","shortLabel":"er rijden stopbussen Dordrecht - Lage Zwaluwe - Zevenbergen - Oudenbosch - Roosendaal"}},{"start":"2023-10-07T03:00:00+0200","end":"2023-10-09T02:00:00+0200","alternativeTransport":{"location":[{"station":{"uicCode":"8400180","stationCode":"DDR","name":"Dordrecht","coordinate":{"lat":51.8072204589844,"lng":4.66833353042603},"countryCode":"NL"},"description":"Burgemeester de Raadtsingel"},{"station":{"uicCode":"8400181","stationCode":"DDZD","name":"Dordrecht Zuid","coordinate":{"lat":51.7900009155273,"lng":4.67138910293579},"countryCode":"NL"},"description":"vanaf de Spirea"}],"label":"Er rijden taxibusjes tussen Dordrecht en Dordrecht Zuid.","shortLabel":"er rijden taxibusjes Dordrecht - Dordrecht Zuid"}},{"start":"2023-10-08T00:35:00+0200","end":"2023-10-08T03:10:00+0200","alternativeTransport":{"location":[{"station":{"uicCode":"8400530","stationCode":"RTD","name":"Rotterdam Centraal","coordinate":{"lat":51.9249992370605,"lng":4.46888875961304},"countryCode":"NL"},"description":"vanaf de Conradstraat aan de centrumzijde"},{"station":{"uicCode":"8400180","stationCode":"DDR","name":"Dordrecht","coordinate":{"lat":51.8072204589844,"lng":4.66833353042603},"countryCode":"NL"},"description":"Burgemeester de Raadtsingel"},{"station":{"uicCode":"8400131","stationCode":"BD","name":"Breda","coordinate":{"lat":51.5955543518066,"lng":4.78000020980835},"countryCode":"NL"},"description":"vanaf de Belcrumzijde"}],"label":"Er rijden snelbussen tussen Rotterdam Centraal, Dordrecht en Breda.","shortLabel":"er rijden snelbussen Rotterdam C. - Dordrecht - Breda"}},{"start":"2023-10-09T04:00:00+0200","end":"2023-10-11T02:00:00+0200","alternativeTransport":{"location":[{"station":{"uicCode":"8400382","stationCode":"ZLW","name":"Lage Zwaluwe","coordinate":{"lat":51.6911125183105,"lng":4.66305541992188},"countryCode":"NL"},"description":"vanaf de Westelijke Parallelweg"},{"station":{"uicCode":"8400737","stationCode":"ZVB","name":"Zevenbergen","coordinate":{"lat":51.64042,"lng":4.60904},"countryCode":"NL"},"description":"vanaf de voorzijde van het station"},{"station":{"uicCode":"8400498","stationCode":"ODB","name":"Oudenbosch","coordinate":{"lat":51.587776184082,"lng":4.53333330154419},"countryCode":"NL"},"description":"vanaf de Stationsstraat"},{"station":{"uicCode":"8400526","stationCode":"RSD","name":"Roosendaal","coordinate":{"lat":51.5402793884277,"lng":4.45833349227905},"countryCode":"NL"},"description":"vanaf de voorzijde van het station"}],"label":"Er rijden stopbussen tussen Lage Zwaluwe, Zevenbergen, Oudenbosch en Roosendaal.","shortLabel":"er rijden stopbussen Lage Zwaluwe - Zevenbergen - Oudenbosch - Roosendaal"}}]},{"id":"7003957","type":"MAINTENANCE","registrationTime":"2023-09-06T15:51:09+0200","releaseTime":"2023-09-06T15:51:09+0200","local":false,"title":"Schiphol - Lelystad; Schiphol - Amersfoort; Schiphol - Utrecht.; Schiphol - Amersfoort.","titleSections":[[{"type":"STATION","value":"Schiphol Airport"},{"type":"ICON","value":"MAINTENANCE"},{"type":"STATION","value":"Lelystad C."}],[{"type":"STATION","value":"Schiphol Airport"},{"type":"ICON","value":"MAINTENANCE"},{"type":"STATION","value":"Hilversum"},{"type":"STATION","value":"Amersfoort C."}],[{"type":"STATION","value":"Schiphol Airport"},{"type":"ICON","value":"MAINTENANCE"},{"type":"STATION","value":"Amsterdam Zuid"},{"type":"STATION","value":"Utrecht C."}],[{"type":"STATION","value":"Schiphol Airport"},{"type":"ICON","value":"MAINTENANCE"},{"type":"STATION","value":"Amsterdam Zuid"},{"type":"STATION","value":"Amersfoort C."}]],"isActive":true,"start":"2023-10-02T04:00:00+0200","end":"2023-10-09T02:00:00+0200","period":"Maandag 02-10-2023 04:00 uur t/m maandag 09-10-2023 02:00 uur.","impact":{"value":3},"summaryAdditionalTravelTime":{"label":"De extra reistijd kan oplopen tot 15 minuten.","shortLabel":"Extra reistijd tot 15 min.","minimumDurationInMinutes":15,"maximumDurationInMinutes":15},"publicationSections":[{"section":{"stations":[{"uicCode":"8400561","stationCode":"SHL","name":"Schiphol Airport","coordinate":{"lat":52.3094444274902,"lng":4.76194429397583},"countryCode":"NL"},{"uicCode":"8400061","stationCode":"ASDZ","name":"Amsterdam Zuid","coordinate":{"lat":52.338889,"lng":4.872356},"countryCode":"NL"},{"uicCode":"8400056","stationCode":"RAI","name":"Amsterdam RAI","coordinate":{"lat":52.3372230529785,"lng":4.89027786254883},"countryCode":"NL"},{"uicCode":"8400194","stationCode":"DVD","name":"Duivendrecht","coordinate":{"lat":52.3233337402344,"lng":4.93638896942139},"countryCode":"NL"},{"uicCode":"8400163","stationCode":"DMNZ","name":"Diemen Zuid","coordinate":{"lat":52.3302764892578,"lng":4.95583343505859},"countryCode":"NL"},{"uicCode":"8400685","stationCode":"WP","name":"Weesp","coordinate":{"lat":52.3127784729004,"lng":5.04305553436279},"countryCode":"NL"},{"uicCode":"8400450","stationCode":"AMPO","name":"Almere Poort","coordinate":{"lat":52.342778,"lng":5.151944},"countryCode":"NL"},{"uicCode":"8400082","stationCode":"ALMM","name":"Almere Muziekwijk","coordinate":{"lat":52.3675003051758,"lng":5.19027757644653},"countryCode":"NL"},{"uicCode":"8400080","stationCode":"ALM","name":"Almere Centrum","coordinate":{"lat":52.37503,"lng":5.21764},"countryCode":"NL"},{"uicCode":"8400104","stationCode":"ALMP","name":"Almere Parkwijk","coordinate":{"lat":52.3766670227051,"lng":5.24472236633301},"countryCode":"NL"},{"uicCode":"8400081","stationCode":"ALMB","name":"Almere Buiten","coordinate":{"lat":52.3941650390625,"lng":5.2780556678772},"countryCode":"NL"},{"uicCode":"8400226","stationCode":"ALMO","name":"Almere Oostvaarders","coordinate":{"lat":52.4033317565918,"lng":5.30055570602417},"countryCode":"NL"},{"uicCode":"8400394","stationCode":"LLS","name":"Lelystad Centrum","coordinate":{"lat":52.5077781677246,"lng":5.47277784347534},"countryCode":"NL"}],"direction":"BOTH"},"consequence":{"section":{"stations":[{"uicCode":"8400561","stationCode":"SHL","name":"Schiphol Airport","coordinate":{"lat":52.3094444274902,"lng":4.76194429397583},"countryCode":"NL"},{"uicCode":"8400061","stationCode":"ASDZ","name":"Amsterdam Zuid","coordinate":{"lat":52.338889,"lng":4.872356},"countryCode":"NL"},{"uicCode":"8400056","stationCode":"RAI","name":"Amsterdam RAI","coordinate":{"lat":52.3372230529785,"lng":4.89027786254883},"countryCode":"NL"},{"uicCode":"8400194","stationCode":"DVD","name":"Duivendrecht","coordinate":{"lat":52.3233337402344,"lng":4.93638896942139},"countryCode":"NL"},{"uicCode":"8400163","stationCode":"DMNZ","name":"Diemen Zuid","coordinate":{"lat":52.3302764892578,"lng":4.95583343505859},"countryCode":"NL"},{"uicCode":"8400685","stationCode":"WP","name":"Weesp","coordinate":{"lat":52.3127784729004,"lng":5.04305553436279},"countryCode":"NL"},{"uicCode":"8400450","stationCode":"AMPO","name":"Almere Poort","coordinate":{"lat":52.342778,"lng":5.151944},"countryCode":"NL"},{"uicCode":"8400082","stationCode":"ALMM","name":"Almere Muziekwijk","coordinate":{"lat":52.3675003051758,"lng":5.19027757644653},"countryCode":"NL"},{"uicCode":"8400080","stationCode":"ALM","name":"Almere Centrum","coordinate":{"lat":52.37503,"lng":5.21764},"countryCode":"NL"},{"uicCode":"8400104","stationCode":"ALMP","name":"Almere Parkwijk","coordinate":{"lat":52.3766670227051,"lng":5.24472236633301},"countryCode":"NL"},{"uicCode":"8400081","stationCode":"ALMB","name":"Almere Buiten","coordinate":{"lat":52.3941650390625,"lng":5.2780556678772},"countryCode":"NL"},{"uicCode":"8400226","stationCode":"ALMO","name":"Almere Oostvaarders","coordinate":{"lat":52.4033317565918,"lng":5.30055570602417},"countryCode":"NL"},{"uicCode":"8400394","stationCode":"LLS","name":"Lelystad Centrum","coordinate":{"lat":52.5077781677246,"lng":5.47277784347534},"countryCode":"NL"}],"direction":"ONE_WAY"},"description":"minder treinen","level":"LESS_TRAINS"},"sectionType":"NL"},{"section":{"stations":[{"uicCode":"8400561","stationCode":"SHL","name":"Schiphol Airport","coordinate":{"lat":52.3094444274902,"lng":4.76194429397583},"countryCode":"NL"},{"uicCode":"8400061","stationCode":"ASDZ","name":"Amsterdam Zuid","coordinate":{"lat":52.338889,"lng":4.872356},"countryCode":"NL"},{"uicCode":"8400056","stationCode":"RAI","name":"Amsterdam RAI","coordinate":{"lat":52.3372230529785,"lng":4.89027786254883},"countryCode":"NL"},{"uicCode":"8400194","stationCode":"DVD","name":"Duivendrecht","coordinate":{"lat":52.3233337402344,"lng":4.93638896942139},"countryCode":"NL"},{"uicCode":"8400163","stationCode":"DMNZ","name":"Diemen Zuid","coordinate":{"lat":52.3302764892578,"lng":4.95583343505859},"countryCode":"NL"},{"uicCode":"8400685","stationCode":"WP","name":"Weesp","coordinate":{"lat":52.3127784729004,"lng":5.04305553436279},"countryCode":"NL"},{"uicCode":"8400452","stationCode":"NDB","name":"Naarden-Bussum","coordinate":{"lat":52.2802772521973,"lng":5.15694427490234},"countryCode":"NL"},{"uicCode":"8400145","stationCode":"BSMZ","name":"Bussum Zuid","coordinate":{"lat":52.2658348083496,"lng":5.16305541992188},"countryCode":"NL"},{"uicCode":"8400324","stationCode":"HVSM","name":"Hilversum Media Park","coordinate":{"lat":52.2380561828613,"lng":5.17388868331909},"countryCode":"NL"},{"uicCode":"8400322","stationCode":"HVS","name":"Hilversum","coordinate":{"lat":52.2258338928223,"lng":5.18194437026978},"countryCode":"NL"},{"uicCode":"8400086","stationCode":"BRN","name":"Baarn","coordinate":{"lat":52.2083320617676,"lng":5.28083324432373},"countryCode":"NL"},{"uicCode":"8400055","stationCode":"AMF","name":"Amersfoort Centraal","coordinate":{"lat":52.1538887023926,"lng":5.37055540084839},"countryCode":"NL"}],"direction":"BOTH"},"consequence":{"section":{"stations":[{"uicCode":"8400561","stationCode":"SHL","name":"Schiphol Airport","coordinate":{"lat":52.3094444274902,"lng":4.76194429397583},"countryCode":"NL"},{"uicCode":"8400061","stationCode":"ASDZ","name":"Amsterdam Zuid","coordinate":{"lat":52.338889,"lng":4.872356},"countryCode":"NL"},{"uicCode":"8400056","stationCode":"RAI","name":"Amsterdam RAI","coordinate":{"lat":52.3372230529785,"lng":4.89027786254883},"countryCode":"NL"},{"uicCode":"8400194","stationCode":"DVD","name":"Duivendrecht","coordinate":{"lat":52.3233337402344,"lng":4.93638896942139},"countryCode":"NL"},{"uicCode":"8400163","stationCode":"DMNZ","name":"Diemen Zuid","coordinate":{"lat":52.3302764892578,"lng":4.95583343505859},"countryCode":"NL"},{"uicCode":"8400685","stationCode":"WP","name":"Weesp","coordinate":{"lat":52.3127784729004,"lng":5.04305553436279},"countryCode":"NL"},{"uicCode":"8400452","stationCode":"NDB","name":"Naarden-Bussum","coordinate":{"lat":52.2802772521973,"lng":5.15694427490234},"countryCode":"NL"},{"uicCode":"8400145","stationCode":"BSMZ","name":"Bussum Zuid","coordinate":{"lat":52.2658348083496,"lng":5.16305541992188},"countryCode":"NL"},{"uicCode":"8400324","stationCode":"HVSM","name":"Hilversum Media Park","coordinate":{"lat":52.2380561828613,"lng":5.17388868331909},"countryCode":"NL"},{"uicCode":"8400322","stationCode":"HVS","name":"Hilversum","coordinate":{"lat":52.2258338928223,"lng":5.18194437026978},"countryCode":"NL"}],"direction":"ONE_WAY"},"description":"minder treinen","level":"LESS_TRAINS"},"sectionType":"NL"},{"section":{"stations":[{"uicCode":"8400561","stationCode":"SHL","name":"Schiphol Airport","coordinate":{"lat":52.3094444274902,"lng":4.76194429397583},"countryCode":"NL"},{"uicCode":"8400061","stationCode":"ASDZ","name":"Amsterdam Zuid","coordinate":{"lat":52.338889,"lng":4.872356},"countryCode":"NL"},{"uicCode":"8400056","stationCode":"RAI","name":"Amsterdam RAI","coordinate":{"lat":52.3372230529785,"lng":4.89027786254883},"countryCode":"NL"},{"uicCode":"8400074","stationCode":"ASB","name":"Amsterdam Bijlmer ArenA","coordinate":{"lat":52.3122215270996,"lng":4.94694423675537},"countryCode":"NL"},{"uicCode":"8400231","stationCode":"ASHD","name":"Amsterdam Holendrecht","coordinate":{"lat":52.29844,"lng":4.95972},"countryCode":"NL"},{"uicCode":"8400047","stationCode":"AC","name":"Abcoude","coordinate":{"lat":52.2785,"lng":4.977},"countryCode":"NL"},{"uicCode":"8400133","stationCode":"BKL","name":"Breukelen","coordinate":{"lat":52.17149,"lng":4.9906},"countryCode":"NL"},{"uicCode":"8400419","stationCode":"MAS","name":"Maarssen","coordinate":{"lat":52.1352767944336,"lng":5.03361129760742},"countryCode":"NL"},{"uicCode":"8400613","stationCode":"UTZL","name":"Utrecht Zuilen","coordinate":{"lat":52.103055,"lng":5.09},"countryCode":"NL"},{"uicCode":"8400621","stationCode":"UT","name":"Utrecht Centraal","coordinate":{"lat":52.0888900756836,"lng":5.11027765274048},"countryCode":"NL"}],"direction":"BOTH"},"consequence":{"section":{"stations":[{"uicCode":"8400561","stationCode":"SHL","name":"Schiphol Airport","coordinate":{"lat":52.3094444274902,"lng":4.76194429397583},"countryCode":"NL"},{"uicCode":"8400061","stationCode":"ASDZ","name":"Amsterdam Zuid","coordinate":{"lat":52.338889,"lng":4.872356},"countryCode":"NL"}],"direction":"ONE_WAY"},"description":"minder treinen","level":"LESS_TRAINS"},"sectionType":"NL"},{"section":{"stations":[{"uicCode":"8400561","stationCode":"SHL","name":"Schiphol Airport","coordinate":{"lat":52.3094444274902,"lng":4.76194429397583},"countryCode":"NL"},{"uicCode":"8400061","stationCode":"ASDZ","name":"Amsterdam Zuid","coordinate":{"lat":52.338889,"lng":4.872356},"countryCode":"NL"},{"uicCode":"8400056","stationCode":"RAI","name":"Amsterdam RAI","coordinate":{"lat":52.3372230529785,"lng":4.89027786254883},"countryCode":"NL"},{"uicCode":"8400194","stationCode":"DVD","name":"Duivendrecht","coordinate":{"lat":52.3233337402344,"lng":4.93638896942139},"countryCode":"NL"},{"uicCode":"8400163","stationCode":"DMNZ","name":"Diemen Zuid","coordinate":{"lat":52.3302764892578,"lng":4.95583343505859},"countryCode":"NL"},{"uicCode":"8400685","stationCode":"WP","name":"Weesp","coordinate":{"lat":52.3127784729004,"lng":5.04305553436279},"countryCode":"NL"},{"uicCode":"8400452","stationCode":"NDB","name":"Naarden-Bussum","coordinate":{"lat":52.2802772521973,"lng":5.15694427490234},"countryCode":"NL"},{"uicCode":"8400145","stationCode":"BSMZ","name":"Bussum Zuid","coordinate":{"lat":52.2658348083496,"lng":5.16305541992188},"countryCode":"NL"},{"uicCode":"8400324","stationCode":"HVSM","name":"Hilversum Media Park","coordinate":{"lat":52.2380561828613,"lng":5.17388868331909},"countryCode":"NL"},{"uicCode":"8400322","stationCode":"HVS","name":"Hilversum","coordinate":{"lat":52.2258338928223,"lng":5.18194437026978},"countryCode":"NL"},{"uicCode":"8400086","stationCode":"BRN","name":"Baarn","coordinate":{"lat":52.2083320617676,"lng":5.28083324432373},"countryCode":"NL"},{"uicCode":"8400055","stationCode":"AMF","name":"Amersfoort Centraal","coordinate":{"lat":52.1538887023926,"lng":5.37055540084839},"countryCode":"NL"}],"direction":"BOTH"},"consequence":{"section":{"stations":[{"uicCode":"8400561","stationCode":"SHL","name":"Schiphol Airport","coordinate":{"lat":52.3094444274902,"lng":4.76194429397583},"countryCode":"NL"},{"uicCode":"8400061","stationCode":"ASDZ","name":"Amsterdam Zuid","coordinate":{"lat":52.338889,"lng":4.872356},"countryCode":"NL"}],"direction":"ONE_WAY"},"description":"minder treinen","level":"LESS_TRAINS"},"sectionType":"NL"}],"timespans":[{"start":"2023-10-02T04:00:00+0200","end":"2023-10-07T03:00:00+0200","period":"Maandag 02-10-2023 04:00 uur t/m zaterdag 07-10-2023 03:00 uur.","situation":{"label":"Door werkzaamheden: tussen Schiphol Airport en Lelystad Centrum rijden er minder treinen en tussen Schiphol Airport en Hilversum rijden er minder treinen en tussen Schiphol Airport en Amsterdam Zuid rijden er minder treinen."},"cause":{"label":"werkzaamheden"},"additionalTravelTime":{"label":"De extra reistijd is ongeveer 15 minuten.","shortLabel":"extra reistijd 15 min.","minimumDurationInMinutes":15,"maximumDurationInMinutes":15},"advices":["Let op! Ook vertrektijden zijn op diverse stations aangepast."]},{"start":"2023-10-07T03:00:00+0200","end":"2023-10-09T02:00:00+0200","period":"Zaterdag 07-10-2023 03:00 uur t/m maandag 09-10-2023 02:00 uur.","situation":{"label":"Door werkzaamheden: tussen Schiphol Airport en Amsterdam Zuid rijden er minder treinen."},"cause":{"label":"werkzaamheden"},"additionalTravelTime":{"label":"De extra reistijd is ongeveer 15 minuten.","shortLabel":"extra reistijd 15 min.","minimumDurationInMinutes":15,"maximumDurationInMinutes":15},"advices":["Let op! Ook vertrektijden zijn op diverse stations aangepast."]}],"alternativeTransportTimespans":[]},{"id":"7003975","type":"MAINTENANCE","registrationTime":"2023-10-03T10:13:06+0200","releaseTime":"2023-10-03T10:13:06+0200","local":false,"title":"Amersfoort - Zwolle; Zwolle - Groningen.","titleSections":[[{"type":"STATION","value":"Amersfoort C."},{"type":"STATION","value":"'t Harde"},{"type":"ICON","value":"MAINTENANCE"},{"type":"STATION","value":"Zwolle"}],[{"type":"STATION","value":"Zwolle"},{"type":"ICON","value":"MAINTENANCE"},{"type":"STATION","value":"Meppel"},{"type":"STATION","value":"Groningen"}]],"isActive":false,"start":"2023-10-07T01:25:00+0200","end":"2023-10-07T02:15:00+0200","period":"Zaterdag 07-10-2023 01:25 uur t/m zaterdag 07-10-2023 02:15 uur.","impact":{"value":3},"summaryAdditionalTravelTime":{"label":"De extra reistijd is ongeveer 15 minuten.","shortLabel":"extra reistijd 15 min.","minimumDurationInMinutes":15,"maximumDurationInMinutes":15},"publicationSections":[{"section":{"stations":[{"uicCode":"8400055","stationCode":"AMF","name":"Amersfoort Centraal","coordinate":{"lat":52.1538887023926,"lng":5.37055540084839},"countryCode":"NL"},{"uicCode":"8400054","stationCode":"AMFS","name":"Amersfoort Schothorst","coordinate":{"lat":52.1748221374512,"lng":5.40388870239258},"countryCode":"NL"},{"uicCode":"8400228","stationCode":"AVAT","name":"Amersfoort Vathorst","coordinate":{"lat":52.1927795410156,"lng":5.43388891220093},"countryCode":"NL"},{"uicCode":"8400469","stationCode":"NKK","name":"Nijkerk","coordinate":{"lat":52.2222213745117,"lng":5.49388885498047},"countryCode":"NL"},{"uicCode":"8400509","stationCode":"PT","name":"Putten","coordinate":{"lat":52.2649993896484,"lng":5.57527780532837},"countryCode":"NL"},{"uicCode":"8400216","stationCode":"EML","name":"Ermelo","coordinate":{"lat":52.3016662597656,"lng":5.61472225189209},"countryCode":"NL"},{"uicCode":"8400294","stationCode":"HD","name":"Harderwijk","coordinate":{"lat":52.3375015258789,"lng":5.61972236633301},"countryCode":"NL"},{"uicCode":"8400466","stationCode":"NS","name":"Nunspeet","coordinate":{"lat":52.3708343505859,"lng":5.78527784347534},"countryCode":"NL"},{"uicCode":"8400388","stationCode":"HDE","name":"'t Harde","coordinate":{"lat":52.4091682,"lng":5.893611},"countryCode":"NL"},{"uicCode":"8400690","stationCode":"WZ","name":"Wezep","coordinate":{"lat":52.4541664123535,"lng":6.00250005722046},"countryCode":"NL"},{"uicCode":"8400747","stationCode":"ZL","name":"Zwolle","coordinate":{"lat":52.5047225952148,"lng":6.09194421768188},"countryCode":"NL"}],"direction":"ONE_WAY"},"consequence":{"section":{"stations":[{"uicCode":"8400388","stationCode":"HDE","name":"'t Harde","coordinate":{"lat":52.4091682,"lng":5.893611},"countryCode":"NL"},{"uicCode":"8400690","stationCode":"WZ","name":"Wezep","coordinate":{"lat":52.4541664123535,"lng":6.00250005722046},"countryCode":"NL"},{"uicCode":"8400747","stationCode":"ZL","name":"Zwolle","coordinate":{"lat":52.5047225952148,"lng":6.09194421768188},"countryCode":"NL"}],"direction":"ONE_WAY"},"description":"rijden bussen","level":"LESS_TRAINS"},"sectionType":"NL"},{"section":{"stations":[{"uicCode":"8400747","stationCode":"ZL","name":"Zwolle","coordinate":{"lat":52.5047225952148,"lng":6.09194421768188},"countryCode":"NL"},{"uicCode":"8400435","stationCode":"MP","name":"Meppel","coordinate":{"lat":52.6908340454102,"lng":6.19750022888184},"countryCode":"NL"},{"uicCode":"8400330","stationCode":"HGV","name":"Hoogeveen","coordinate":{"lat":52.7338905334473,"lng":6.47361087799072},"countryCode":"NL"},{"uicCode":"8400100","stationCode":"BL","name":"Beilen","coordinate":{"lat":52.8547210693359,"lng":6.52111101150513},"countryCode":"NL"},{"uicCode":"8400073","stationCode":"ASN","name":"Assen","coordinate":{"lat":52.9916648864746,"lng":6.57083320617676},"countryCode":"NL"},{"uicCode":"8400297","stationCode":"HRN","name":"Haren","coordinate":{"lat":53.1761093139648,"lng":6.61722230911255},"countryCode":"NL"},{"uicCode":"8400238","stationCode":"GERP","name":"Groningen Europapark","coordinate":{"lat":53.20480027,"lng":6.5854178},"countryCode":"NL"},{"uicCode":"8400263","stationCode":"GN","name":"Groningen","coordinate":{"lat":53.2105560302734,"lng":6.56472206115723},"countryCode":"NL"}],"direction":"ONE_WAY"},"consequence":{"section":{"stations":[{"uicCode":"8400747","stationCode":"ZL","name":"Zwolle","coordinate":{"lat":52.5047225952148,"lng":6.09194421768188},"countryCode":"NL"},{"uicCode":"8400435","stationCode":"MP","name":"Meppel","coordinate":{"lat":52.6908340454102,"lng":6.19750022888184},"countryCode":"NL"}],"direction":"ONE_WAY"},"description":"rijden bussen","level":"LESS_TRAINS"},"sectionType":"NL"}],"timespans":[{"start":"2023-10-07T01:25:00+0200","end":"2023-10-07T02:15:00+0200","period":"Zaterdag 07-10-2023 01:25 uur t/m zaterdag 07-10-2023 02:15 uur.","situation":{"label":"Door werkzaamheden: van 't Harde naar Zwolle rijden er bussen en van Zwolle naar Meppel rijden er bussen."},"cause":{"label":"werkzaamheden"},"additionalTravelTime":{"label":"De extra reistijd is ongeveer 15 minuten.","shortLabel":"extra reistijd 15 min.","minimumDurationInMinutes":15,"maximumDurationInMinutes":15},"alternativeTransport":{"label":"er rijden bussen","shortLabel":"er rijden bussen"},"advices":[]}],"alternativeTransportTimespans":[{"start":"2023-10-07T01:25:00+0200","end":"2023-10-07T02:15:00+0200","alternativeTransport":{"location":[{"station":{"uicCode":"8400388","stationCode":"HDE","name":"'t Harde","coordinate":{"lat":52.4091682,"lng":5.893611},"countryCode":"NL"},"description":"vanaf de achterzijde van het station"}],"label":"Er rijden bussen van 't Harde, Zwolle naar Meppel.","shortLabel":"er rijden bussen 't Harde -> Zwolle -> Meppel"}}]},{"id":"7003826","type":"MAINTENANCE","registrationTime":"2023-09-06T15:45:22+0200","releaseTime":"2023-09-06T15:45:22+0200","local":false,"title":"Amsterdam - Rotterdam - Brussel (HSL).","titleSections":[[{"type":"STATION","value":"Amsterdam C."},{"type":"ICON","value":"MAINTENANCE"},{"type":"STATION","value":"Brussel-Z. Midi"}]],"isActive":false,"start":"2023-10-07T04:00:00+0200","end":"2023-10-08T23:59:00+0200","period":"Zaterdag 07-10-2023 04:00 uur t/m zondag 08-10-2023 23:59 uur.","impact":{"value":2},"summaryAdditionalTravelTime":{"label":"U heeft geen langere reistijd.","shortLabel":"Geen extra reistijd"},"publicationSections":[{"section":{"stations":[{"uicCode":"8400058","stationCode":"ASD","name":"Amsterdam Centraal","coordinate":{"lat":52.3788871765137,"lng":4.90027761459351},"countryCode":"NL"},{"uicCode":"8400059","stationCode":"ASS","name":"Amsterdam Sloterdijk","coordinate":{"lat":52.3888893127441,"lng":4.83777761459351},"countryCode":"NL"},{"uicCode":"8400079","stationCode":"ASDL","name":"Amsterdam Lelylaan","coordinate":{"lat":52.3577766418457,"lng":4.83388900756836},"countryCode":"NL"},{"uicCode":"8400561","stationCode":"SHL","name":"Schiphol Airport","coordinate":{"lat":52.3094444274902,"lng":4.76194429397583},"countryCode":"NL"},{"uicCode":"8400332","stationCode":"HFD","name":"Hoofddorp","coordinate":{"lat":52.2933349609375,"lng":4.70055532455444},"countryCode":"NL"},{"uicCode":"8400530","stationCode":"RTD","name":"Rotterdam Centraal","coordinate":{"lat":51.9249992370605,"lng":4.46888875961304},"countryCode":"NL"},{"uicCode":"8400529","stationCode":"RTB","name":"Rotterdam Blaak","coordinate":{"lat":51.9202766418457,"lng":4.48888874053955},"countryCode":"NL"},{"uicCode":"8400533","stationCode":"RTZ","name":"Rotterdam Zuid","coordinate":{"lat":51.9044456481934,"lng":4.51027774810791},"countryCode":"NL"},{"uicCode":"8400542","stationCode":"RLB","name":"Rotterdam Lombardijen","coordinate":{"lat":51.8800010681152,"lng":4.53138875961304},"countryCode":"NL"},{"uicCode":"8400132","stationCode":"BDPB","name":"Breda-Prinsenbeek","coordinate":{"lat":51.606388092041,"lng":4.72083330154419},"countryCode":"NL"},{"uicCode":"8400131","stationCode":"BD","name":"Breda","coordinate":{"lat":51.5955543518066,"lng":4.78000020980835},"countryCode":"NL"},{"uicCode":"8821105","stationCode":"NDKP","name":"Noorderkempen","coordinate":{"lat":51.358088,"lng":4.633977},"countryCode":"B"},{"uicCode":"8821063","stationCode":"ATWLB","name":"Antwerpen-Luchtbal","coordinate":{"lat":51.2449375,"lng":4.4251543},"countryCode":"B"},{"uicCode":"8821006","stationCode":"ATW","name":"Antwerpen-Centraal","coordinate":{"lat":51.21686,"lng":4.421242},"countryCode":"B"},{"uicCode":"8821121","stationCode":"BERCH","name":"Antwerpen-Berchem","coordinate":{"lat":51.198914,"lng":4.4332},"countryCode":"B"},{"uicCode":"8822004","stationCode":"MECH","name":"Mechelen","coordinate":{"lat":51.01758,"lng":4.48313},"countryCode":"B"},{"uicCode":"8812005","stationCode":"BRUSN","name":"Brussel-Noord","coordinate":{"lat":50.859658,"lng":4.360854},"countryCode":"B"},{"uicCode":"8813003","stationCode":"BRUSC","name":"Brussel-Centraal","coordinate":{"lat":50.845175,"lng":4.357131},"countryCode":"B"},{"uicCode":"8814001","stationCode":"BRUSZ","name":"Brussel-Zuid Midi","coordinate":{"lat":50.836782,"lng":4.336922},"countryCode":"B"}],"direction":"BOTH"},"consequence":{"section":{"stations":[{"uicCode":"8400058","stationCode":"ASD","name":"Amsterdam Centraal","coordinate":{"lat":52.3788871765137,"lng":4.90027761459351},"countryCode":"NL"},{"uicCode":"8400059","stationCode":"ASS","name":"Amsterdam Sloterdijk","coordinate":{"lat":52.3888893127441,"lng":4.83777761459351},"countryCode":"NL"},{"uicCode":"8400079","stationCode":"ASDL","name":"Amsterdam Lelylaan","coordinate":{"lat":52.3577766418457,"lng":4.83388900756836},"countryCode":"NL"},{"uicCode":"8400561","stationCode":"SHL","name":"Schiphol Airport","coordinate":{"lat":52.3094444274902,"lng":4.76194429397583},"countryCode":"NL"},{"uicCode":"8400332","stationCode":"HFD","name":"Hoofddorp","coordinate":{"lat":52.2933349609375,"lng":4.70055532455444},"countryCode":"NL"},{"uicCode":"8400530","stationCode":"RTD","name":"Rotterdam Centraal","coordinate":{"lat":51.9249992370605,"lng":4.46888875961304},"countryCode":"NL"},{"uicCode":"8400529","stationCode":"RTB","name":"Rotterdam Blaak","coordinate":{"lat":51.9202766418457,"lng":4.48888874053955},"countryCode":"NL"},{"uicCode":"8400533","stationCode":"RTZ","name":"Rotterdam Zuid","coordinate":{"lat":51.9044456481934,"lng":4.51027774810791},"countryCode":"NL"},{"uicCode":"8400542","stationCode":"RLB","name":"Rotterdam Lombardijen","coordinate":{"lat":51.8800010681152,"lng":4.53138875961304},"countryCode":"NL"},{"uicCode":"8400132","stationCode":"BDPB","name":"Breda-Prinsenbeek","coordinate":{"lat":51.606388092041,"lng":4.72083330154419},"countryCode":"NL"},{"uicCode":"8400131","stationCode":"BD","name":"Breda","coordinate":{"lat":51.5955543518066,"lng":4.78000020980835},"countryCode":"NL"},{"uicCode":"8821105","stationCode":"NDKP","name":"Noorderkempen","coordinate":{"lat":51.358088,"lng":4.633977},"countryCode":"B"},{"uicCode":"8821063","stationCode":"ATWLB","name":"Antwerpen-Luchtbal","coordinate":{"lat":51.2449375,"lng":4.4251543},"countryCode":"B"},{"uicCode":"8821006","stationCode":"ATW","name":"Antwerpen-Centraal","coordinate":{"lat":51.21686,"lng":4.421242},"countryCode":"B"},{"uicCode":"8821121","stationCode":"BERCH","name":"Antwerpen-Berchem","coordinate":{"lat":51.198914,"lng":4.4332},"countryCode":"B"},{"uicCode":"8822004","stationCode":"MECH","name":"Mechelen","coordinate":{"lat":51.01758,"lng":4.48313},"countryCode":"B"},{"uicCode":"8812005","stationCode":"BRUSN","name":"Brussel-Noord","coordinate":{"lat":50.859658,"lng":4.360854},"countryCode":"B"},{"uicCode":"8813003","stationCode":"BRUSC","name":"Brussel-Centraal","coordinate":{"lat":50.845175,"lng":4.357131},"countryCode":"B"},{"uicCode":"8814001","stationCode":"BRUSZ","name":"Brussel-Zuid Midi","coordinate":{"lat":50.836782,"lng":4.336922},"countryCode":"B"}],"direction":"ONE_WAY"},"description":"dienstregeling aangepast","level":"LESS_TRAINS"},"sectionType":"HSL"}],"timespans":[{"start":"2023-10-07T04:00:00+0200","end":"2023-10-08T23:59:00+0200","period":"Zaterdag 07-10-2023 04:00 uur t/m zondag 08-10-2023 23:59 uur.","situation":{"label":"Door werkzaamheden: tussen Amsterdam Centraal en Brussel-Zuid Midi is de dienstregeling aangepast."},"cause":{"label":"werkzaamheden"},"additionalTravelTime":{"label":"U heeft geen langere reistijd.","shortLabel":"Geen extra reistijd"},"advices":["Intercity Brussel stopt niet in Schiphol Airport en niet in Antwerpen C.","tussen Breda en Antwerpen-C. reist u via Antw-Berchem"]}],"alternativeTransportTimespans":[]},{"id":"7003972","type":"MAINTENANCE","registrationTime":"2023-09-07T13:53:27+0200","releaseTime":"2023-09-07T13:53:27+0200","local":false,"title":"Den Haag - Rotterdam - Dordrecht.","titleSections":[[{"type":"STATION","value":"Den Haag C."},{"type":"ICON","value":"MAINTENANCE"},{"type":"STATION","value":"Dordrecht"}]],"isActive":false,"start":"2023-10-07T04:00:00+0200","end":"2023-10-09T02:00:00+0200","period":"Zaterdag 07-10-2023 04:00 uur t/m maandag 09-10-2023 02:00 uur.","impact":{"value":2},"summaryAdditionalTravelTime":{"label":"U heeft geen langere reistijd.","shortLabel":"Geen extra reistijd"},"publicationSections":[{"section":{"stations":[{"uicCode":"8400282","stationCode":"GVC","name":"Den Haag Centraal","coordinate":{"lat":52.0802764892578,"lng":4.32499980926514},"countryCode":"NL"},{"uicCode":"8400280","stationCode":"GV","name":"Den Haag HS","coordinate":{"lat":52.0697212219238,"lng":4.32250022888184},"countryCode":"NL"},{"uicCode":"8400279","stationCode":"GVMW","name":"Den Haag Moerwijk","coordinate":{"lat":52.0538902282715,"lng":4.3086109161377},"countryCode":"NL"},{"uicCode":"8400505","stationCode":"RSW","name":"Rijswijk","coordinate":{"lat":52.039722442627,"lng":4.31916666030884},"countryCode":"NL"},{"uicCode":"8400170","stationCode":"DT","name":"Delft","coordinate":{"lat":52.0066680908203,"lng":4.35638904571533},"countryCode":"NL"},{"uicCode":"8400166","stationCode":"DTCP","name":"Delft Campus","coordinate":{"lat":51.9908332824707,"lng":4.36472225189209},"countryCode":"NL"},{"uicCode":"8400553","stationCode":"SDM","name":"Schiedam Centrum","coordinate":{"lat":51.9212438128032,"lng":4.4089937210083},"countryCode":"NL"},{"uicCode":"8400530","stationCode":"RTD","name":"Rotterdam Centraal","coordinate":{"lat":51.9249992370605,"lng":4.46888875961304},"countryCode":"NL"},{"uicCode":"8400529","stationCode":"RTB","name":"Rotterdam Blaak","coordinate":{"lat":51.9202766418457,"lng":4.48888874053955},"countryCode":"NL"},{"uicCode":"8400533","stationCode":"RTZ","name":"Rotterdam Zuid","coordinate":{"lat":51.9044456481934,"lng":4.51027774810791},"countryCode":"NL"},{"uicCode":"8400542","stationCode":"RLB","name":"Rotterdam Lombardijen","coordinate":{"lat":51.8800010681152,"lng":4.53138875961304},"countryCode":"NL"},{"uicCode":"8400090","stationCode":"BRD","name":"Barendrecht","coordinate":{"lat":51.8547210693359,"lng":4.5533332824707},"countryCode":"NL"},{"uicCode":"8400752","stationCode":"ZWD","name":"Zwijndrecht","coordinate":{"lat":51.814998626709,"lng":4.64166688919067},"countryCode":"NL"},{"uicCode":"8400180","stationCode":"DDR","name":"Dordrecht","coordinate":{"lat":51.8072204589844,"lng":4.66833353042603},"countryCode":"NL"}],"direction":"BOTH"},"consequence":{"section":{"stations":[{"uicCode":"8400282","stationCode":"GVC","name":"Den Haag Centraal","coordinate":{"lat":52.0802764892578,"lng":4.32499980926514},"countryCode":"NL"},{"uicCode":"8400280","stationCode":"GV","name":"Den Haag HS","coordinate":{"lat":52.0697212219238,"lng":4.32250022888184},"countryCode":"NL"},{"uicCode":"8400279","stationCode":"GVMW","name":"Den Haag Moerwijk","coordinate":{"lat":52.0538902282715,"lng":4.3086109161377},"countryCode":"NL"},{"uicCode":"8400505","stationCode":"RSW","name":"Rijswijk","coordinate":{"lat":52.039722442627,"lng":4.31916666030884},"countryCode":"NL"},{"uicCode":"8400170","stationCode":"DT","name":"Delft","coordinate":{"lat":52.0066680908203,"lng":4.35638904571533},"countryCode":"NL"},{"uicCode":"8400166","stationCode":"DTCP","name":"Delft Campus","coordinate":{"lat":51.9908332824707,"lng":4.36472225189209},"countryCode":"NL"},{"uicCode":"8400553","stationCode":"SDM","name":"Schiedam Centrum","coordinate":{"lat":51.9212438128032,"lng":4.4089937210083},"countryCode":"NL"},{"uicCode":"8400530","stationCode":"RTD","name":"Rotterdam Centraal","coordinate":{"lat":51.9249992370605,"lng":4.46888875961304},"countryCode":"NL"},{"uicCode":"8400529","stationCode":"RTB","name":"Rotterdam Blaak","coordinate":{"lat":51.9202766418457,"lng":4.48888874053955},"countryCode":"NL"},{"uicCode":"8400533","stationCode":"RTZ","name":"Rotterdam Zuid","coordinate":{"lat":51.9044456481934,"lng":4.51027774810791},"countryCode":"NL"},{"uicCode":"8400542","stationCode":"RLB","name":"Rotterdam Lombardijen","coordinate":{"lat":51.8800010681152,"lng":4.53138875961304},"countryCode":"NL"},{"uicCode":"8400090","stationCode":"BRD","name":"Barendrecht","coordinate":{"lat":51.8547210693359,"lng":4.5533332824707},"countryCode":"NL"},{"uicCode":"8400752","stationCode":"ZWD","name":"Zwijndrecht","coordinate":{"lat":51.814998626709,"lng":4.64166688919067},"countryCode":"NL"},{"uicCode":"8400180","stationCode":"DDR","name":"Dordrecht","coordinate":{"lat":51.8072204589844,"lng":4.66833353042603},"countryCode":"NL"}],"direction":"ONE_WAY"},"description":"dienstregeling aangepast","level":"LESS_TRAINS"},"sectionType":"NL"}],"timespans":[{"start":"2023-10-07T04:00:00+0200","end":"2023-10-09T02:00:00+0200","period":"Zaterdag 07-10-2023 04:00 uur t/m maandag 09-10-2023 02:00 uur.","situation":{"label":"Door werkzaamheden: tussen Den Haag Centraal en Dordrecht is de dienstregeling aangepast."},"cause":{"label":"werkzaamheden"},"additionalTravelTime":{"label":"U heeft geen langere reistijd.","shortLabel":"Geen extra reistijd"},"advices":["Vertrektijden van Sprinters tussen Den Haag C en Dordrecht zijn aangepast."]}],"alternativeTransportTimespans":[]},{"id":"7003958","type":"MAINTENANCE","registrationTime":"2023-09-06T15:52:52+0200","releaseTime":"2023-09-06T15:52:52+0200","local":false,"title":"Schiphol - Rotterdam (HSL).","titleSections":[[{"type":"STATION","value":"Schiphol Airport"},{"type":"ICON","value":"MAINTENANCE"},{"type":"STATION","value":"Rotterdam C."}]],"isActive":false,"start":"2023-10-07T04:00:00+0200","end":"2023-10-09T02:00:00+0200","period":"Zaterdag 07-10-2023 04:00 uur t/m maandag 09-10-2023 02:00 uur.","impact":{"value":2},"summaryAdditionalTravelTime":{"label":"De extra reistijd is ongeveer 30 minuten.","shortLabel":"extra reistijd 30 min.","minimumDurationInMinutes":30,"maximumDurationInMinutes":30},"publicationSections":[{"section":{"stations":[{"uicCode":"8400561","stationCode":"SHL","name":"Schiphol Airport","coordinate":{"lat":52.3094444274902,"lng":4.76194429397583},"countryCode":"NL"},{"uicCode":"8400332","stationCode":"HFD","name":"Hoofddorp","coordinate":{"lat":52.2933349609375,"lng":4.70055532455444},"countryCode":"NL"},{"uicCode":"8400530","stationCode":"RTD","name":"Rotterdam Centraal","coordinate":{"lat":51.9249992370605,"lng":4.46888875961304},"countryCode":"NL"}],"direction":"BOTH"},"consequence":{"section":{"stations":[{"uicCode":"8400561","stationCode":"SHL","name":"Schiphol Airport","coordinate":{"lat":52.3094444274902,"lng":4.76194429397583},"countryCode":"NL"},{"uicCode":"8400332","stationCode":"HFD","name":"Hoofddorp","coordinate":{"lat":52.2933349609375,"lng":4.70055532455444},"countryCode":"NL"},{"uicCode":"8400530","stationCode":"RTD","name":"Rotterdam Centraal","coordinate":{"lat":51.9249992370605,"lng":4.46888875961304},"countryCode":"NL"}],"direction":"ONE_WAY"},"description":"geen treinen op de HSL","level":"LESS_TRAINS"},"sectionType":"HSL"}],"timespans":[{"start":"2023-10-07T04:00:00+0200","end":"2023-10-09T02:00:00+0200","period":"Zaterdag 07-10-2023 04:00 uur t/m maandag 09-10-2023 02:00 uur.","situation":{"label":"Door werkzaamheden aan de Hogesnelheidslijn: tussen Schiphol Airport en Rotterdam Centraal rijden er op de hogesnelheidslijn geen treinen."},"cause":{"label":"werkzaamheden HSL"},"additionalTravelTime":{"label":"De extra reistijd is ongeveer 30 minuten.","shortLabel":"extra reistijd 30 min.","minimumDurationInMinutes":30,"maximumDurationInMinutes":30},"advices":["tussen Schiphol Airport en Rotterdam C. reist u via Leiden C."]}],"alternativeTransportTimespans":[]},{"id":"7003827","type":"MAINTENANCE","registrationTime":"2023-09-06T15:43:06+0200","releaseTime":"2023-09-06T15:43:06+0200","local":false,"title":"Roosendaal - Antwerpen - Puurs.","titleSections":[[{"type":"STATION","value":"Roosendaal"},{"type":"STATION","value":"Kapellen"},{"type":"ICON","value":"MAINTENANCE"},{"type":"STATION","value":"Antwerpen-C."},{"type":"STATION","value":"Puurs"}]],"isActive":false,"start":"2023-10-07T04:00:00+0200","end":"2023-10-09T02:00:00+0200","period":"Zaterdag 07-10-2023 04:00 uur t/m maandag 09-10-2023 02:00 uur.","impact":{"value":2},"summaryAdditionalTravelTime":{"label":"De extra reistijd kan oplopen tot 30 minuten.","shortLabel":"extra reistijd tot 30 min.","maximumDurationInMinutes":30},"publicationSections":[{"section":{"stations":[{"uicCode":"8400526","stationCode":"RSD","name":"Roosendaal","coordinate":{"lat":51.5402793884277,"lng":4.45833349227905},"countryCode":"NL"},{"uicCode":"8821402","stationCode":"ESN","name":"Essen","coordinate":{"lat":51.46261,"lng":4.45129},"countryCode":"B"},{"uicCode":"8821436","stationCode":"GWD","name":"Wildert","coordinate":{"lat":51.4277061,"lng":4.4633962},"countryCode":"B"},{"uicCode":"8821444","stationCode":"FKTH","name":"Kalmthout","coordinate":{"lat":51.3909989,"lng":4.4668202},"countryCode":"B"},{"uicCode":"8821451","stationCode":"GKT","name":"Kijkuit","coordinate":{"lat":51.37867,"lng":4.46722},"countryCode":"B"},{"uicCode":"8821519","stationCode":"MID","name":"Heide (B)","coordinate":{"lat":51.364828,"lng":4.4604308},"countryCode":"B"},{"uicCode":"8821535","stationCode":"LKP","name":"Kapellen","coordinate":{"lat":51.31362,"lng":4.43262},"countryCode":"B"},{"uicCode":"8821006","stationCode":"ATW","name":"Antwerpen-Centraal","coordinate":{"lat":51.21686,"lng":4.421242},"countryCode":"B"},{"uicCode":"8822715","stationCode":"FRP","name":"Puurs","coordinate":{"lat":51.07716,"lng":4.28273},"countryCode":"B"}],"direction":"BOTH"},"consequence":{"section":{"stations":[{"uicCode":"8821535","stationCode":"LKP","name":"Kapellen","coordinate":{"lat":51.31362,"lng":4.43262},"countryCode":"B"},{"uicCode":"8821006","stationCode":"ATW","name":"Antwerpen-Centraal","coordinate":{"lat":51.21686,"lng":4.421242},"countryCode":"B"}],"direction":"ONE_WAY"},"description":"aangepaste internationale dienstregeling","level":"LESS_TRAINS"},"sectionType":"NEIGHBORING_COUNTRY"}],"timespans":[{"start":"2023-10-07T04:00:00+0200","end":"2023-10-09T02:00:00+0200","period":"Zaterdag 07-10-2023 04:00 uur t/m maandag 09-10-2023 02:00 uur.","situation":{"label":"Door werkzaamheden: tussen Kapellen en Antwerpen-Centraal is de internationale dienstregeling aangepast."},"cause":{"label":"werkzaamheden"},"additionalTravelTime":{"label":"De extra reistijd kan oplopen tot 30 minuten.","shortLabel":"extra reistijd tot 30 min.","maximumDurationInMinutes":30},"alternativeTransport":{"label":"er rijden stopbussen","shortLabel":"er rijden stopbussen"},"advices":[]}],"alternativeTransportTimespans":[{"start":"2023-10-07T04:00:00+0200","end":"2023-10-09T02:00:00+0200","alternativeTransport":{"location":[],"label":"Er rijden stopbussen tussen Kapellen en Antwerpen-Centraal.","shortLabel":"er rijden stopbussen Kapellen - Antwerpen-C."}}]},{"id":"7003696","type":"MAINTENANCE","registrationTime":"2023-09-06T15:44:08+0200","releaseTime":"2023-09-06T15:44:08+0200","local":false,"title":"Amsterdam - Brussel - Paris (HSL).","titleSections":[[{"type":"STATION","value":"Amsterdam C."},{"type":"ICON","value":"MAINTENANCE"},{"type":"STATION","value":"Paris-Nord"}]],"isActive":false,"start":"2023-10-07T05:00:00+0200","end":"2023-10-08T23:59:00+0200","period":"Zaterdag 07-10-2023 05:00 uur t/m zondag 08-10-2023 23:59 uur.","impact":{"value":2},"summaryAdditionalTravelTime":{"label":"U heeft geen langere reistijd.","shortLabel":"Geen extra reistijd"},"publicationSections":[{"section":{"stations":[{"uicCode":"8400058","stationCode":"ASD","name":"Amsterdam Centraal","coordinate":{"lat":52.3788871765137,"lng":4.90027761459351},"countryCode":"NL"},{"uicCode":"8400059","stationCode":"ASS","name":"Amsterdam Sloterdijk","coordinate":{"lat":52.3888893127441,"lng":4.83777761459351},"countryCode":"NL"},{"uicCode":"8400079","stationCode":"ASDL","name":"Amsterdam Lelylaan","coordinate":{"lat":52.3577766418457,"lng":4.83388900756836},"countryCode":"NL"},{"uicCode":"8400561","stationCode":"SHL","name":"Schiphol Airport","coordinate":{"lat":52.3094444274902,"lng":4.76194429397583},"countryCode":"NL"},{"uicCode":"8400332","stationCode":"HFD","name":"Hoofddorp","coordinate":{"lat":52.2933349609375,"lng":4.70055532455444},"countryCode":"NL"},{"uicCode":"8400530","stationCode":"RTD","name":"Rotterdam Centraal","coordinate":{"lat":51.9249992370605,"lng":4.46888875961304},"countryCode":"NL"},{"uicCode":"8400529","stationCode":"RTB","name":"Rotterdam Blaak","coordinate":{"lat":51.9202766418457,"lng":4.48888874053955},"countryCode":"NL"},{"uicCode":"8400533","stationCode":"RTZ","name":"Rotterdam Zuid","coordinate":{"lat":51.9044456481934,"lng":4.51027774810791},"countryCode":"NL"},{"uicCode":"8400542","stationCode":"RLB","name":"Rotterdam Lombardijen","coordinate":{"lat":51.8800010681152,"lng":4.53138875961304},"countryCode":"NL"},{"uicCode":"8821105","stationCode":"NDKP","name":"Noorderkempen","coordinate":{"lat":51.358088,"lng":4.633977},"countryCode":"B"},{"uicCode":"8821063","stationCode":"ATWLB","name":"Antwerpen-Luchtbal","coordinate":{"lat":51.2449375,"lng":4.4251543},"countryCode":"B"},{"uicCode":"8821006","stationCode":"ATW","name":"Antwerpen-Centraal","coordinate":{"lat":51.21686,"lng":4.421242},"countryCode":"B"},{"uicCode":"8821121","stationCode":"BERCH","name":"Antwerpen-Berchem","coordinate":{"lat":51.198914,"lng":4.4332},"countryCode":"B"},{"uicCode":"8822004","stationCode":"MECH","name":"Mechelen","coordinate":{"lat":51.01758,"lng":4.48313},"countryCode":"B"},{"uicCode":"8812005","stationCode":"BRUSN","name":"Brussel-Noord","coordinate":{"lat":50.859658,"lng":4.360854},"countryCode":"B"},{"uicCode":"8813003","stationCode":"BRUSC","name":"Brussel-Centraal","coordinate":{"lat":50.845175,"lng":4.357131},"countryCode":"B"},{"uicCode":"8814001","stationCode":"BRUSZ","name":"Brussel-Zuid Midi","coordinate":{"lat":50.836782,"lng":4.336922},"countryCode":"B"},{"uicCode":"8727100","stationCode":"PARIS","name":"Paris-Nord","coordinate":{"lat":48.87977,"lng":2.35575},"countryCode":"F"}],"direction":"BOTH"},"consequence":{"section":{"stations":[{"uicCode":"8400058","stationCode":"ASD","name":"Amsterdam Centraal","coordinate":{"lat":52.3788871765137,"lng":4.90027761459351},"countryCode":"NL"},{"uicCode":"8400059","stationCode":"ASS","name":"Amsterdam Sloterdijk","coordinate":{"lat":52.3888893127441,"lng":4.83777761459351},"countryCode":"NL"},{"uicCode":"8400079","stationCode":"ASDL","name":"Amsterdam Lelylaan","coordinate":{"lat":52.3577766418457,"lng":4.83388900756836},"countryCode":"NL"},{"uicCode":"8400561","stationCode":"SHL","name":"Schiphol Airport","coordinate":{"lat":52.3094444274902,"lng":4.76194429397583},"countryCode":"NL"},{"uicCode":"8400332","stationCode":"HFD","name":"Hoofddorp","coordinate":{"lat":52.2933349609375,"lng":4.70055532455444},"countryCode":"NL"},{"uicCode":"8400530","stationCode":"RTD","name":"Rotterdam Centraal","coordinate":{"lat":51.9249992370605,"lng":4.46888875961304},"countryCode":"NL"},{"uicCode":"8400529","stationCode":"RTB","name":"Rotterdam Blaak","coordinate":{"lat":51.9202766418457,"lng":4.48888874053955},"countryCode":"NL"},{"uicCode":"8400533","stationCode":"RTZ","name":"Rotterdam Zuid","coordinate":{"lat":51.9044456481934,"lng":4.51027774810791},"countryCode":"NL"},{"uicCode":"8400542","stationCode":"RLB","name":"Rotterdam Lombardijen","coordinate":{"lat":51.8800010681152,"lng":4.53138875961304},"countryCode":"NL"},{"uicCode":"8821105","stationCode":"NDKP","name":"Noorderkempen","coordinate":{"lat":51.358088,"lng":4.633977},"countryCode":"B"},{"uicCode":"8821063","stationCode":"ATWLB","name":"Antwerpen-Luchtbal","coordinate":{"lat":51.2449375,"lng":4.4251543},"countryCode":"B"},{"uicCode":"8821006","stationCode":"ATW","name":"Antwerpen-Centraal","coordinate":{"lat":51.21686,"lng":4.421242},"countryCode":"B"},{"uicCode":"8821121","stationCode":"BERCH","name":"Antwerpen-Berchem","coordinate":{"lat":51.198914,"lng":4.4332},"countryCode":"B"},{"uicCode":"8822004","stationCode":"MECH","name":"Mechelen","coordinate":{"lat":51.01758,"lng":4.48313},"countryCode":"B"},{"uicCode":"8812005","stationCode":"BRUSN","name":"Brussel-Noord","coordinate":{"lat":50.859658,"lng":4.360854},"countryCode":"B"},{"uicCode":"8813003","stationCode":"BRUSC","name":"Brussel-Centraal","coordinate":{"lat":50.845175,"lng":4.357131},"countryCode":"B"},{"uicCode":"8814001","stationCode":"BRUSZ","name":"Brussel-Zuid Midi","coordinate":{"lat":50.836782,"lng":4.336922},"countryCode":"B"},{"uicCode":"8727100","stationCode":"PARIS","name":"Paris-Nord","coordinate":{"lat":48.87977,"lng":2.35575},"countryCode":"F"}],"direction":"ONE_WAY"},"description":"aangepaste internationale dienstregeling","level":"LESS_TRAINS"},"sectionType":"HSL"}],"timespans":[{"start":"2023-10-07T05:00:00+0200","end":"2023-10-08T23:59:00+0200","period":"Zaterdag 07-10-2023 05:00 uur t/m zondag 08-10-2023 23:59 uur.","situation":{"label":"Door werkzaamheden: tussen Amsterdam Centraal en Paris-Nord is de internationale dienstregeling aangepast."},"cause":{"label":"werkzaamheden"},"additionalTravelTime":{"label":"U heeft geen langere reistijd.","shortLabel":"Geen extra reistijd"},"advices":["Eurostar naar Paris Nord stopt niet in Antwerpen-Centraal."]}],"alternativeTransportTimespans":[]},{"id":"7003966","type":"MAINTENANCE","registrationTime":"2023-09-06T21:44:35+0200","releaseTime":"2023-09-06T21:44:35+0200","local":false,"title":"Zwolle - Kampen.","titleSections":[[{"type":"STATION","value":"Zwolle"},{"type":"ICON","value":"MAINTENANCE"},{"type":"STATION","value":"Kampen"}]],"isActive":false,"start":"2023-10-07T05:00:00+0200","end":"2023-10-09T01:00:00+0200","period":"Zaterdag 07-10-2023 05:00 uur t/m maandag 09-10-2023 01:00 uur.","impact":{"value":3},"summaryAdditionalTravelTime":{"label":"De extra reistijd is ongeveer 15 minuten.","shortLabel":"extra reistijd 15 min.","minimumDurationInMinutes":15,"maximumDurationInMinutes":15},"publicationSections":[{"section":{"stations":[{"uicCode":"8400747","stationCode":"ZL","name":"Zwolle","coordinate":{"lat":52.5047225952148,"lng":6.09194421768188},"countryCode":"NL"},{"uicCode":"8400746","stationCode":"ZLSH","name":"Zwolle Stadshagen","coordinate":{"lat":52.52764,"lng":6.05146},"countryCode":"NL"},{"uicCode":"8400353","stationCode":"KPN","name":"Kampen","coordinate":{"lat":52.5597229003906,"lng":5.92166662216186},"countryCode":"NL"}],"direction":"BOTH"},"consequence":{"section":{"stations":[{"uicCode":"8400747","stationCode":"ZL","name":"Zwolle","coordinate":{"lat":52.5047225952148,"lng":6.09194421768188},"countryCode":"NL"},{"uicCode":"8400746","stationCode":"ZLSH","name":"Zwolle Stadshagen","coordinate":{"lat":52.52764,"lng":6.05146},"countryCode":"NL"},{"uicCode":"8400353","stationCode":"KPN","name":"Kampen","coordinate":{"lat":52.5597229003906,"lng":5.92166662216186},"countryCode":"NL"}],"direction":"ONE_WAY"},"description":"rijden bussen","level":"LESS_TRAINS"},"sectionType":"NL"}],"timespans":[{"start":"2023-10-07T05:00:00+0200","end":"2023-10-09T01:00:00+0200","period":"Zaterdag 07-10-2023 05:00 uur t/m maandag 09-10-2023 01:00 uur.","situation":{"label":"Door werkzaamheden: tussen Zwolle en Kampen rijden er bussen."},"cause":{"label":"werkzaamheden"},"additionalTravelTime":{"label":"De extra reistijd is ongeveer 15 minuten.","shortLabel":"extra reistijd 15 min.","minimumDurationInMinutes":15,"maximumDurationInMinutes":15},"alternativeTransport":{"label":"er rijden stopbussen","shortLabel":"er rijden stopbussen"},"advices":[]}],"alternativeTransportTimespans":[{"start":"2023-10-07T05:00:00+0200","end":"2023-10-09T01:00:00+0200","alternativeTransport":{"location":[{"station":{"uicCode":"8400746","stationCode":"ZLSH","name":"Zwolle Stadshagen","coordinate":{"lat":52.52764,"lng":6.05146},"countryCode":"NL"},"description":"vanaf de haltes aan de Hasselterweg"},{"station":{"uicCode":"8400353","stationCode":"KPN","name":"Kampen","coordinate":{"lat":52.5597229003906,"lng":5.92166662216186},"countryCode":"NL"},"description":"vanaf de voorzijde van het station"}],"label":"Er rijden stopbussen tussen Zwolle, Zwolle Stadshagen en Kampen.","shortLabel":"er rijden stopbussen Zwolle - Stadshagen - Kampen"}}]},{"id":"7003967","type":"MAINTENANCE","registrationTime":"2023-09-06T21:56:31+0200","releaseTime":"2023-09-06T21:56:31+0200","local":false,"title":"Zwolle.","titleSections":[[{"type":"STATION","value":"Zwolle"}]],"isActive":false,"start":"2023-10-08T00:00:00+0200","end":"2023-10-08T09:15:00+0200","period":"Zondag 08-10-2023 00:00 uur t/m zondag 08-10-2023 09:15 uur.","impact":{"value":3},"summaryAdditionalTravelTime":{"label":"De extra reistijd kan oplopen tot 30 minuten.","shortLabel":"extra reistijd tot 30 min.","maximumDurationInMinutes":30},"publicationSections":[{"section":{"stations":[{"uicCode":"8400747","stationCode":"ZL","name":"Zwolle","coordinate":{"lat":52.5047225952148,"lng":6.09194421768188},"countryCode":"NL"},{"uicCode":"8400310","stationCode":"HNO","name":"Heino","coordinate":{"lat":52.4272232055664,"lng":6.22111129760742},"countryCode":"NL"},{"uicCode":"8400513","stationCode":"RAT","name":"Raalte","coordinate":{"lat":52.3916664123535,"lng":6.27750015258789},"countryCode":"NL"},{"uicCode":"8400472","stationCode":"NVD","name":"Nijverdal","coordinate":{"lat":52.366111,"lng":6.462},"countryCode":"NL"},{"uicCode":"8400691","stationCode":"WDN","name":"Wierden","coordinate":{"lat":52.3613891601562,"lng":6.59166669845581},"countryCode":"NL"},{"uicCode":"8400051","stationCode":"AML","name":"Almelo","coordinate":{"lat":52.3580551147461,"lng":6.65388870239258},"countryCode":"NL"}],"direction":"BOTH"},"consequence":{"section":{"stations":[{"uicCode":"8400747","stationCode":"ZL","name":"Zwolle","coordinate":{"lat":52.5047225952148,"lng":6.09194421768188},"countryCode":"NL"}],"direction":"ONE_WAY"},"description":"rijden bussen","level":"LESS_TRAINS"},"sectionType":"NL"}],"timespans":[{"start":"2023-10-08T00:00:00+0200","end":"2023-10-08T09:15:00+0200","period":"Zondag 08-10-2023 00:00 uur t/m zondag 08-10-2023 09:15 uur.","situation":{"label":"Door werkzaamheden: van, via en naar Zwolle rijden er bussen."},"cause":{"label":"werkzaamheden"},"additionalTravelTime":{"label":"De extra reistijd kan oplopen tot 30 minuten.","shortLabel":"extra reistijd tot 30 min.","maximumDurationInMinutes":30},"alternativeTransport":{"label":"er rijden stop- en snelbussen","shortLabel":"er rijden stop- en snelbussen"},"advices":[]}],"alternativeTransportTimespans":[{"start":"2023-10-08T00:00:00+0200","end":"2023-10-08T02:00:00+0200","alternativeTransport":{"location":[{"station":{"uicCode":"8400513","stationCode":"RAT","name":"Raalte","coordinate":{"lat":52.3916664123535,"lng":6.27750015258789},"countryCode":"NL"},"description":"vanaf de voorzijde van het station"}],"label":"Er rijden snelbussen tussen Zwolle en Raalte.","shortLabel":"er rijden snelbussen Zwolle - Raalte"}},{"start":"2023-10-08T00:00:00+0200","end":"2023-10-08T02:00:00+0200","alternativeTransport":{"location":[{"station":{"uicCode":"8400310","stationCode":"HNO","name":"Heino","coordinate":{"lat":52.4272232055664,"lng":6.22111129760742},"countryCode":"NL"},"description":"vanaf het Marktplein"}],"label":"Er rijden stopbussen van Zwolle naar Heino.","shortLabel":"er rijden stopbussen Zwolle -> Heino"}},{"start":"2023-10-08T06:00:00+0200","end":"2023-10-08T09:15:00+0200","alternativeTransport":{"location":[{"station":{"uicCode":"8400310","stationCode":"HNO","name":"Heino","coordinate":{"lat":52.4272232055664,"lng":6.22111129760742},"countryCode":"NL"},"description":"vanaf het Marktplein"},{"station":{"uicCode":"8400513","stationCode":"RAT","name":"Raalte","coordinate":{"lat":52.3916664123535,"lng":6.27750015258789},"countryCode":"NL"},"description":"vanaf de voorzijde van het station"}],"label":"Er rijden stopbussen tussen Zwolle, Heino en Raalte.","shortLabel":"er rijden stopbussen Zwolle - Heino - Raalte"}}]},{"id":"7003976","type":"MAINTENANCE","registrationTime":"2023-10-03T10:19:52+0200","releaseTime":"2023-10-03T10:19:52+0200","local":false,"title":"Amersfoort - Zwolle.","titleSections":[[{"type":"STATION","value":"Amersfoort C."},{"type":"STATION","value":"'t Harde"},{"type":"ICON","value":"MAINTENANCE"},{"type":"STATION","value":"Zwolle"}]],"isActive":false,"start":"2023-10-08T01:25:00+0200","end":"2023-10-08T02:00:00+0200","period":"Zondag 08-10-2023 01:25 uur t/m zondag 08-10-2023 02:00 uur.","impact":{"value":3},"summaryAdditionalTravelTime":{"label":"De extra reistijd is ongeveer 15 minuten.","shortLabel":"extra reistijd 15 min.","minimumDurationInMinutes":15,"maximumDurationInMinutes":15},"publicationSections":[{"section":{"stations":[{"uicCode":"8400055","stationCode":"AMF","name":"Amersfoort Centraal","coordinate":{"lat":52.1538887023926,"lng":5.37055540084839},"countryCode":"NL"},{"uicCode":"8400054","stationCode":"AMFS","name":"Amersfoort Schothorst","coordinate":{"lat":52.1748221374512,"lng":5.40388870239258},"countryCode":"NL"},{"uicCode":"8400228","stationCode":"AVAT","name":"Amersfoort Vathorst","coordinate":{"lat":52.1927795410156,"lng":5.43388891220093},"countryCode":"NL"},{"uicCode":"8400469","stationCode":"NKK","name":"Nijkerk","coordinate":{"lat":52.2222213745117,"lng":5.49388885498047},"countryCode":"NL"},{"uicCode":"8400509","stationCode":"PT","name":"Putten","coordinate":{"lat":52.2649993896484,"lng":5.57527780532837},"countryCode":"NL"},{"uicCode":"8400216","stationCode":"EML","name":"Ermelo","coordinate":{"lat":52.3016662597656,"lng":5.61472225189209},"countryCode":"NL"},{"uicCode":"8400294","stationCode":"HD","name":"Harderwijk","coordinate":{"lat":52.3375015258789,"lng":5.61972236633301},"countryCode":"NL"},{"uicCode":"8400466","stationCode":"NS","name":"Nunspeet","coordinate":{"lat":52.3708343505859,"lng":5.78527784347534},"countryCode":"NL"},{"uicCode":"8400388","stationCode":"HDE","name":"'t Harde","coordinate":{"lat":52.4091682,"lng":5.893611},"countryCode":"NL"},{"uicCode":"8400690","stationCode":"WZ","name":"Wezep","coordinate":{"lat":52.4541664123535,"lng":6.00250005722046},"countryCode":"NL"},{"uicCode":"8400747","stationCode":"ZL","name":"Zwolle","coordinate":{"lat":52.5047225952148,"lng":6.09194421768188},"countryCode":"NL"}],"direction":"ONE_WAY"},"consequence":{"section":{"stations":[{"uicCode":"8400388","stationCode":"HDE","name":"'t Harde","coordinate":{"lat":52.4091682,"lng":5.893611},"countryCode":"NL"},{"uicCode":"8400690","stationCode":"WZ","name":"Wezep","coordinate":{"lat":52.4541664123535,"lng":6.00250005722046},"countryCode":"NL"},{"uicCode":"8400747","stationCode":"ZL","name":"Zwolle","coordinate":{"lat":52.5047225952148,"lng":6.09194421768188},"countryCode":"NL"}],"direction":"ONE_WAY"},"description":"rijden bussen","level":"LESS_TRAINS"},"sectionType":"NL"}],"timespans":[{"start":"2023-10-08T01:25:00+0200","end":"2023-10-08T02:00:00+0200","period":"Zondag 08-10-2023 01:25 uur t/m zondag 08-10-2023 02:00 uur.","situation":{"label":"Door werkzaamheden: van 't Harde naar Zwolle rijden er bussen."},"cause":{"label":"werkzaamheden"},"additionalTravelTime":{"label":"De extra reistijd is ongeveer 15 minuten.","shortLabel":"extra reistijd 15 min.","minimumDurationInMinutes":15,"maximumDurationInMinutes":15},"alternativeTransport":{"label":"er rijden bussen","shortLabel":"er rijden bussen"},"advices":[]}],"alternativeTransportTimespans":[{"start":"2023-10-08T01:25:00+0200","end":"2023-10-08T02:00:00+0200","alternativeTransport":{"location":[{"station":{"uicCode":"8400388","stationCode":"HDE","name":"'t Harde","coordinate":{"lat":52.4091682,"lng":5.893611},"countryCode":"NL"},"description":"vanaf de achterzijde van het station"}],"label":"Er rijden bussen van 't Harde naar Zwolle.","shortLabel":"er rijden bussen 't Harde -> Zwolle"}}]},{"id":"7003977","type":"MAINTENANCE","registrationTime":"2023-10-03T10:44:25+0200","releaseTime":"2023-10-03T10:44:25+0200","local":false,"title":"Zwolle.","titleSections":[[{"type":"STATION","value":"Zwolle"}]],"isActive":false,"start":"2023-10-08T04:00:00+0200","end":"2023-10-08T09:00:00+0200","period":"Zondag 08-10-2023 04:00 uur t/m zondag 08-10-2023 09:00 uur.","impact":{"value":3},"summaryAdditionalTravelTime":{"label":"De extra reistijd is ongeveer 30 minuten.","shortLabel":"extra reistijd 30 min.","minimumDurationInMinutes":30,"maximumDurationInMinutes":30},"publicationSections":[{"section":{"stations":[{"uicCode":"8400055","stationCode":"AMF","name":"Amersfoort Centraal","coordinate":{"lat":52.1538887023926,"lng":5.37055540084839},"countryCode":"NL"},{"uicCode":"8400054","stationCode":"AMFS","name":"Amersfoort Schothorst","coordinate":{"lat":52.1748221374512,"lng":5.40388870239258},"countryCode":"NL"},{"uicCode":"8400228","stationCode":"AVAT","name":"Amersfoort Vathorst","coordinate":{"lat":52.1927795410156,"lng":5.43388891220093},"countryCode":"NL"},{"uicCode":"8400469","stationCode":"NKK","name":"Nijkerk","coordinate":{"lat":52.2222213745117,"lng":5.49388885498047},"countryCode":"NL"},{"uicCode":"8400509","stationCode":"PT","name":"Putten","coordinate":{"lat":52.2649993896484,"lng":5.57527780532837},"countryCode":"NL"},{"uicCode":"8400216","stationCode":"EML","name":"Ermelo","coordinate":{"lat":52.3016662597656,"lng":5.61472225189209},"countryCode":"NL"},{"uicCode":"8400294","stationCode":"HD","name":"Harderwijk","coordinate":{"lat":52.3375015258789,"lng":5.61972236633301},"countryCode":"NL"},{"uicCode":"8400466","stationCode":"NS","name":"Nunspeet","coordinate":{"lat":52.3708343505859,"lng":5.78527784347534},"countryCode":"NL"},{"uicCode":"8400388","stationCode":"HDE","name":"'t Harde","coordinate":{"lat":52.4091682,"lng":5.893611},"countryCode":"NL"},{"uicCode":"8400690","stationCode":"WZ","name":"Wezep","coordinate":{"lat":52.4541664123535,"lng":6.00250005722046},"countryCode":"NL"},{"uicCode":"8400747","stationCode":"ZL","name":"Zwolle","coordinate":{"lat":52.5047225952148,"lng":6.09194421768188},"countryCode":"NL"}],"direction":"BOTH"},"consequence":{"section":{"stations":[{"uicCode":"8400747","stationCode":"ZL","name":"Zwolle","coordinate":{"lat":52.5047225952148,"lng":6.09194421768188},"countryCode":"NL"}],"direction":"ONE_WAY"},"description":"rijden bussen","level":"LESS_TRAINS"},"sectionType":"NL"},{"section":{"stations":[{"uicCode":"8400747","stationCode":"ZL","name":"Zwolle","coordinate":{"lat":52.5047225952148,"lng":6.09194421768188},"countryCode":"NL"},{"uicCode":"8400711","stationCode":"WH","name":"Wijhe","coordinate":{"lat":52.3902778625488,"lng":6.1405553817749},"countryCode":"NL"},{"uicCode":"8400486","stationCode":"OST","name":"Olst","coordinate":{"lat":52.3347206115723,"lng":6.11305570602417},"countryCode":"NL"},{"uicCode":"8400173","stationCode":"DV","name":"Deventer","coordinate":{"lat":52.2574996948242,"lng":6.16055536270142},"countryCode":"NL"}],"direction":"BOTH"},"consequence":{"section":{"stations":[{"uicCode":"8400747","stationCode":"ZL","name":"Zwolle","coordinate":{"lat":52.5047225952148,"lng":6.09194421768188},"countryCode":"NL"}],"direction":"ONE_WAY"},"description":"rijden bussen","level":"LESS_TRAINS"},"sectionType":"NL"},{"section":{"stations":[{"uicCode":"8400747","stationCode":"ZL","name":"Zwolle","coordinate":{"lat":52.5047225952148,"lng":6.09194421768188},"countryCode":"NL"},{"uicCode":"8400167","stationCode":"DL","name":"Dalfsen","coordinate":{"lat":52.4983329772949,"lng":6.25861120223999},"countryCode":"NL"},{"uicCode":"8400487","stationCode":"OMN","name":"Ommen","coordinate":{"lat":52.5094451904297,"lng":6.41583347320557},"countryCode":"NL"},{"uicCode":"8400428","stationCode":"MRB","name":"Mariënberg","coordinate":{"lat":52.5094451904297,"lng":6.57527780532837},"countryCode":"NL"},{"uicCode":"8400293","stationCode":"HDB","name":"Hardenberg","coordinate":{"lat":52.5727767944336,"lng":6.62861108779907},"countryCode":"NL"},{"uicCode":"8400259","stationCode":"GBG","name":"Gramsbergen","coordinate":{"lat":52.6091651916504,"lng":6.67583322525024},"countryCode":"NL"},{"uicCode":"8400153","stationCode":"CO","name":"Coevorden","coordinate":{"lat":52.6636123657227,"lng":6.73555564880371},"countryCode":"NL"},{"uicCode":"8400161","stationCode":"DLN","name":"Dalen","coordinate":{"lat":52.6941680908203,"lng":6.75805568695068},"countryCode":"NL"},{"uicCode":"8400454","stationCode":"NA","name":"Nieuw Amsterdam","coordinate":{"lat":52.7186126708984,"lng":6.84861087799072},"countryCode":"NL"},{"uicCode":"8400407","stationCode":"EMNZ","name":"Emmen Zuid","coordinate":{"lat":52.7488663746914,"lng":6.87478065490722},"countryCode":"NL"},{"uicCode":"8400208","stationCode":"EMN","name":"Emmen","coordinate":{"lat":52.7900009155273,"lng":6.89944458007812},"countryCode":"NL"}],"direction":"BOTH"},"consequence":{"section":{"stations":[{"uicCode":"8400747","stationCode":"ZL","name":"Zwolle","coordinate":{"lat":52.5047225952148,"lng":6.09194421768188},"countryCode":"NL"}],"direction":"ONE_WAY"},"description":"rijden bussen","level":"LESS_TRAINS"},"sectionType":"NL"},{"section":{"stations":[{"uicCode":"8400747","stationCode":"ZL","name":"Zwolle","coordinate":{"lat":52.5047225952148,"lng":6.09194421768188},"countryCode":"NL"},{"uicCode":"8400435","stationCode":"MP","name":"Meppel","coordinate":{"lat":52.6908340454102,"lng":6.19750022888184},"countryCode":"NL"},{"uicCode":"8400330","stationCode":"HGV","name":"Hoogeveen","coordinate":{"lat":52.7338905334473,"lng":6.47361087799072},"countryCode":"NL"},{"uicCode":"8400100","stationCode":"BL","name":"Beilen","coordinate":{"lat":52.8547210693359,"lng":6.52111101150513},"countryCode":"NL"},{"uicCode":"8400073","stationCode":"ASN","name":"Assen","coordinate":{"lat":52.9916648864746,"lng":6.57083320617676},"countryCode":"NL"},{"uicCode":"8400297","stationCode":"HRN","name":"Haren","coordinate":{"lat":53.1761093139648,"lng":6.61722230911255},"countryCode":"NL"},{"uicCode":"8400238","stationCode":"GERP","name":"Groningen Europapark","coordinate":{"lat":53.20480027,"lng":6.5854178},"countryCode":"NL"},{"uicCode":"8400263","stationCode":"GN","name":"Groningen","coordinate":{"lat":53.2105560302734,"lng":6.56472206115723},"countryCode":"NL"}],"direction":"BOTH"},"consequence":{"section":{"stations":[{"uicCode":"8400747","stationCode":"ZL","name":"Zwolle","coordinate":{"lat":52.5047225952148,"lng":6.09194421768188},"countryCode":"NL"}],"direction":"ONE_WAY"},"description":"rijden bussen","level":"LESS_TRAINS"},"sectionType":"NL"},{"section":{"stations":[{"uicCode":"8400747","stationCode":"ZL","name":"Zwolle","coordinate":{"lat":52.5047225952148,"lng":6.09194421768188},"countryCode":"NL"},{"uicCode":"8400435","stationCode":"MP","name":"Meppel","coordinate":{"lat":52.6908340454102,"lng":6.19750022888184},"countryCode":"NL"},{"uicCode":"8400578","stationCode":"SWK","name":"Steenwijk","coordinate":{"lat":52.7915109924316,"lng":6.11455576324463},"countryCode":"NL"},{"uicCode":"8400705","stationCode":"WV","name":"Wolvega","coordinate":{"lat":52.8808326721191,"lng":6.00361108779907},"countryCode":"NL"},{"uicCode":"8400305","stationCode":"HR","name":"Heerenveen","coordinate":{"lat":52.9613876342773,"lng":5.91416645050049},"countryCode":"NL"},{"uicCode":"8400049","stationCode":"AKM","name":"Akkrum","coordinate":{"lat":53.0463905334473,"lng":5.84361124038696},"countryCode":"NL"},{"uicCode":"8400266","stationCode":"GW","name":"Grou-Jirnsum","coordinate":{"lat":53.0888900756836,"lng":5.82250022888184},"countryCode":"NL"},{"uicCode":"8400387","stationCode":"LW","name":"Leeuwarden","coordinate":{"lat":53.1958351135254,"lng":5.79222202301025},"countryCode":"NL"}],"direction":"BOTH"},"consequence":{"section":{"stations":[{"uicCode":"8400747","stationCode":"ZL","name":"Zwolle","coordinate":{"lat":52.5047225952148,"lng":6.09194421768188},"countryCode":"NL"}],"direction":"ONE_WAY"},"description":"rijden bussen","level":"LESS_TRAINS"},"sectionType":"NL"},{"section":{"stations":[{"uicCode":"8400394","stationCode":"LLS","name":"Lelystad Centrum","coordinate":{"lat":52.5077781677246,"lng":5.47277784347534},"countryCode":"NL"},{"uicCode":"8400198","stationCode":"DRON","name":"Dronten","coordinate":{"lat":52.5344,"lng":5.72089},"countryCode":"NL"},{"uicCode":"8400360","stationCode":"KPNZ","name":"Kampen Zuid","coordinate":{"lat":52.5331,"lng":5.91309},"countryCode":"NL"},{"uicCode":"8400747","stationCode":"ZL","name":"Zwolle","coordinate":{"lat":52.5047225952148,"lng":6.09194421768188},"countryCode":"NL"}],"direction":"BOTH"},"consequence":{"section":{"stations":[{"uicCode":"8400747","stationCode":"ZL","name":"Zwolle","coordinate":{"lat":52.5047225952148,"lng":6.09194421768188},"countryCode":"NL"}],"direction":"ONE_WAY"},"description":"rijden bussen","level":"LESS_TRAINS"},"sectionType":"NL"}],"timespans":[{"start":"2023-10-08T04:00:00+0200","end":"2023-10-08T09:00:00+0200","period":"Zondag 08-10-2023 04:00 uur t/m zondag 08-10-2023 09:00 uur.","situation":{"label":"Door werkzaamheden: van, via en naar Zwolle rijden er bussen."},"cause":{"label":"werkzaamheden"},"additionalTravelTime":{"label":"De extra reistijd is ongeveer 30 minuten.","shortLabel":"extra reistijd 30 min.","minimumDurationInMinutes":30,"maximumDurationInMinutes":30},"alternativeTransport":{"label":"er rijden stopbussen","shortLabel":"er rijden stopbussen"},"advices":[]}],"alternativeTransportTimespans":[{"start":"2023-10-08T06:15:00+0200","end":"2023-10-08T07:15:00+0200","alternativeTransport":{"location":[{"station":{"uicCode":"8400690","stationCode":"WZ","name":"Wezep","coordinate":{"lat":52.4541664123535,"lng":6.00250005722046},"countryCode":"NL"},"description":"vanaf het busstation"}],"label":"Er rijden stopbussen van Zwolle, Wezep naar 't Harde.","shortLabel":"er rijden stopbussen Zwolle -> Wezep -> 't Harde"}},{"start":"2023-10-08T07:00:00+0200","end":"2023-10-08T08:55:00+0200","alternativeTransport":{"location":[{"station":{"uicCode":"8400360","stationCode":"KPNZ","name":"Kampen Zuid","coordinate":{"lat":52.5331,"lng":5.91309},"countryCode":"NL"},"description":"vanaf de voorzijde van het station"}],"label":"Er rijden stopbussen tussen Zwolle en Kampen Zuid.","shortLabel":"er rijden stopbussen Zwolle - Kampen Zuid"}},{"start":"2023-10-08T07:00:00+0200","end":"2023-10-08T08:55:00+0200","alternativeTransport":{"location":[{"station":{"uicCode":"8400435","stationCode":"MP","name":"Meppel","coordinate":{"lat":52.6908340454102,"lng":6.19750022888184},"countryCode":"NL"},"description":"vanaf de voorzijde van het station"}],"label":"Er rijden stopbussen tussen Zwolle en Meppel.","shortLabel":"er rijden stopbussen Zwolle - Meppel"}},{"start":"2023-10-08T07:00:00+0200","end":"2023-10-08T08:55:00+0200","alternativeTransport":{"location":[{"station":{"uicCode":"8400690","stationCode":"WZ","name":"Wezep","coordinate":{"lat":52.4541664123535,"lng":6.00250005722046},"countryCode":"NL"},"description":"vanaf het busstation"},{"station":{"uicCode":"8400388","stationCode":"HDE","name":"'t Harde","coordinate":{"lat":52.4091682,"lng":5.893611},"countryCode":"NL"},"description":"vanaf de achterzijde van het station"}],"label":"Er rijden stopbussen van Zwolle, Wezep, 't Harde naar Nunspeet.","shortLabel":"er rijden stopbussen Zwolle -> Wezep -> 't Harde -> Nunspeet"}},{"start":"2023-10-08T07:00:00+0200","end":"2023-10-08T08:55:00+0200","alternativeTransport":{"location":[{"station":{"uicCode":"8400711","stationCode":"WH","name":"Wijhe","coordinate":{"lat":52.3902778625488,"lng":6.1405553817749},"countryCode":"NL"},"description":"vanaf de voorzijde van het station"},{"station":{"uicCode":"8400486","stationCode":"OST","name":"Olst","coordinate":{"lat":52.3347206115723,"lng":6.11305570602417},"countryCode":"NL"},"description":"vanaf de voorzijde van het station"}],"label":"Er rijden stopbussen tussen Zwolle, Wijhe en Olst.","shortLabel":"er rijden stopbussen Zwolle - Wijhe - Olst"}},{"start":"2023-10-08T07:00:00+0200","end":"2023-10-08T08:55:00+0200","alternativeTransport":{"location":[{"station":{"uicCode":"8400167","stationCode":"DL","name":"Dalfsen","coordinate":{"lat":52.4983329772949,"lng":6.25861120223999},"countryCode":"NL"},"description":"vanaf de bushalte"}],"label":"Er rijden stopbussen tussen Zwolle en Dalfsen.","shortLabel":"er rijden stopbussen Zwolle - Dalfsen"}},{"start":"2023-10-08T08:25:00+0200","end":"2023-10-08T09:00:00+0200","alternativeTransport":{"location":[{"station":{"uicCode":"8400388","stationCode":"HDE","name":"'t Harde","coordinate":{"lat":52.4091682,"lng":5.893611},"countryCode":"NL"},"description":"vanaf de achterzijde van het station"},{"station":{"uicCode":"8400690","stationCode":"WZ","name":"Wezep","coordinate":{"lat":52.4541664123535,"lng":6.00250005722046},"countryCode":"NL"},"description":"vanaf het busstation"}],"label":"Er rijden stopbussen van 't Harde, Wezep naar Zwolle.","shortLabel":"er rijden stopbussen 't Harde -> Wezep -> Zwolle"}}]},{"id":"7003943","type":"MAINTENANCE","registrationTime":"2023-09-14T15:29:15+0200","releaseTime":"2023-09-14T15:29:15+0200","local":false,"title":"Haarlem - Alkmaar.","titleSections":[[{"type":"STATION","value":"Haarlem"},{"type":"STATION","value":"Santpoort Noord"},{"type":"ICON","value":"MAINTENANCE"},{"type":"STATION","value":"Uitgeest"},{"type":"STATION","value":"Alkmaar"}]],"isActive":false,"start":"2023-10-08T11:00:00+0200","end":"2023-10-08T23:15:00+0200","period":"Zondag 08-10-2023 11:00 uur t/m zondag 08-10-2023 23:15 uur.","impact":{"value":3},"publicationSections":[{"section":{"stations":[{"uicCode":"8400285","stationCode":"HLM","name":"Haarlem","coordinate":{"lat":52.3877792358398,"lng":4.63833332061768},"countryCode":"NL"},{"uicCode":"8400118","stationCode":"BLL","name":"Bloemendaal","coordinate":{"lat":52.404167175293,"lng":4.62750005722046},"countryCode":"NL"},{"uicCode":"8400544","stationCode":"SPTZ","name":"Santpoort Zuid","coordinate":{"lat":52.4197235107422,"lng":4.63138866424561},"countryCode":"NL"},{"uicCode":"8400543","stationCode":"SPTN","name":"Santpoort Noord","coordinate":{"lat":52.4338874816895,"lng":4.63250017166138},"countryCode":"NL"},{"uicCode":"8400183","stationCode":"DRH","name":"Driehuis","coordinate":{"lat":52.4425010681152,"lng":4.63805532455444},"countryCode":"NL"},{"uicCode":"8400113","stationCode":"BV","name":"Beverwijk","coordinate":{"lat":52.4783325195313,"lng":4.65666675567627},"countryCode":"NL"},{"uicCode":"8400317","stationCode":"HK","name":"Heemskerk","coordinate":{"lat":52.4952774047852,"lng":4.68694448471069},"countryCode":"NL"},{"uicCode":"8400615","stationCode":"UTG","name":"Uitgeest","coordinate":{"lat":52.5216674804687,"lng":4.70166683197022},"countryCode":"NL"},{"uicCode":"8400151","stationCode":"CAS","name":"Castricum","coordinate":{"lat":52.5458335876465,"lng":4.65861129760742},"countryCode":"NL"},{"uicCode":"8400309","stationCode":"HLO","name":"Heiloo","coordinate":{"lat":52.5994453430176,"lng":4.70055532455444},"countryCode":"NL"},{"uicCode":"8400050","stationCode":"AMR","name":"Alkmaar","coordinate":{"lat":52.6377792358398,"lng":4.73972225189209},"countryCode":"NL"}],"direction":"BOTH"},"consequence":{"section":{"stations":[{"uicCode":"8400543","stationCode":"SPTN","name":"Santpoort Noord","coordinate":{"lat":52.4338874816895,"lng":4.63250017166138},"countryCode":"NL"},{"uicCode":"8400183","stationCode":"DRH","name":"Driehuis","coordinate":{"lat":52.4425010681152,"lng":4.63805532455444},"countryCode":"NL"},{"uicCode":"8400113","stationCode":"BV","name":"Beverwijk","coordinate":{"lat":52.4783325195313,"lng":4.65666675567627},"countryCode":"NL"},{"uicCode":"8400317","stationCode":"HK","name":"Heemskerk","coordinate":{"lat":52.4952774047852,"lng":4.68694448471069},"countryCode":"NL"},{"uicCode":"8400615","stationCode":"UTG","name":"Uitgeest","coordinate":{"lat":52.5216674804687,"lng":4.70166683197022},"countryCode":"NL"}],"direction":"ONE_WAY"},"description":"rijden bussen","level":"LESS_TRAINS"},"sectionType":"NL"}],"timespans":[{"start":"2023-10-08T11:00:00+0200","end":"2023-10-08T23:15:00+0200","period":"Zondag 08-10-2023 11:00 uur t/m zondag 08-10-2023 23:15 uur.","situation":{"label":"Door werkzaamheden: tussen Santpoort Noord en Uitgeest rijden er bussen."},"cause":{"label":"werkzaamheden"},"alternativeTransport":{"label":"er rijden stopbussen","shortLabel":"er rijden stopbussen"},"advices":["tussen Santpoort Zuid en Uitgeest reist u via Zaandam"]}],"alternativeTransportTimespans":[{"start":"2023-10-08T11:00:00+0200","end":"2023-10-08T23:15:00+0200","alternativeTransport":{"location":[{"station":{"uicCode":"8400543","stationCode":"SPTN","name":"Santpoort Noord","coordinate":{"lat":52.4338874816895,"lng":4.63250017166138},"countryCode":"NL"},"description":"vanaf de voorzijde van het station"},{"station":{"uicCode":"8400183","stationCode":"DRH","name":"Driehuis","coordinate":{"lat":52.4425010681152,"lng":4.63805532455444},"countryCode":"NL"},"description":"vanaf de van den Vondellaan"},{"station":{"uicCode":"8400113","stationCode":"BV","name":"Beverwijk","coordinate":{"lat":52.4783325195313,"lng":4.65666675567627},"countryCode":"NL"},"description":"vanaf het busstation"},{"station":{"uicCode":"8400317","stationCode":"HK","name":"Heemskerk","coordinate":{"lat":52.4952774047852,"lng":4.68694448471069},"countryCode":"NL"},"description":"vanaf de voorzijde van het station"},{"station":{"uicCode":"8400615","stationCode":"UTG","name":"Uitgeest","coordinate":{"lat":52.5216674804687,"lng":4.70166683197022},"countryCode":"NL"},"description":"vanaf de achterzijde van het station"}],"label":"Er rijden stopbussen tussen Santpoort Noord, Driehuis, Beverwijk, Heemskerk en Uitgeest.","shortLabel":"er rijden stopbussen Santpoort Noord - Driehuis - Beverwijk - Heemskerk - Uitgeest"}}]},{"id":"7004003","type":"MAINTENANCE","registrationTime":"2023-09-28T09:39:44+0200","releaseTime":"2023-09-28T09:39:44+0200","local":false,"title":"Leiden - Alphen a/d Rijn.","titleSections":[[{"type":"STATION","value":"Leiden C."},{"type":"ICON","value":"MAINTENANCE"},{"type":"STATION","value":"Alphen a/d Rijn"}]],"isActive":false,"start":"2023-10-10T00:40:00+0200","end":"2023-10-10T01:30:00+0200","period":"Dinsdag 10-10-2023 00:40 uur t/m dinsdag 10-10-2023 01:30 uur.","impact":{"value":3},"summaryAdditionalTravelTime":{"label":"De extra reistijd is ongeveer 15 minuten.","shortLabel":"extra reistijd 15 min.","minimumDurationInMinutes":15,"maximumDurationInMinutes":15},"publicationSections":[{"section":{"stations":[{"uicCode":"8400390","stationCode":"LEDN","name":"Leiden Centraal","coordinate":{"lat":52.1661109924316,"lng":4.48166656494141},"countryCode":"NL"},{"uicCode":"8400384","stationCode":"LDL","name":"Leiden Lammenschans","coordinate":{"lat":52.1469459533691,"lng":4.49249982833862},"countryCode":"NL"},{"uicCode":"8400053","stationCode":"APN","name":"Alphen a/d Rijn","coordinate":{"lat":52.1244430541992,"lng":4.65777778625488},"countryCode":"NL"}],"direction":"ONE_WAY"},"consequence":{"section":{"stations":[{"uicCode":"8400390","stationCode":"LEDN","name":"Leiden Centraal","coordinate":{"lat":52.1661109924316,"lng":4.48166656494141},"countryCode":"NL"},{"uicCode":"8400384","stationCode":"LDL","name":"Leiden Lammenschans","coordinate":{"lat":52.1469459533691,"lng":4.49249982833862},"countryCode":"NL"},{"uicCode":"8400053","stationCode":"APN","name":"Alphen a/d Rijn","coordinate":{"lat":52.1244430541992,"lng":4.65777778625488},"countryCode":"NL"}],"direction":"ONE_WAY"},"description":"rijden bussen","level":"LESS_TRAINS"},"sectionType":"NL"}],"timespans":[{"start":"2023-10-10T00:40:00+0200","end":"2023-10-10T01:30:00+0200","period":"Dinsdag 10-10-2023 00:40 uur t/m dinsdag 10-10-2023 01:30 uur.","situation":{"label":"Door werkzaamheden: van Alphen a/d Rijn naar Leiden Centraal rijden er bussen."},"cause":{"label":"werkzaamheden"},"additionalTravelTime":{"label":"De extra reistijd is ongeveer 15 minuten.","shortLabel":"extra reistijd 15 min.","minimumDurationInMinutes":15,"maximumDurationInMinutes":15},"alternativeTransport":{"label":"er rijden stopbussen","shortLabel":"er rijden stopbussen"},"advices":[]}],"alternativeTransportTimespans":[{"start":"2023-10-10T00:40:00+0200","end":"2023-10-10T01:30:00+0200","alternativeTransport":{"location":[{"station":{"uicCode":"8400053","stationCode":"APN","name":"Alphen a/d Rijn","coordinate":{"lat":52.1244430541992,"lng":4.65777778625488},"countryCode":"NL"},"description":"vanaf het busstation, centrumzijde"},{"station":{"uicCode":"8400384","stationCode":"LDL","name":"Leiden Lammenschans","coordinate":{"lat":52.1469459533691,"lng":4.49249982833862},"countryCode":"NL"},"description":"vanaf de Lammenschansweg"}],"label":"Er rijden stopbussen van Alphen a/d Rijn, Leiden Lammenschans naar Leiden Centraal.","shortLabel":"er rijden stopbussen Alphen a/d Rijn -> Lammenschans -> Leiden C."}}]},{"id":"7004035","type":"MAINTENANCE","registrationTime":"2023-09-28T09:39:00+0200","releaseTime":"2023-09-28T09:39:00+0200","local":false,"title":"Leiden - Den Haag; Schiphol - Leiden.","titleSections":[[{"type":"STATION","value":"Leiden C."},{"type":"ICON","value":"MAINTENANCE"},{"type":"STATION","value":"Den Haag C."}],[{"type":"STATION","value":"Schiphol Airport"},{"type":"STATION","value":"Hoofddorp"},{"type":"ICON","value":"MAINTENANCE"},{"type":"STATION","value":"Leiden C."}]],"isActive":false,"start":"2023-10-10T05:00:00+0200","end":"2023-10-10T05:35:00+0200","period":"Dinsdag 10-10-2023 05:00 uur t/m dinsdag 10-10-2023 05:35 uur.","impact":{"value":2},"summaryAdditionalTravelTime":{"label":"U heeft geen langere reistijd.","shortLabel":"Geen extra reistijd"},"publicationSections":[{"section":{"stations":[{"uicCode":"8400390","stationCode":"LEDN","name":"Leiden Centraal","coordinate":{"lat":52.1661109924316,"lng":4.48166656494141},"countryCode":"NL"},{"uicCode":"8400188","stationCode":"DVNK","name":"De Vink","coordinate":{"lat":52.1472206115723,"lng":4.4563889503479},"countryCode":"NL"},{"uicCode":"8400659","stationCode":"VST","name":"Voorschoten","coordinate":{"lat":52.1252784729004,"lng":4.43249988555908},"countryCode":"NL"},{"uicCode":"8400278","stationCode":"GVM","name":"Den Haag Mariahoeve","coordinate":{"lat":52.0905570983887,"lng":4.36944437026978},"countryCode":"NL"},{"uicCode":"8400380","stationCode":"LAA","name":"Den Haag Laan v NOI","coordinate":{"lat":52.0786094665527,"lng":4.34277772903442},"countryCode":"NL"},