[{"type":"MAINTENANCE","id":"7004492","title":"Groningen - Leer.","isActive":true,"local":false,"titleSections":[[{"type":"STATION","value":"Groningen"},{"type":"STATION","value":"Bad Nieuweschans"},{"type":"ICON","value":"MAINTENANCE"},{"type":"STATION","value":"Weener"},{"type":"STATION","value":"Leer (Ostfr.)"}]],"registrationTime":"2024-04-09T09:47:33+0200","start":"2024-02-01T04:00:00+0100","releaseTime":"2024-04-09T09:47:33+0200","end":"2024-12-14T23:59:00+0100","period":"Donderdag 1 februari 4:00 uur t/m zaterdag 14 december 23:59 uur.","impact":{"value":3},"publicationSections":[{"section":{"stations":[{"coordinate":{"lat":53.2105560302734,"lng":6.56472206115723},"countryCode":"NL","name":"Groningen","stationCode":"GN","uicCode":"8400263"},{"coordinate":{"lat":53.20480027,"lng":6.5854178},"countryCode":"NL","name":"Groningen Europapark","stationCode":"GERP","uicCode":"8400238"},{"coordinate":{"lat":53.1617362,"lng":6.7220882},"countryCode":"NL","name":"Kropswolde","stationCode":"KW","uicCode":"8400369"},{"coordinate":{"lat":53.1607232,"lng":6.7402989},"countryCode":"NL","name":"Martenshoek","stationCode":"MTH","uicCode":"8400430"},{"coordinate":{"lat":53.1598181316756,"lng":6.77075386047363},"countryCode":"NL","name":"Hoogezand-Sappemeer","stationCode":"HGZ","uicCode":"8400331"},{"coordinate":{"lat":53.1596122800056,"lng":6.8679141998291},"countryCode":"NL","name":"Zuidbroek","stationCode":"ZB","uicCode":"8400742"},{"coordinate":{"lat":53.1655362,"lng":6.9777775},"countryCode":"NL","name":"Scheemda","stationCode":"SDA","uicCode":"8400551"},{"coordinate":{"lat":53.1392377,"lng":7.035101},"countryCode":"NL","name":"Winschoten","stationCode":"WS","uicCode":"8400696"},{"coordinate":{"lat":53.1844,"lng":7.19937},"countryCode":"NL","name":"Bad Nieuweschans","stationCode":"NSCH","uicCode":"8400457"},{"coordinate":{"lat":53.16311,"lng":7.3442},"countryCode":"D","name":"Weener","stationCode":"WR","uicCode":"8021239"},{"coordinate":{"lat":53.23165,"lng":7.465283},"countryCode":"D","name":"Leer (Ostfriesl)","stationCode":"LEER","uicCode":"8021091"}],"direction":"BOTH"},"consequence":{"section":{"stations":[{"coordinate":{"lat":53.1844,"lng":7.19937},"countryCode":"NL","name":"Bad Nieuweschans","stationCode":"NSCH","uicCode":"8400457"},{"coordinate":{"lat":53.16311,"lng":7.3442},"countryCode":"D","name":"Weener","stationCode":"WR","uicCode":"8021239"}],"direction":"ONE_WAY"},"description":"rijden bussen","level":"LESS_TRAINS"},"sectionType":"NEIGHBORING_COUNTRY"}],"summaryAdditionalTravelTime":{"label":"De extra reistijd kan oplopen tot 30 minuten.","shortLabel":"extra reistijd tot 30 min.","maximumDurationInMinutes":30},"timespans":[{"start":"2024-02-01T04:00:00+0100","end":"2024-12-14T23:59:00+0100","period":"Donderdag 1 februari 4:00 uur t/m zaterdag 14 december 23:59 uur.","situation":{"label":"Door werkzaamheden: tussen Bad Nieuweschans en Weener rijden er bussen."},"cause":{"label":"werkzaamheden"},"additionalTravelTime":{"label":"De extra reistijd kan oplopen tot 30 minuten.","shortLabel":"extra reistijd tot 30 min.","maximumDurationInMinutes":30},"alternativeTransport":{"label":"er rijden stopbussen","shortLabel":"er rijden stopbussen"},"advices":[]}],"alternativeTransportTimespans":[{"start":"2024-02-01T04:00:00+0100","end":"2024-12-14T23:59:00+0100","alternativeTransport":{"location":[{"station":{"coordinate":{"lat":53.1844,"lng":7.19937},"countryCode":"NL","name":"Bad Nieuweschans","stationCode":"NSCH","uicCode":"8400457"},"description":"vanaf de voorzijde van het station"},{"station":{"coordinate":{"lat":53.16311,"lng":7.3442},"countryCode":"D","name":"Weener","stationCode":"WR","uicCode":"8021239"},"description":"vanaf de voorzijde van het station"},{"station":{"coordinate":{"lat":53.23165,"lng":7.465283},"countryCode":"D","name":"Leer (Ostfriesl)","stationCode":"LEER","uicCode":"8021091"},"description":"vanaf het busstation"}],"label":"Er rijden stopbussen tussen Bad Nieuweschans, Weener en Leer (Ostfriesl).","shortLabel":"er rijden stopbussen Bad Nieuweschans - Weener - Leer (Ostfr.)"}}]},{"type":"MAINTENANCE","id":"7004796","title":"Tilburg.","isActive":true,"local":false,"titleSections":[[{"type":"STATION","value":"Tilburg"}]],"registrationTime":"2024-04-30T16:30:35+0200","start":"2024-04-28T02:30:00+0200","releaseTime":"2024-04-30T16:30:35+0200","end":"2024-05-13T02:00:00+0200","period":"Zondag 28 april 2:30 uur t/m maandag 13 mei 2:00 uur.","impact":{"value":5},"publicationSections":[{"section":{"stations":[{"coordinate":{"lat":51.5955543518066,"lng":4.78000020980835},"countryCode":"NL","name":"Breda","stationCode":"BD","uicCode":"8400131"},{"coordinate":{"lat":51.583610534668,"lng":4.92611122131348},"countryCode":"NL","name":"Gilze-Rijen","stationCode":"GZ","uicCode":"8400251"},{"coordinate":{"lat":51.5736122131348,"lng":4.99444437026978},"countryCode":"NL","name":"Tilburg Reeshof","stationCode":"TBR","uicCode":"8400598"},{"coordinate":{"lat":51.564985,"lng":5.051778},"countryCode":"NL","name":"Tilburg Universiteit","stationCode":"TBU","uicCode":"8400594"},{"coordinate":{"lat":51.5605545043945,"lng":5.08361101150513},"countryCode":"NL","name":"Tilburg","stationCode":"TB","uicCode":"8400597"},{"coordinate":{"lat":51.69048,"lng":5.29362},"countryCode":"NL","name":"'s-Hertogenbosch","stationCode":"HT","uicCode":"8400319"}],"direction":"BOTH"},"consequence":{"section":{"stations":[{"coordinate":{"lat":51.5605545043945,"lng":5.08361101150513},"countryCode":"NL","name":"Tilburg","stationCode":"TB","uicCode":"8400597"}],"direction":"ONE_WAY"},"description":"rijden bussen","level":"LESS_TRAINS"},"sectionType":"NL"},{"section":{"stations":[{"coordinate":{"lat":51.5955543518066,"lng":4.78000020980835},"countryCode":"NL","name":"Breda","stationCode":"BD","uicCode":"8400131"},{"coordinate":{"lat":51.583610534668,"lng":4.92611122131348},"countryCode":"NL","name":"Gilze-Rijen","stationCode":"GZ","uicCode":"8400251"},{"coordinate":{"lat":51.5736122131348,"lng":4.99444437026978},"countryCode":"NL","name":"Tilburg Reeshof","stationCode":"TBR","uicCode":"8400598"},{"coordinate":{"lat":51.564985,"lng":5.051778},"countryCode":"NL","name":"Tilburg Universiteit","stationCode":"TBU","uicCode":"8400594"},{"coordinate":{"lat":51.5605545043945,"lng":5.08361101150513},"countryCode":"NL","name":"Tilburg","stationCode":"TB","uicCode":"8400597"},{"coordinate":{"lat":51.5822219848633,"lng":5.19416666030884},"countryCode":"NL","name":"Oisterwijk","stationCode":"OT","uicCode":"8400482"},{"coordinate":{"lat":51.58433,"lng":5.31912},"countryCode":"NL","name":"Boxtel","stationCode":"BTL","uicCode":"8400129"},{"coordinate":{"lat":51.5099983215332,"lng":5.38916683197022},"countryCode":"NL","name":"Best","stationCode":"BET","uicCode":"8400112"},{"coordinate":{"lat":51.4511108398438,"lng":5.45583343505859},"countryCode":"NL","name":"Eindhoven Strijp-S","stationCode":"EHS","uicCode":"8400196"},{"coordinate":{"lat":51.4433326721191,"lng":5.48138904571533},"countryCode":"NL","name":"Eindhoven Centraal","stationCode":"EHV","uicCode":"8400206"}],"direction":"BOTH"},"consequence":{"section":{"stations":[{"coordinate":{"lat":51.5605545043945,"lng":5.08361101150513},"countryCode":"NL","name":"Tilburg","stationCode":"TB","uicCode":"8400597"}],"direction":"ONE_WAY"},"description":"rijden bussen","level":"LESS_TRAINS"},"sectionType":"NL"}],"summaryAdditionalTravelTime":{"label":"De extra reistijd kan oplopen tot 30 minuten.","shortLabel":"extra reistijd tot 30 min.","maximumDurationInMinutes":30},"timespans":[{"start":"2024-04-28T02:30:00+0200","end":"2024-05-13T02:00:00+0200","period":"Zondag 28 april 2:30 uur t/m maandag 13 mei 2:00 uur.","situation":{"label":"Door werkzaamheden: van, via en naar Tilburg rijden er bussen."},"cause":{"label":"werkzaamheden"},"additionalTravelTime":{"label":"De extra reistijd kan oplopen tot 30 minuten.","shortLabel":"extra reistijd tot 30 min.","maximumDurationInMinutes":30},"alternativeTransport":{"label":"er rijden stop- en snelbussen","shortLabel":"er rijden stop- en snelbussen"},"advices":["Let op! Maandag 13 mei tot 23:00 uur nog hinder op het traject Breda-Tilburg.","tussen Rotterdam C. en Eindhoven C. reis via Utrecht C."]}],"alternativeTransportTimespans":[{"start":"2024-04-28T02:30:00+0200","end":"2024-05-13T02:00:00+0200","alternativeTransport":{"location":[{"station":{"coordinate":{"lat":51.564985,"lng":5.051778},"countryCode":"NL","name":"Tilburg Universiteit","stationCode":"TBU","uicCode":"8400594"},"description":"onder het spoorviaduct"},{"station":{"coordinate":{"lat":51.5605545043945,"lng":5.08361101150513},"countryCode":"NL","name":"Tilburg","stationCode":"TB","uicCode":"8400597"},"description":"vanaf de achterzijde van het station"},{"station":{"coordinate":{"lat":51.5822219848633,"lng":5.19416666030884},"countryCode":"NL","name":"Oisterwijk","stationCode":"OT","uicCode":"8400482"},"description":"vanaf de K+R strook aan de Schijfstraat"}],"label":"Er rijden stopbussen tussen Tilburg Universiteit, Tilburg en Oisterwijk.","shortLabel":"er rijden stopbussen Tilburg Uni. - Tilburg - Oisterwijk"}},{"start":"2024-04-28T02:30:00+0200","end":"2024-05-13T02:00:00+0200","alternativeTransport":{"location":[{"station":{"coordinate":{"lat":51.5822219848633,"lng":5.19416666030884},"countryCode":"NL","name":"Oisterwijk","stationCode":"OT","uicCode":"8400482"},"description":"vanaf de K+R strook aan de Schijfstraat"},{"station":{"coordinate":{"lat":51.58433,"lng":5.31912},"countryCode":"NL","name":"Boxtel","stationCode":"BTL","uicCode":"8400129"},"description":"vanaf de NS bushalte aan de van Salmstraat"}],"label":"Er rijden stopbussen tussen Oisterwijk en Boxtel.","shortLabel":"er rijden stopbussen Oisterwijk - Boxtel"}},{"start":"2024-04-28T02:30:00+0200","end":"2024-05-13T02:00:00+0200","alternativeTransport":{"location":[{"station":{"coordinate":{"lat":51.5955543518066,"lng":4.78000020980835},"countryCode":"NL","name":"Breda","stationCode":"BD","uicCode":"8400131"},"description":"vanaf de Belcrumzijde"},{"station":{"coordinate":{"lat":51.583610534668,"lng":4.92611122131348},"countryCode":"NL","name":"Gilze-Rijen","stationCode":"GZ","uicCode":"8400251"},"description":"vanaf de voorzijde van het station"},{"station":{"coordinate":{"lat":51.5736122131348,"lng":4.99444437026978},"countryCode":"NL","name":"Tilburg Reeshof","stationCode":"TBR","uicCode":"8400598"},"description":"onder het spoorviaduct"},{"station":{"coordinate":{"lat":51.564985,"lng":5.051778},"countryCode":"NL","name":"Tilburg Universiteit","stationCode":"TBU","uicCode":"8400594"},"description":"onder het spoorviaduct"},{"station":{"coordinate":{"lat":51.5605545043945,"lng":5.08361101150513},"countryCode":"NL","name":"Tilburg","stationCode":"TB","uicCode":"8400597"},"description":"vanaf de achterzijde van het station"}],"label":"Er rijden stopbussen tussen Breda, Gilze-Rijen, Tilburg Reeshof, Tilburg Universiteit en Tilburg.","shortLabel":"er rijden stopbussen Breda - Gilze-Rijen - Reeshof - Tilburg Uni. - Tilburg"}},{"start":"2024-04-28T02:30:00+0200","end":"2024-05-13T02:00:00+0200","alternativeTransport":{"location":[{"station":{"coordinate":{"lat":51.5955543518066,"lng":4.78000020980835},"countryCode":"NL","name":"Breda","stationCode":"BD","uicCode":"8400131"},"description":"vanaf de Belcrumzijde"},{"station":{"coordinate":{"lat":51.5605545043945,"lng":5.08361101150513},"countryCode":"NL","name":"Tilburg","stationCode":"TB","uicCode":"8400597"},"description":"vanaf de achterzijde van het station"},{"station":{"coordinate":{"lat":51.69048,"lng":5.29362},"countryCode":"NL","name":"'s-Hertogenbosch","stationCode":"HT","uicCode":"8400319"},"description":"vanaf de speciale uitgang op het perron bij spoor 1"}],"label":"Er rijden snelbussen tussen Breda, Tilburg en 's-Hertogenbosch.","shortLabel":"er rijden snelbussen Breda - Tilburg - 's-Hertogenbosch"}},{"start":"2024-05-04T00:25:00+0200","end":"2024-05-04T02:35:00+0200","alternativeTransport":{"location":[{"station":{"coordinate":{"lat":51.8072204589844,"lng":4.66833353042603},"countryCode":"NL","name":"Dordrecht","stationCode":"DDR","uicCode":"8400180"},"description":"vanaf de Burgemeester de Raadtsingel"},{"station":{"coordinate":{"lat":51.5955543518066,"lng":4.78000020980835},"countryCode":"NL","name":"Breda","stationCode":"BD","uicCode":"8400131"},"description":"vanaf de Belcrumzijde"},{"station":{"coordinate":{"lat":51.5605545043945,"lng":5.08361101150513},"countryCode":"NL","name":"Tilburg","stationCode":"TB","uicCode":"8400597"},"description":"vanaf de achterzijde van het station"},{"station":{"coordinate":{"lat":51.4433326721191,"lng":5.48138904571533},"countryCode":"NL","name":"Eindhoven Centraal","stationCode":"EHV","uicCode":"8400206"},"description":"vanaf de achterzijde van het station"}],"label":"Er rijden snelbussen tussen Dordrecht, Breda, Tilburg en Eindhoven Centraal.","shortLabel":"er rijden snelbussen Dordrecht - Breda - Tilburg - Eindhoven C."}},{"start":"2024-05-04T01:49:00+0200","end":"2024-05-04T02:49:00+0200","alternativeTransport":{"location":[{"station":{"coordinate":{"lat":51.5605545043945,"lng":5.08361101150513},"countryCode":"NL","name":"Tilburg","stationCode":"TB","uicCode":"8400597"},"description":"vanaf de achterzijde van het station"},{"station":{"coordinate":{"lat":51.69048,"lng":5.29362},"countryCode":"NL","name":"'s-Hertogenbosch","stationCode":"HT","uicCode":"8400319"},"description":"vanaf de speciale uitgang op het perron bij spoor 1"}],"label":"Er rijden snelbussen tussen Tilburg en 's-Hertogenbosch.","shortLabel":"er rijden snelbussen Tilburg - 's-Hertogenbosch"}},{"start":"2024-05-05T00:25:00+0200","end":"2024-05-05T02:35:00+0200","alternativeTransport":{"location":[{"station":{"coordinate":{"lat":51.8072204589844,"lng":4.66833353042603},"countryCode":"NL","name":"Dordrecht","stationCode":"DDR","uicCode":"8400180"},"description":"vanaf de Burgemeester de Raadtsingel"},{"station":{"coordinate":{"lat":51.5955543518066,"lng":4.78000020980835},"countryCode":"NL","name":"Breda","stationCode":"BD","uicCode":"8400131"},"description":"vanaf de Belcrumzijde"},{"station":{"coordinate":{"lat":51.5605545043945,"lng":5.08361101150513},"countryCode":"NL","name":"Tilburg","stationCode":"TB","uicCode":"8400597"},"description":"vanaf de achterzijde van het station"},{"station":{"coordinate":{"lat":51.4433326721191,"lng":5.48138904571533},"countryCode":"NL","name":"Eindhoven Centraal","stationCode":"EHV","uicCode":"8400206"},"description":"vanaf de achterzijde van het station"}],"label":"Er rijden snelbussen tussen Dordrecht, Breda, Tilburg en Eindhoven Centraal.","shortLabel":"er rijden snelbussen Dordrecht - Breda - Tilburg - Eindhoven C."}},{"start":"2024-05-05T01:49:00+0200","end":"2024-05-05T02:49:00+0200","alternativeTransport":{"location":[{"station":{"coordinate":{"lat":51.5605545043945,"lng":5.08361101150513},"countryCode":"NL","name":"Tilburg","stationCode":"TB","uicCode":"8400597"},"description":"vanaf de achterzijde van het station"},{"station":{"coordinate":{"lat":51.69048,"lng":5.29362},"countryCode":"NL","name":"'s-Hertogenbosch","stationCode":"HT","uicCode":"8400319"},"description":"vanaf de speciale uitgang op het perron bij spoor 1"}],"label":"Er rijden snelbussen tussen Tilburg en 's-Hertogenbosch.","shortLabel":"er rijden snelbussen Tilburg - 's-Hertogenbosch"}},{"start":"2024-05-11T00:25:00+0200","end":"2024-05-11T02:35:00+0200","alternativeTransport":{"location":[{"station":{"coordinate":{"lat":51.8072204589844,"lng":4.66833353042603},"countryCode":"NL","name":"Dordrecht","stationCode":"DDR","uicCode":"8400180"},"description":"vanaf de Burgemeester de Raadtsingel"},{"station":{"coordinate":{"lat":51.5955543518066,"lng":4.78000020980835},"countryCode":"NL","name":"Breda","stationCode":"BD","uicCode":"8400131"},"description":"vanaf de Belcrumzijde"},{"station":{"coordinate":{"lat":51.5605545043945,"lng":5.08361101150513},"countryCode":"NL","name":"Tilburg","stationCode":"TB","uicCode":"8400597"},"description":"vanaf de achterzijde van het station"},{"station":{"coordinate":{"lat":51.4433326721191,"lng":5.48138904571533},"countryCode":"NL","name":"Eindhoven Centraal","stationCode":"EHV","uicCode":"8400206"},"description":"vanaf de achterzijde van het station"}],"label":"Er rijden snelbussen tussen Dordrecht, Breda, Tilburg en Eindhoven Centraal.","shortLabel":"er rijden snelbussen Dordrecht - Breda - Tilburg - Eindhoven C."}},{"start":"2024-05-11T01:49:00+0200","end":"2024-05-11T02:49:00+0200","alternativeTransport":{"location":[{"station":{"coordinate":{"lat":51.5605545043945,"lng":5.08361101150513},"countryCode":"NL","name":"Tilburg","stationCode":"TB","uicCode":"8400597"},"description":"vanaf de achterzijde van het station"},{"station":{"coordinate":{"lat":51.69048,"lng":5.29362},"countryCode":"NL","name":"'s-Hertogenbosch","stationCode":"HT","uicCode":"8400319"},"description":"vanaf de speciale uitgang op het perron bij spoor 1"}],"label":"Er rijden snelbussen tussen Tilburg en 's-Hertogenbosch.","shortLabel":"er rijden snelbussen Tilburg - 's-Hertogenbosch"}},{"start":"2024-05-12T00:25:00+0200","end":"2024-05-12T02:35:00+0200","alternativeTransport":{"location":[{"station":{"coordinate":{"lat":51.8072204589844,"lng":4.66833353042603},"countryCode":"NL","name":"Dordrecht","stationCode":"DDR","uicCode":"8400180"},"description":"vanaf de Burgemeester de Raadtsingel"},{"station":{"coordinate":{"lat":51.5955543518066,"lng":4.78000020980835},"countryCode":"NL","name":"Breda","stationCode":"BD","uicCode":"8400131"},"description":"vanaf de Belcrumzijde"},{"station":{"coordinate":{"lat":51.5605545043945,"lng":5.08361101150513},"countryCode":"NL","name":"Tilburg","stationCode":"TB","uicCode":"8400597"},"description":"vanaf de achterzijde van het station"},{"station":{"coordinate":{"lat":51.4433326721191,"lng":5.48138904571533},"countryCode":"NL","name":"Eindhoven Centraal","stationCode":"EHV","uicCode":"8400206"},"description":"vanaf de achterzijde van het station"}],"label":"Er rijden snelbussen tussen Dordrecht, Breda, Tilburg en Eindhoven Centraal.","shortLabel":"er rijden snelbussen Dordrecht - Breda - Tilburg - Eindhoven C."}},{"start":"2024-05-12T01:49:00+0200","end":"2024-05-12T02:49:00+0200","alternativeTransport":{"location":[{"station":{"coordinate":{"lat":51.5605545043945,"lng":5.08361101150513},"countryCode":"NL","name":"Tilburg","stationCode":"TB","uicCode":"8400597"},"description":"vanaf de achterzijde van het station"},{"station":{"coordinate":{"lat":51.69048,"lng":5.29362},"countryCode":"NL","name":"'s-Hertogenbosch","stationCode":"HT","uicCode":"8400319"},"description":"vanaf de speciale uitgang op het perron bij spoor 1"}],"label":"Er rijden snelbussen tussen Tilburg en 's-Hertogenbosch.","shortLabel":"er rijden snelbussen Tilburg - 's-Hertogenbosch"}}]},{"type":"MAINTENANCE","id":"7004925","title":"Den Haag - Rotterdam.","isActive":true,"local":false,"titleSections":[[{"type":"STATION","value":"Den Haag C."},{"type":"ICON","value":"MAINTENANCE"},{"type":"STATION","value":"Den Haag HS"},{"type":"STATION","value":"Rotterdam C."}]],"registrationTime":"2024-05-03T16:35:41+0200","start":"2024-05-06T06:30:00+0200","releaseTime":"2024-05-03T16:35:41+0200","end":"2024-05-10T20:30:00+0200","period":"Maandag 6 mei 6:30 uur t/m vrijdag 10 mei 20:30 uur.","impact":{"value":2},"publicationSections":[{"section":{"stations":[{"coordinate":{"lat":52.0802764892578,"lng":4.32499980926514},"countryCode":"NL","name":"Den Haag Centraal","stationCode":"GVC","uicCode":"8400282"},{"coordinate":{"lat":52.0697212219238,"lng":4.32250022888184},"countryCode":"NL","name":"Den Haag HS","stationCode":"GV","uicCode":"8400280"},{"coordinate":{"lat":52.0538902282715,"lng":4.3086109161377},"countryCode":"NL","name":"Den Haag Moerwijk","stationCode":"GVMW","uicCode":"8400279"},{"coordinate":{"lat":52.039722442627,"lng":4.31916666030884},"countryCode":"NL","name":"Rijswijk","stationCode":"RSW","uicCode":"8400505"},{"coordinate":{"lat":52.0066680908203,"lng":4.35638904571533},"countryCode":"NL","name":"Delft","stationCode":"DT","uicCode":"8400170"},{"coordinate":{"lat":51.9908332824707,"lng":4.36472225189209},"countryCode":"NL","name":"Delft Campus","stationCode":"DTCP","uicCode":"8400166"},{"coordinate":{"lat":51.9212438128032,"lng":4.4089937210083},"countryCode":"NL","name":"Schiedam Centrum","stationCode":"SDM","uicCode":"8400553"},{"coordinate":{"lat":51.9249992370605,"lng":4.46888875961304},"countryCode":"NL","name":"Rotterdam Centraal","stationCode":"RTD","uicCode":"8400530"}],"direction":"BOTH"},"consequence":{"section":{"stations":[{"coordinate":{"lat":52.0802764892578,"lng":4.32499980926514},"countryCode":"NL","name":"Den Haag Centraal","stationCode":"GVC","uicCode":"8400282"},{"coordinate":{"lat":52.0697212219238,"lng":4.32250022888184},"countryCode":"NL","name":"Den Haag HS","stationCode":"GV","uicCode":"8400280"}],"direction":"ONE_WAY"},"description":"minder Sprinters","level":"LESS_TRAINS"},"sectionType":"NL"}],"summaryAdditionalTravelTime":{"label":"De extra reistijd is ongeveer 15 minuten.","shortLabel":"extra reistijd 15 min.","minimumDurationInMinutes":15,"maximumDurationInMinutes":15},"timespans":[{"start":"2024-05-06T06:30:00+0200","end":"2024-05-10T20:30:00+0200","period":"Maandag 6 mei 6:30 uur t/m vrijdag 10 mei 20:30 uur.","situation":{"label":"Door een defect wissel: tussen Den Haag Centraal en Den Haag HS rijden er minder Sprinters."},"cause":{"label":"defect wissel"},"additionalTravelTime":{"label":"De extra reistijd is ongeveer 15 minuten.","shortLabel":"extra reistijd 15 min.","minimumDurationInMinutes":15,"maximumDurationInMinutes":15},"advices":["Dagelijks tussen 06:30 en 20:20 uur rijden er minder Sprinters tussen Den Haag Centraal en Den Haag HS. De reisplanner wordt dagelijks bijgewerkt."]}],"alternativeTransportTimespans":[]},{"type":"MAINTENANCE","id":"7004692","title":"Amsterdam - Brussel - London.","isActive":true,"local":false,"titleSections":[[{"type":"STATION","value":"Amsterdam C."},{"type":"ICON","value":"MAINTENANCE"},{"type":"STATION","value":"London St. P Int"}]],"registrationTime":"2024-04-02T13:55:20+0200","start":"2024-05-07T04:00:00+0200","releaseTime":"2024-04-02T13:55:20+0200","end":"2024-05-12T23:59:00+0200","period":"Dinsdag 7 mei 4:00 uur t/m zondag 12 mei 23:59 uur.","impact":{"value":2},"publicationSections":[{"section":{"stations":[{"coordinate":{"lat":52.3788871765137,"lng":4.90027761459351},"countryCode":"NL","name":"Amsterdam Centraal","stationCode":"ASD","uicCode":"8400058"},{"coordinate":{"lat":52.3888893127441,"lng":4.83777761459351},"countryCode":"NL","name":"Amsterdam Sloterdijk","stationCode":"ASS","uicCode":"8400059"},{"coordinate":{"lat":52.3577766418457,"lng":4.83388900756836},"countryCode":"NL","name":"Amsterdam Lelylaan","stationCode":"ASDL","uicCode":"8400079"},{"coordinate":{"lat":52.3094444274902,"lng":4.76194429397583},"countryCode":"NL","name":"Schiphol Airport","stationCode":"SHL","uicCode":"8400561"},{"coordinate":{"lat":52.2933349609375,"lng":4.70055532455444},"countryCode":"NL","name":"Hoofddorp","stationCode":"HFD","uicCode":"8400332"},{"coordinate":{"lat":51.9249992370605,"lng":4.46888875961304},"countryCode":"NL","name":"Rotterdam Centraal","stationCode":"RTD","uicCode":"8400530"},{"coordinate":{"lat":51.9202766418457,"lng":4.48888874053955},"countryCode":"NL","name":"Rotterdam Blaak","stationCode":"RTB","uicCode":"8400529"},{"coordinate":{"lat":51.9044456481934,"lng":4.51027774810791},"countryCode":"NL","name":"Rotterdam Zuid","stationCode":"RTZ","uicCode":"8400533"},{"coordinate":{"lat":51.8800010681152,"lng":4.53138875961304},"countryCode":"NL","name":"Rotterdam Lombardijen","stationCode":"RLB","uicCode":"8400542"},{"coordinate":{"lat":51.606388092041,"lng":4.72083330154419},"countryCode":"NL","name":"Breda-Prinsenbeek","stationCode":"BDPB","uicCode":"8400132"},{"coordinate":{"lat":51.5955543518066,"lng":4.78000020980835},"countryCode":"NL","name":"Breda","stationCode":"BD","uicCode":"8400131"},{"coordinate":{"lat":51.358088,"lng":4.633977},"countryCode":"B","name":"Noorderkempen","stationCode":"NDKP","uicCode":"8821105"},{"coordinate":{"lat":51.2449375,"lng":4.4251543},"countryCode":"B","name":"Antwerpen-Luchtbal","stationCode":"ATWLB","uicCode":"8821063"},{"coordinate":{"lat":51.21686,"lng":4.421242},"countryCode":"B","name":"Antwerpen-Centraal","stationCode":"ATW","uicCode":"8821006"},{"coordinate":{"lat":51.198914,"lng":4.4332},"countryCode":"B","name":"Antwerpen-Berchem","stationCode":"BERCH","uicCode":"8821121"},{"coordinate":{"lat":51.01758,"lng":4.48313},"countryCode":"B","name":"Mechelen","stationCode":"MECH","uicCode":"8822004"},{"coordinate":{"lat":50.859658,"lng":4.360854},"countryCode":"B","name":"Brussel-Noord","stationCode":"BRUSN","uicCode":"8812005"},{"coordinate":{"lat":50.845175,"lng":4.357131},"countryCode":"B","name":"Brussel-Centraal","stationCode":"BRUSC","uicCode":"8813003"},{"coordinate":{"lat":50.836782,"lng":4.336922},"countryCode":"B","name":"Brussel-Zuid Midi","stationCode":"BRUSZ","uicCode":"8814001"},{"coordinate":{"lat":50.639444,"lng":3.074722},"countryCode":"F","name":"Lille Europe","stationCode":"LILLEE","uicCode":"8722326"},{"coordinate":{"lat":51.531437,"lng":-0.126136},"countryCode":"GB","name":"London St. Pancras Int.","stationCode":"STP","uicCode":"7015400"}],"direction":"BOTH"},"consequence":{"section":{"stations":[{"coordinate":{"lat":52.3788871765137,"lng":4.90027761459351},"countryCode":"NL","name":"Amsterdam Centraal","stationCode":"ASD","uicCode":"8400058"},{"coordinate":{"lat":52.3888893127441,"lng":4.83777761459351},"countryCode":"NL","name":"Amsterdam Sloterdijk","stationCode":"ASS","uicCode":"8400059"},{"coordinate":{"lat":52.3577766418457,"lng":4.83388900756836},"countryCode":"NL","name":"Amsterdam Lelylaan","stationCode":"ASDL","uicCode":"8400079"},{"coordinate":{"lat":52.3094444274902,"lng":4.76194429397583},"countryCode":"NL","name":"Schiphol Airport","stationCode":"SHL","uicCode":"8400561"},{"coordinate":{"lat":52.2933349609375,"lng":4.70055532455444},"countryCode":"NL","name":"Hoofddorp","stationCode":"HFD","uicCode":"8400332"},{"coordinate":{"lat":51.9249992370605,"lng":4.46888875961304},"countryCode":"NL","name":"Rotterdam Centraal","stationCode":"RTD","uicCode":"8400530"},{"coordinate":{"lat":51.9202766418457,"lng":4.48888874053955},"countryCode":"NL","name":"Rotterdam Blaak","stationCode":"RTB","uicCode":"8400529"},{"coordinate":{"lat":51.9044456481934,"lng":4.51027774810791},"countryCode":"NL","name":"Rotterdam Zuid","stationCode":"RTZ","uicCode":"8400533"},{"coordinate":{"lat":51.8800010681152,"lng":4.53138875961304},"countryCode":"NL","name":"Rotterdam Lombardijen","stationCode":"RLB","uicCode":"8400542"},{"coordinate":{"lat":51.606388092041,"lng":4.72083330154419},"countryCode":"NL","name":"Breda-Prinsenbeek","stationCode":"BDPB","uicCode":"8400132"},{"coordinate":{"lat":51.5955543518066,"lng":4.78000020980835},"countryCode":"NL","name":"Breda","stationCode":"BD","uicCode":"8400131"},{"coordinate":{"lat":51.358088,"lng":4.633977},"countryCode":"B","name":"Noorderkempen","stationCode":"NDKP","uicCode":"8821105"},{"coordinate":{"lat":51.2449375,"lng":4.4251543},"countryCode":"B","name":"Antwerpen-Luchtbal","stationCode":"ATWLB","uicCode":"8821063"},{"coordinate":{"lat":51.21686,"lng":4.421242},"countryCode":"B","name":"Antwerpen-Centraal","stationCode":"ATW","uicCode":"8821006"},{"coordinate":{"lat":51.198914,"lng":4.4332},"countryCode":"B","name":"Antwerpen-Berchem","stationCode":"BERCH","uicCode":"8821121"},{"coordinate":{"lat":51.01758,"lng":4.48313},"countryCode":"B","name":"Mechelen","stationCode":"MECH","uicCode":"8822004"},{"coordinate":{"lat":50.859658,"lng":4.360854},"countryCode":"B","name":"Brussel-Noord","stationCode":"BRUSN","uicCode":"8812005"},{"coordinate":{"lat":50.845175,"lng":4.357131},"countryCode":"B","name":"Brussel-Centraal","stationCode":"BRUSC","uicCode":"8813003"},{"coordinate":{"lat":50.836782,"lng":4.336922},"countryCode":"B","name":"Brussel-Zuid Midi","stationCode":"BRUSZ","uicCode":"8814001"},{"coordinate":{"lat":50.639444,"lng":3.074722},"countryCode":"F","name":"Lille Europe","stationCode":"LILLEE","uicCode":"8722326"},{"coordinate":{"lat":51.531437,"lng":-0.126136},"countryCode":"GB","name":"London St. Pancras Int.","stationCode":"STP","uicCode":"7015400"}],"direction":"ONE_WAY"},"description":"aangepaste internationale dienstregeling","level":"LESS_TRAINS"},"sectionType":"HSL"}],"summaryAdditionalTravelTime":{"label":"U heeft geen langere reistijd.","shortLabel":"Geen extra reistijd"},"timespans":[{"start":"2024-05-07T04:00:00+0200","end":"2024-05-12T23:59:00+0200","period":"Dinsdag 7 mei 4:00 uur t/m zondag 12 mei 23:59 uur.","situation":{"label":"Door werkzaamheden: tussen Amsterdam Centraal en London St. Pancras Int. is de internationale dienstregeling aangepast."},"cause":{"label":"werkzaamheden"},"additionalTravelTime":{"label":"U heeft geen langere reistijd.","shortLabel":"Geen extra reistijd"},"advices":["Eurostar naar London stopt niet in Rotterdam Centraal."]}],"alternativeTransportTimespans":[]},{"type":"MAINTENANCE","id":"7004827","title":"Amsterdam - Schiphol - Leiden.","isActive":true,"local":false,"titleSections":[[{"type":"STATION","value":"Amsterdam C."},{"type":"STATION","value":"Schiphol Airport"},{"type":"ICON","value":"MAINTENANCE"},{"type":"STATION","value":"Hoofddorp"},{"type":"STATION","value":"Leiden C."}]],"registrationTime":"2024-04-15T10:22:49+0200","start":"2024-05-09T01:00:00+0200","releaseTime":"2024-04-15T10:22:49+0200","end":"2024-05-13T01:30:00+0200","period":"Donderdag 9 mei 1:00 uur t/m maandag 13 mei 1:30 uur.","impact":{"value":2},"publicationSections":[{"section":{"stations":[{"coordinate":{"lat":52.3788871765137,"lng":4.90027761459351},"countryCode":"NL","name":"Amsterdam Centraal","stationCode":"ASD","uicCode":"8400058"},{"coordinate":{"lat":52.3888893127441,"lng":4.83777761459351},"countryCode":"NL","name":"Amsterdam Sloterdijk","stationCode":"ASS","uicCode":"8400059"},{"coordinate":{"lat":52.3577766418457,"lng":4.83388900756836},"countryCode":"NL","name":"Amsterdam Lelylaan","stationCode":"ASDL","uicCode":"8400079"},{"coordinate":{"lat":52.3094444274902,"lng":4.76194429397583},"countryCode":"NL","name":"Schiphol Airport","stationCode":"SHL","uicCode":"8400561"},{"coordinate":{"lat":52.2933349609375,"lng":4.70055532455444},"countryCode":"NL","name":"Hoofddorp","stationCode":"HFD","uicCode":"8400332"},{"coordinate":{"lat":52.2588882446289,"lng":4.64555549621582},"countryCode":"NL","name":"Nieuw Vennep","stationCode":"NVP","uicCode":"8400460"},{"coordinate":{"lat":52.215278,"lng":4.517222},"countryCode":"NL","name":"Sassenheim","stationCode":"SSH","uicCode":"8400603"},{"coordinate":{"lat":52.1661109924316,"lng":4.48166656494141},"countryCode":"NL","name":"Leiden Centraal","stationCode":"LEDN","uicCode":"8400390"}],"direction":"BOTH"},"consequence":{"section":{"stations":[{"coordinate":{"lat":52.3094444274902,"lng":4.76194429397583},"countryCode":"NL","name":"Schiphol Airport","stationCode":"SHL","uicCode":"8400561"},{"coordinate":{"lat":52.2933349609375,"lng":4.70055532455444},"countryCode":"NL","name":"Hoofddorp","stationCode":"HFD","uicCode":"8400332"}],"direction":"ONE_WAY"},"description":"dienstregeling aangepast","level":"LESS_TRAINS"},"sectionType":"NL"}],"summaryAdditionalTravelTime":{"label":"De extra reistijd is ongeveer 15 minuten.","shortLabel":"extra reistijd 15 min.","minimumDurationInMinutes":15,"maximumDurationInMinutes":15},"timespans":[{"start":"2024-05-09T01:00:00+0200","end":"2024-05-13T01:30:00+0200","period":"Donderdag 9 mei 1:00 uur t/m maandag 13 mei 1:30 uur.","situation":{"label":"Door werkzaamheden: tussen Schiphol Airport en Hoofddorp is de dienstregeling aangepast."},"cause":{"label":"werkzaamheden"},"additionalTravelTime":{"label":"De extra reistijd is ongeveer 15 minuten.","shortLabel":"extra reistijd 15 min.","minimumDurationInMinutes":15,"maximumDurationInMinutes":15},"alternativeTransport":{"label":"er rijden stopbussen","shortLabel":"er rijden stopbussen"},"advices":["tussen Hoofddorp en Nieuw Vennep reis via Schiphol Airport"]}],"alternativeTransportTimespans":[{"start":"2024-05-09T01:00:00+0200","end":"2024-05-09T01:45:00+0200","alternativeTransport":{"location":[{"station":{"coordinate":{"lat":52.3094444274902,"lng":4.76194429397583},"countryCode":"NL","name":"Schiphol Airport","stationCode":"SHL","uicCode":"8400561"},"description":"van het busstation halte C15 en C17"},{"station":{"coordinate":{"lat":52.2933349609375,"lng":4.70055532455444},"countryCode":"NL","name":"Hoofddorp","stationCode":"HFD","uicCode":"8400332"},"description":"onder het spoorviaduct"}],"label":"Er rijden stopbussen van Schiphol Airport naar Hoofddorp.","shortLabel":"er rijden stopbussen Schiphol Airport -> Hoofddorp"}},{"start":"2024-05-09T04:45:00+0200","end":"2024-05-09T06:30:00+0200","alternativeTransport":{"location":[{"station":{"coordinate":{"lat":52.3094444274902,"lng":4.76194429397583},"countryCode":"NL","name":"Schiphol Airport","stationCode":"SHL","uicCode":"8400561"},"description":"van het busstation halte C15 en C17"},{"station":{"coordinate":{"lat":52.2933349609375,"lng":4.70055532455444},"countryCode":"NL","name":"Hoofddorp","stationCode":"HFD","uicCode":"8400332"},"description":"onder het spoorviaduct"}],"label":"Er rijden stopbussen tussen Schiphol Airport en Hoofddorp.","shortLabel":"er rijden stopbussen Schiphol Airport - Hoofddorp"}},{"start":"2024-05-09T05:25:00+0200","end":"2024-05-09T06:00:00+0200","alternativeTransport":{"location":[{"station":{"coordinate":{"lat":52.3094444274902,"lng":4.76194429397583},"countryCode":"NL","name":"Schiphol Airport","stationCode":"SHL","uicCode":"8400561"},"description":"van het busstation halte C15 en C17"},{"station":{"coordinate":{"lat":52.2933349609375,"lng":4.70055532455444},"countryCode":"NL","name":"Hoofddorp","stationCode":"HFD","uicCode":"8400332"},"description":"onder het spoorviaduct"},{"station":{"coordinate":{"lat":52.2588882446289,"lng":4.64555549621582},"countryCode":"NL","name":"Nieuw Vennep","stationCode":"NVP","uicCode":"8400460"},"description":"volg de aanwijzingen op het station"}],"label":"Er rijden stopbussen van Schiphol Airport, Hoofddorp naar Nieuw Vennep.","shortLabel":"er rijden stopbussen Schiphol Airport -> Hoofddorp -> Nieuw Vennep"}},{"start":"2024-05-10T00:15:00+0200","end":"2024-05-10T01:45:00+0200","alternativeTransport":{"location":[{"station":{"coordinate":{"lat":52.3094444274902,"lng":4.76194429397583},"countryCode":"NL","name":"Schiphol Airport","stationCode":"SHL","uicCode":"8400561"},"description":"van het busstation halte C15 en C17"},{"station":{"coordinate":{"lat":52.2933349609375,"lng":4.70055532455444},"countryCode":"NL","name":"Hoofddorp","stationCode":"HFD","uicCode":"8400332"},"description":"onder het spoorviaduct"}],"label":"Er rijden stopbussen tussen Schiphol Airport en Hoofddorp.","shortLabel":"er rijden stopbussen Schiphol Airport - Hoofddorp"}},{"start":"2024-05-10T00:40:00+0200","end":"2024-05-10T01:30:00+0200","alternativeTransport":{"location":[{"station":{"coordinate":{"lat":52.2588882446289,"lng":4.64555549621582},"countryCode":"NL","name":"Nieuw Vennep","stationCode":"NVP","uicCode":"8400460"},"description":"vanaf de Venneperweg"},{"station":{"coordinate":{"lat":52.2933349609375,"lng":4.70055532455444},"countryCode":"NL","name":"Hoofddorp","stationCode":"HFD","uicCode":"8400332"},"description":"onder het spoorviaduct"},{"station":{"coordinate":{"lat":52.3094444274902,"lng":4.76194429397583},"countryCode":"NL","name":"Schiphol Airport","stationCode":"SHL","uicCode":"8400561"},"description":"volg de aanwijzingen op het station"}],"label":"Er rijden stopbussen van Nieuw Vennep, Hoofddorp naar Schiphol Airport.","shortLabel":"er rijden stopbussen Nieuw Vennep -> Hoofddorp -> Schiphol Airport"}},{"start":"2024-05-10T04:45:00+0200","end":"2024-05-10T06:15:00+0200","alternativeTransport":{"location":[{"station":{"coordinate":{"lat":52.2933349609375,"lng":4.70055532455444},"countryCode":"NL","name":"Hoofddorp","stationCode":"HFD","uicCode":"8400332"},"description":"onder het spoorviaduct"},{"station":{"coordinate":{"lat":52.3094444274902,"lng":4.76194429397583},"countryCode":"NL","name":"Schiphol Airport","stationCode":"SHL","uicCode":"8400561"},"description":"van het busstation halte C15 en C17"}],"label":"Er rijden stopbussen van Hoofddorp naar Schiphol Airport.","shortLabel":"er rijden stopbussen Hoofddorp -> Schiphol Airport"}},{"start":"2024-05-10T05:25:00+0200","end":"2024-05-10T06:00:00+0200","alternativeTransport":{"location":[{"station":{"coordinate":{"lat":52.3094444274902,"lng":4.76194429397583},"countryCode":"NL","name":"Schiphol Airport","stationCode":"SHL","uicCode":"8400561"},"description":"van het busstation halte C15 en C17"},{"station":{"coordinate":{"lat":52.2933349609375,"lng":4.70055532455444},"countryCode":"NL","name":"Hoofddorp","stationCode":"HFD","uicCode":"8400332"},"description":"onder het spoorviaduct"},{"station":{"coordinate":{"lat":52.2588882446289,"lng":4.64555549621582},"countryCode":"NL","name":"Nieuw Vennep","stationCode":"NVP","uicCode":"8400460"},"description":"volg de aanwijzingen op het station"}],"label":"Er rijden stopbussen van Schiphol Airport, Hoofddorp naar Nieuw Vennep.","shortLabel":"er rijden stopbussen Schiphol Airport -> Hoofddorp -> Nieuw Vennep"}},{"start":"2024-05-11T00:15:00+0200","end":"2024-05-11T01:45:00+0200","alternativeTransport":{"location":[{"station":{"coordinate":{"lat":52.3094444274902,"lng":4.76194429397583},"countryCode":"NL","name":"Schiphol Airport","stationCode":"SHL","uicCode":"8400561"},"description":"van het busstation halte C15 en C17"},{"station":{"coordinate":{"lat":52.2933349609375,"lng":4.70055532455444},"countryCode":"NL","name":"Hoofddorp","stationCode":"HFD","uicCode":"8400332"},"description":"onder het spoorviaduct"}],"label":"Er rijden stopbussen tussen Schiphol Airport en Hoofddorp.","shortLabel":"er rijden stopbussen Schiphol Airport - Hoofddorp"}},{"start":"2024-05-11T00:40:00+0200","end":"2024-05-11T01:30:00+0200","alternativeTransport":{"location":[{"station":{"coordinate":{"lat":52.2588882446289,"lng":4.64555549621582},"countryCode":"NL","name":"Nieuw Vennep","stationCode":"NVP","uicCode":"8400460"},"description":"vanaf de Venneperweg"},{"station":{"coordinate":{"lat":52.2933349609375,"lng":4.70055532455444},"countryCode":"NL","name":"Hoofddorp","stationCode":"HFD","uicCode":"8400332"},"description":"onder het spoorviaduct"},{"station":{"coordinate":{"lat":52.3094444274902,"lng":4.76194429397583},"countryCode":"NL","name":"Schiphol Airport","stationCode":"SHL","uicCode":"8400561"},"description":"volg de aanwijzingen op het station"}],"label":"Er rijden stopbussen van Nieuw Vennep, Hoofddorp naar Schiphol Airport.","shortLabel":"er rijden stopbussen Nieuw Vennep -> Hoofddorp -> Schiphol Airport"}},{"start":"2024-05-11T04:45:00+0200","end":"2024-05-11T06:00:00+0200","alternativeTransport":{"location":[{"station":{"coordinate":{"lat":52.2933349609375,"lng":4.70055532455444},"countryCode":"NL","name":"Hoofddorp","stationCode":"HFD","uicCode":"8400332"},"description":"onder het spoorviaduct"},{"station":{"coordinate":{"lat":52.3094444274902,"lng":4.76194429397583},"countryCode":"NL","name":"Schiphol Airport","stationCode":"SHL","uicCode":"8400561"},"description":"van het busstation halte C15 en C17"}],"label":"Er rijden stopbussen tussen Hoofddorp en Schiphol Airport.","shortLabel":"er rijden stopbussen Hoofddorp - Schiphol Airport"}},{"start":"2024-05-11T05:25:00+0200","end":"2024-05-11T06:00:00+0200","alternativeTransport":{"location":[{"station":{"coordinate":{"lat":52.3094444274902,"lng":4.76194429397583},"countryCode":"NL","name":"Schiphol Airport","stationCode":"SHL","uicCode":"8400561"},"description":"van het busstation halte C15 en C17"},{"station":{"coordinate":{"lat":52.2933349609375,"lng":4.70055532455444},"countryCode":"NL","name":"Hoofddorp","stationCode":"HFD","uicCode":"8400332"},"description":"onder het spoorviaduct"},{"station":{"coordinate":{"lat":52.2588882446289,"lng":4.64555549621582},"countryCode":"NL","name":"Nieuw Vennep","stationCode":"NVP","uicCode":"8400460"},"description":"volg de aanwijzingen op het station"}],"label":"Er rijden stopbussen van Schiphol Airport, Hoofddorp naar Nieuw Vennep.","shortLabel":"er rijden stopbussen Schiphol Airport -> Hoofddorp -> Nieuw Vennep"}},{"start":"2024-05-12T00:15:00+0200","end":"2024-05-12T01:45:00+0200","alternativeTransport":{"location":[{"station":{"coordinate":{"lat":52.3094444274902,"lng":4.76194429397583},"countryCode":"NL","name":"Schiphol Airport","stationCode":"SHL","uicCode":"8400561"},"description":"van het busstation halte C15 en C17"},{"station":{"coordinate":{"lat":52.2933349609375,"lng":4.70055532455444},"countryCode":"NL","name":"Hoofddorp","stationCode":"HFD","uicCode":"8400332"},"description":"onder het spoorviaduct"}],"label":"Er rijden stopbussen tussen Schiphol Airport en Hoofddorp.","shortLabel":"er rijden stopbussen Schiphol Airport - Hoofddorp"}},{"start":"2024-05-12T00:40:00+0200","end":"2024-05-12T01:30:00+0200","alternativeTransport":{"location":[{"station":{"coordinate":{"lat":52.2588882446289,"lng":4.64555549621582},"countryCode":"NL","name":"Nieuw Vennep","stationCode":"NVP","uicCode":"8400460"},"description":"vanaf de Venneperweg"},{"station":{"coordinate":{"lat":52.2933349609375,"lng":4.70055532455444},"countryCode":"NL","name":"Hoofddorp","stationCode":"HFD","uicCode":"8400332"},"description":"onder het spoorviaduct"},{"station":{"coordinate":{"lat":52.3094444274902,"lng":4.76194429397583},"countryCode":"NL","name":"Schiphol Airport","stationCode":"SHL","uicCode":"8400561"},"description":"volg de aanwijzingen op het station"}],"label":"Er rijden stopbussen van Nieuw Vennep, Hoofddorp naar Schiphol Airport.","shortLabel":"er rijden stopbussen Nieuw Vennep -> Hoofddorp -> Schiphol Airport"}},{"start":"2024-05-12T04:45:00+0200","end":"2024-05-12T06:15:00+0200","alternativeTransport":{"location":[{"station":{"coordinate":{"lat":52.2933349609375,"lng":4.70055532455444},"countryCode":"NL","name":"Hoofddorp","stationCode":"HFD","uicCode":"8400332"},"description":"onder het spoorviaduct"},{"station":{"coordinate":{"lat":52.3094444274902,"lng":4.76194429397583},"countryCode":"NL","name":"Schiphol Airport","stationCode":"SHL","uicCode":"8400561"},"description":"van het busstation halte C15 en C17"}],"label":"Er rijden stopbussen tussen Hoofddorp en Schiphol Airport.","shortLabel":"er rijden stopbussen Hoofddorp - Schiphol Airport"}},{"start":"2024-05-12T05:50:00+0200","end":"2024-05-12T06:30:00+0200","alternativeTransport":{"location":[{"station":{"coordinate":{"lat":52.3094444274902,"lng":4.76194429397583},"countryCode":"NL","name":"Schiphol Airport","stationCode":"SHL","uicCode":"8400561"},"description":"van het busstation halte C15 en C17"},{"station":{"coordinate":{"lat":52.2933349609375,"lng":4.70055532455444},"countryCode":"NL","name":"Hoofddorp","stationCode":"HFD","uicCode":"8400332"},"description":"onder het spoorviaduct"},{"station":{"coordinate":{"lat":52.2588882446289,"lng":4.64555549621582},"countryCode":"NL","name":"Nieuw Vennep","stationCode":"NVP","uicCode":"8400460"},"description":"volg de aanwijzingen op het station"}],"label":"Er rijden stopbussen van Schiphol Airport, Hoofddorp naar Nieuw Vennep.","shortLabel":"er rijden stopbussen Schiphol Airport -> Hoofddorp -> Nieuw Vennep"}},{"start":"2024-05-12T23:40:00+0200","end":"2024-05-13T01:30:00+0200","alternativeTransport":{"location":[{"station":{"coordinate":{"lat":52.2588882446289,"lng":4.64555549621582},"countryCode":"NL","name":"Nieuw Vennep","stationCode":"NVP","uicCode":"8400460"},"description":"vanaf de Venneperweg"},{"station":{"coordinate":{"lat":52.2933349609375,"lng":4.70055532455444},"countryCode":"NL","name":"Hoofddorp","stationCode":"HFD","uicCode":"8400332"},"description":"onder het spoorviaduct"},{"station":{"coordinate":{"lat":52.3094444274902,"lng":4.76194429397583},"countryCode":"NL","name":"Schiphol Airport","stationCode":"SHL","uicCode":"8400561"},"description":"volg de aanwijzingen op het station"}],"label":"Er rijden stopbussen van Nieuw Vennep, Hoofddorp naar Schiphol Airport.","shortLabel":"er rijden stopbussen Nieuw Vennep -> Hoofddorp -> Schiphol Airport"}},{"start":"2024-05-13T00:00:00+0200","end":"2024-05-13T01:30:00+0200","alternativeTransport":{"location":[{"station":{"coordinate":{"lat":52.3094444274902,"lng":4.76194429397583},"countryCode":"NL","name":"Schiphol Airport","stationCode":"SHL","uicCode":"8400561"},"description":"van het busstation halte C15 en C17"},{"station":{"coordinate":{"lat":52.2933349609375,"lng":4.70055532455444},"countryCode":"NL","name":"Hoofddorp","stationCode":"HFD","uicCode":"8400332"},"description":"onder het spoorviaduct"}],"label":"Er rijden stopbussen tussen Schiphol Airport en Hoofddorp.","shortLabel":"er rijden stopbussen Schiphol Airport - Hoofddorp"}},{"start":"2024-05-13T00:30:00+0200","end":"2024-05-13T01:10:00+0200","alternativeTransport":{"location":[{"station":{"coordinate":{"lat":52.3094444274902,"lng":4.76194429397583},"countryCode":"NL","name":"Schiphol Airport","stationCode":"SHL","uicCode":"8400561"},"description":"van het busstation halte C15 en C17"},{"station":{"coordinate":{"lat":52.2933349609375,"lng":4.70055532455444},"countryCode":"NL","name":"Hoofddorp","stationCode":"HFD","uicCode":"8400332"},"description":"onder het spoorviaduct"},{"station":{"coordinate":{"lat":52.2588882446289,"lng":4.64555549621582},"countryCode":"NL","name":"Nieuw Vennep","stationCode":"NVP","uicCode":"8400460"},"description":"volg de aanwijzingen op het station"}],"label":"Er rijden stopbussen van Schiphol Airport, Hoofddorp naar Nieuw Vennep.","shortLabel":"er rijden stopbussen Schiphol Airport -> Hoofddorp -> Nieuw Vennep"}}]},{"type":"MAINTENANCE","id":"7004875","title":"Enschede - Gronau - Dortmund.","isActive":false,"local":false,"titleSections":[[{"type":"STATION","value":"Enschede"},{"type":"STATION","value":"Epe (Westf)"},{"type":"ICON","value":"MAINTENANCE"},{"type":"STATION","value":"L端nen Hbf"},{"type":"STATION","value":"Dortmund Hbf"}]],"registrationTime":"2024-04-18T12:03:29+0200","start":"2024-05-11T21:00:00+0200","releaseTime":"2024-04-18T12:03:29+0200","end":"2024-05-12T23:00:00+0200","period":"Zaterdag 11 mei 21:00 uur t/m zondag 12 mei 23:00 uur.","impact":{"value":3},"publicationSections":[{"section":{"stations":[{"coordinate":{"lat":52.2224998474121,"lng":6.8899998664856},"countryCode":"NL","name":"Enschede","stationCode":"ES","uicCode":"8400212"},{"coordinate":{"lat":52.2213897705078,"lng":6.95111131668091},"countryCode":"NL","name":"Enschede De Eschmarke","stationCode":"ESE","uicCode":"8400217"},{"coordinate":{"lat":52.2186126708984,"lng":6.97444438934326},"countryCode":"NL","name":"Glanerbrug","stationCode":"GBR","uicCode":"8400262"},{"coordinate":{"lat":52.21521,"lng":7.022109},"countryCode":"D","name":"Gronau (Westf.)","stationCode":"G","uicCode":"8021128"},{"coordinate":{"lat":52.18346,"lng":7.03009},"countryCode":"D","name":"Epe (Westf)","stationCode":"EEPE","uicCode":"8021126"},{"coordinate":{"lat":52.079796120944,"lng":7.01635837554931},"countryCode":"D","name":"Ahaus","stationCode":"EAHS","uicCode":"8021123"},{"coordinate":{"lat":52.034924,"lng":7.088538},"countryCode":"D","name":"Legden","stationCode":"ELGD","uicCode":"8021122"},{"coordinate":{"lat":51.9994672604096,"lng":7.1215009689331},"countryCode":"D","name":"Rosendahl-Holtwick","stationCode":"EHW","uicCode":"8021121"},{"coordinate":{"lat":51.939,"lng":7.1642},"countryCode":"D","name":"Coesfeld (Westf)","stationCode":"ECMF","uicCode":"8021119"},{"coordinate":{"lat":51.8925,"lng":7.187},"countryCode":"D","name":"Lette (Kr Coesfeld)","stationCode":"ELET","uicCode":"8021117"},{"coordinate":{"lat":51.827927,"lng":7.295756},"countryCode":"D","name":"D端lmen","stationCode":"EDULH","uicCode":"8021005"},{"coordinate":{"lat":51.76184,"lng":7.43165},"countryCode":"D","name":"L端dinghausen","stationCode":"ELDH","uicCode":"8021113"},{"coordinate":{"lat":51.707885,"lng":7.453396},"countryCode":"D","name":"Selm","stationCode":"ESEM","uicCode":"8021112"},{"coordinate":{"lat":51.692947,"lng":7.454829},"countryCode":"D","name":"Selm-Beifang","stationCode":"ESEB","uicCode":"8021120"},{"coordinate":{"lat":51.66988,"lng":7.45664},"countryCode":"D","name":"Bork (Westf)","stationCode":"EBOK","uicCode":"8021111"},{"coordinate":{"lat":51.61713,"lng":7.52949},"countryCode":"D","name":"L端nen Hbf","stationCode":"ELUE","uicCode":"8010098"},{"coordinate":{"lat":51.58833,"lng":7.53933},"countryCode":"D","name":"Preussen","stationCode":"EPRN","uicCode":"8010100"},{"coordinate":{"lat":51.56754,"lng":7.52855},"countryCode":"D","name":"Dortmund-Derne","stationCode":"EDD","uicCode":"8010101"},{"coordinate":{"lat":51.547076,"lng":7.510099},"countryCode":"D","name":"Dortmund-Kirchderne","stationCode":"EDKD","uicCode":"8010102"},{"coordinate":{"lat":51.517896,"lng":7.45929},"countryCode":"D","name":"Dortmund Hbf","stationCode":"EDO","uicCode":"8010053"}],"direction":"BOTH"},"consequence":{"section":{"stations":[{"coordinate":{"lat":52.18346,"lng":7.03009},"countryCode":"D","name":"Epe (Westf)","stationCode":"EEPE","uicCode":"8021126"},{"coordinate":{"lat":52.079796120944,"lng":7.01635837554931},"countryCode":"D","name":"Ahaus","stationCode":"EAHS","uicCode":"8021123"},{"coordinate":{"lat":52.034924,"lng":7.088538},"countryCode":"D","name":"Legden","stationCode":"ELGD","uicCode":"8021122"},{"coordinate":{"lat":51.9994672604096,"lng":7.1215009689331},"countryCode":"D","name":"Rosendahl-Holtwick","stationCode":"EHW","uicCode":"8021121"},{"coordinate":{"lat":51.939,"lng":7.1642},"countryCode":"D","name":"Coesfeld (Westf)","stationCode":"ECMF","uicCode":"8021119"},{"coordinate":{"lat":51.8925,"lng":7.187},"countryCode":"D","name":"Lette (Kr Coesfeld)","stationCode":"ELET","uicCode":"8021117"},{"coordinate":{"lat":51.827927,"lng":7.295756},"countryCode":"D","name":"D端lmen","stationCode":"EDULH","uicCode":"8021005"},{"coordinate":{"lat":51.76184,"lng":7.43165},"countryCode":"D","name":"L端dinghausen","stationCode":"ELDH","uicCode":"8021113"},{"coordinate":{"lat":51.707885,"lng":7.453396},"countryCode":"D","name":"Selm","stationCode":"ESEM","uicCode":"8021112"},{"coordinate":{"lat":51.692947,"lng":7.454829},"countryCode":"D","name":"Selm-Beifang","stationCode":"ESEB","uicCode":"8021120"},{"coordinate":{"lat":51.66988,"lng":7.45664},"countryCode":"D","name":"Bork (Westf)","stationCode":"EBOK","uicCode":"8021111"},{"coordinate":{"lat":51.61713,"lng":7.52949},"countryCode":"D","name":"L端nen Hbf","stationCode":"ELUE","uicCode":"8010098"}],"direction":"ONE_WAY"},"description":"rijden bussen","level":"LESS_TRAINS"},"sectionType":"NEIGHBORING_COUNTRY"}],"summaryAdditionalTravelTime":{"label":"De extra reistijd kan oplopen tot 30 minuten.","shortLabel":"extra reistijd tot 30 min.","maximumDurationInMinutes":30},"timespans":[{"start":"2024-05-11T21:00:00+0200","end":"2024-05-12T23:00:00+0200","period":"Zaterdag 11 mei 21:00 uur t/m zondag 12 mei 23:00 uur.","situation":{"label":"Door werkzaamheden: tussen Epe (Westf) en L端nen Hbf rijden er bussen."},"cause":{"label":"werkzaamheden"},"additionalTravelTime":{"label":"De extra reistijd kan oplopen tot 30 minuten.","shortLabel":"extra reistijd tot 30 min.","maximumDurationInMinutes":30},"alternativeTransport":{"label":"er rijden stopbussen","shortLabel":"er rijden stopbussen"},"advices":["Dit kan gevolgen hebben voor uw reis. Plan uw reis in de (Internationale) app."]}],"alternativeTransportTimespans":[{"start":"2024-05-11T21:00:00+0200","end":"2024-05-12T02:00:00+0200","alternativeTransport":{"location":[{"station":{"coordinate":{"lat":51.76184,"lng":7.43165},"countryCode":"D","name":"L端dinghausen","stationCode":"ELDH","uicCode":"8021113"},"description":"volg de aanwijzingen op het station"},{"station":{"coordinate":{"lat":51.707885,"lng":7.453396},"countryCode":"D","name":"Selm","stationCode":"ESEM","uicCode":"8021112"},"description":"volg de aanwijzingen op het station"},{"station":{"coordinate":{"lat":51.692947,"lng":7.454829},"countryCode":"D","name":"Selm-Beifang","stationCode":"ESEB","uicCode":"8021120"},"description":"volg de aanwijzingen op het station"},{"station":{"coordinate":{"lat":51.66988,"lng":7.45664},"countryCode":"D","name":"Bork (Westf)","stationCode":"EBOK","uicCode":"8021111"},"description":"volg de aanwijzingen op het station"},{"station":{"coordinate":{"lat":51.61713,"lng":7.52949},"countryCode":"D","name":"L端nen Hbf","stationCode":"ELUE","uicCode":"8010098"},"description":"volg de aanwijzingen op het station"}],"label":"Er rijden stopbussen tussen L端dinghausen, Selm, Selm-Beifang, Bork (Westf) en L端nen Hbf.","shortLabel":"er rijden stopbussen L端dinghausen - Selm - Selm-Beifang - Bork (Westf) - L端nen Hbf"}},{"start":"2024-05-12T20:50:00+0200","end":"2024-05-12T23:00:00+0200","alternativeTransport":{"location":[{"station":{"coordinate":{"lat":52.18346,"lng":7.03009},"countryCode":"D","name":"Epe (Westf)","stationCode":"EEPE","uicCode":"8021126"},"description":"volg de aanwijzingen op het station"},{"station":{"coordinate":{"lat":52.079796120944,"lng":7.01635837554931},"countryCode":"D","name":"Ahaus","stationCode":"EAHS","uicCode":"8021123"},"description":"volg de aanwijzingen op het station"},{"station":{"coordinate":{"lat":52.034924,"lng":7.088538},"countryCode":"D","name":"Legden","stationCode":"ELGD","uicCode":"8021122"},"description":"volg de aanwijzingen op het station"},{"station":{"coordinate":{"lat":51.9994672604096,"lng":7.1215009689331},"countryCode":"D","name":"Rosendahl-Holtwick","stationCode":"EHW","uicCode":"8021121"},"description":"volg de aanwijzingen op het station"},{"station":{"coordinate":{"lat":51.939,"lng":7.1642},"countryCode":"D","name":"Coesfeld (Westf)","stationCode":"ECMF","uicCode":"8021119"},"description":"volg de aanwijzingen op het station"}],"label":"Er rijden stopbussen tussen Epe (Westf), Ahaus, Legden, Rosendahl-Holtwick en Coesfeld (Westf).","shortLabel":"er rijden stopbussen Epe (Westf) - Ahaus - Legden - Rosendahl-Holtw. - Coesfeld (Westf)"}}]},{"type":"MAINTENANCE","id":"7004799","title":"Breda - Tilburg.","isActive":false,"local":false,"titleSections":[[{"type":"STATION","value":"Breda"},{"type":"ICON","value":"MAINTENANCE"},{"type":"STATION","value":"Tilburg"}]],"registrationTime":"2024-04-03T14:25:56+0200","start":"2024-05-13T04:00:00+0200","releaseTime":"2024-04-03T14:25:56+0200","end":"2024-05-13T23:00:00+0200","period":"Maandag 13 mei 4:00 uur t/m maandag 13 mei 23:00 uur.","impact":{"value":5},"publicationSections":[{"section":{"stations":[{"coordinate":{"lat":51.5955543518066,"lng":4.78000020980835},"countryCode":"NL","name":"Breda","stationCode":"BD","uicCode":"8400131"},{"coordinate":{"lat":51.583610534668,"lng":4.92611122131348},"countryCode":"NL","name":"Gilze-Rijen","stationCode":"GZ","uicCode":"8400251"},{"coordinate":{"lat":51.5736122131348,"lng":4.99444437026978},"countryCode":"NL","name":"Tilburg Reeshof","stationCode":"TBR","uicCode":"8400598"},{"coordinate":{"lat":51.564985,"lng":5.051778},"countryCode":"NL","name":"Tilburg Universiteit","stationCode":"TBU","uicCode":"8400594"},{"coordinate":{"lat":51.5605545043945,"lng":5.08361101150513},"countryCode":"NL","name":"Tilburg","stationCode":"TB","uicCode":"8400597"}],"direction":"BOTH"},"consequence":{"section":{"stations":[{"coordinate":{"lat":51.5955543518066,"lng":4.78000020980835},"countryCode":"NL","name":"Breda","stationCode":"BD","uicCode":"8400131"},{"coordinate":{"lat":51.583610534668,"lng":4.92611122131348},"countryCode":"NL","name":"Gilze-Rijen","stationCode":"GZ","uicCode":"8400251"},{"coordinate":{"lat":51.5736122131348,"lng":4.99444437026978},"countryCode":"NL","name":"Tilburg Reeshof","stationCode":"TBR","uicCode":"8400598"},{"coordinate":{"lat":51.564985,"lng":5.051778},"countryCode":"NL","name":"Tilburg Universiteit","stationCode":"TBU","uicCode":"8400594"},{"coordinate":{"lat":51.5605545043945,"lng":5.08361101150513},"countryCode":"NL","name":"Tilburg","stationCode":"TB","uicCode":"8400597"}],"direction":"ONE_WAY"},"description":"rijden bussen","level":"LESS_TRAINS"},"sectionType":"NL"}],"summaryAdditionalTravelTime":{"label":"De extra reistijd kan oplopen tot 30 minuten.","shortLabel":"extra reistijd tot 30 min.","maximumDurationInMinutes":30},"timespans":[{"start":"2024-05-13T04:00:00+0200","end":"2024-05-13T23:00:00+0200","period":"Maandag 13 mei 4:00 uur t/m maandag 13 mei 23:00 uur.","situation":{"label":"Door werkzaamheden: tussen Breda en Tilburg rijden er bussen."},"cause":{"label":"werkzaamheden"},"additionalTravelTime":{"label":"De extra reistijd kan oplopen tot 30 minuten.","shortLabel":"extra reistijd tot 30 min.","maximumDurationInMinutes":30},"alternativeTransport":{"label":"er rijden stop- en snelbussen","shortLabel":"er rijden stop- en snelbussen"},"advices":[]}],"alternativeTransportTimespans":[{"start":"2024-05-13T04:00:00+0200","end":"2024-05-13T23:00:00+0200","alternativeTransport":{"location":[{"station":{"coordinate":{"lat":51.5955543518066,"lng":4.78000020980835},"countryCode":"NL","name":"Breda","stationCode":"BD","uicCode":"8400131"},"description":"vanaf de Belcrumzijde"},{"station":{"coordinate":{"lat":51.5605545043945,"lng":5.08361101150513},"countryCode":"NL","name":"Tilburg","stationCode":"TB","uicCode":"8400597"},"description":"vanaf de achterzijde van het station"}],"label":"Er rijden snelbussen tussen Breda en Tilburg.","shortLabel":"er rijden snelbussen Breda - Tilburg"}},{"start":"2024-05-13T04:00:00+0200","end":"2024-05-13T23:00:00+0200","alternativeTransport":{"location":[{"station":{"coordinate":{"lat":51.5955543518066,"lng":4.78000020980835},"countryCode":"NL","name":"Breda","stationCode":"BD","uicCode":"8400131"},"description":"vanaf de Belcrumzijde"},{"station":{"coordinate":{"lat":51.583610534668,"lng":4.92611122131348},"countryCode":"NL","name":"Gilze-Rijen","stationCode":"GZ","uicCode":"8400251"},"description":"vanaf de voorzijde van het station"},{"station":{"coordinate":{"lat":51.5736122131348,"lng":4.99444437026978},"countryCode":"NL","name":"Tilburg Reeshof","stationCode":"TBR","uicCode":"8400598"},"description":"onder het spoorviaduct"},{"station":{"coordinate":{"lat":51.564985,"lng":5.051778},"countryCode":"NL","name":"Tilburg Universiteit","stationCode":"TBU","uicCode":"8400594"},"description":"onder het spoorviaduct"}],"label":"Er rijden stopbussen tussen Breda, Gilze-Rijen, Tilburg Reeshof en Tilburg Universiteit.","shortLabel":"er rijden stopbussen Breda - Gilze-Rijen - Reeshof - Tilburg Uni."}}]},{"type":"MAINTENANCE","id":"7004926","title":"Den Haag - Rotterdam.","isActive":false,"local":false,"titleSections":[[{"type":"STATION","value":"Den Haag C."},{"type":"ICON","value":"MAINTENANCE"},{"type":"STATION","value":"Den Haag HS"},{"type":"STATION","value":"Rotterdam C."}]],"registrationTime":"2024-05-07T10:08:53+0200","start":"2024-05-13T06:30:00+0200","releaseTime":"2024-05-07T10:08:53+0200","end":"2024-05-17T20:30:00+0200","period":"Maandag 13 mei 6:30 uur t/m vrijdag 17 mei 20:30 uur.","impact":{"value":2},"publicationSections":[{"section":{"stations":[{"coordinate":{"lat":52.0802764892578,"lng":4.32499980926514},"countryCode":"NL","name":"Den Haag Centraal","stationCode":"GVC","uicCode":"8400282"},{"coordinate":{"lat":52.0697212219238,"lng":4.32250022888184},"countryCode":"NL","name":"Den Haag HS","stationCode":"GV","uicCode":"8400280"},{"coordinate":{"lat":52.0538902282715,"lng":4.3086109161377},"countryCode":"NL","name":"Den Haag Moerwijk","stationCode":"GVMW","uicCode":"8400279"},{"coordinate":{"lat":52.039722442627,"lng":4.31916666030884},"countryCode":"NL","name":"Rijswijk","stationCode":"RSW","uicCode":"8400505"},{"coordinate":{"lat":52.0066680908203,"lng":4.35638904571533},"countryCode":"NL","name":"Delft","stationCode":"DT","uicCode":"8400170"},{"coordinate":{"lat":51.9908332824707,"lng":4.36472225189209},"countryCode":"NL","name":"Delft Campus","stationCode":"DTCP","uicCode":"8400166"},{"coordinate":{"lat":51.9212438128032,"lng":4.4089937210083},"countryCode":"NL","name":"Schiedam Centrum","stationCode":"SDM","uicCode":"8400553"},{"coordinate":{"lat":51.9249992370605,"lng":4.46888875961304},"countryCode":"NL","name":"Rotterdam Centraal","stationCode":"RTD","uicCode":"8400530"}],"direction":"BOTH"},"consequence":{"section":{"stations":[{"coordinate":{"lat":52.0802764892578,"lng":4.32499980926514},"countryCode":"NL","name":"Den Haag Centraal","stationCode":"GVC","uicCode":"8400282"},{"coordinate":{"lat":52.0697212219238,"lng":4.32250022888184},"countryCode":"NL","name":"Den Haag HS","stationCode":"GV","uicCode":"8400280"}],"direction":"ONE_WAY"},"description":"minder Sprinters","level":"LESS_TRAINS"},"sectionType":"NL"}],"summaryAdditionalTravelTime":{"label":"De extra reistijd is ongeveer 15 minuten.","shortLabel":"extra reistijd 15 min.","minimumDurationInMinutes":15,"maximumDurationInMinutes":15},"timespans":[{"start":"2024-05-13T06:30:00+0200","end":"2024-05-17T20:30:00+0200","period":"Maandag 13 mei 6:30 uur t/m vrijdag 17 mei 20:30 uur.","situation":{"label":"Door een defect wissel: tussen Den Haag Centraal en Den Haag HS rijden er minder Sprinters."},"cause":{"label":"defect wissel"},"additionalTravelTime":{"label":"De extra reistijd is ongeveer 15 minuten.","shortLabel":"extra reistijd 15 min.","minimumDurationInMinutes":15,"maximumDurationInMinutes":15},"advices":["Dagelijks tussen 06:30 en 20:20 uur rijden er minder Sprinters tussen Den Haag Centraal en Den Haag HS. De reisplanner wordt dagelijks bijgewerkt."]}],"alternativeTransportTimespans":[]},{"type":"MAINTENANCE","id":"7004771","title":"Heerlen - Aachen Hbf.","isActive":false,"local":false,"titleSections":[[{"type":"STATION","value":"Heerlen"},{"type":"ICON","value":"MAINTENANCE"},{"type":"STATION","value":"Aachen Hbf"}]],"registrationTime":"2024-05-07T10:03:42+0200","start":"2024-05-13T08:45:00+0200","releaseTime":"2024-05-07T10:03:42+0200","end":"2024-05-13T12:15:00+0200","period":"Maandag 13 mei 8:45 uur t/m maandag 13 mei 12:15 uur.","impact":{"value":2},"publicationSections":[{"section":{"stations":[{"coordinate":{"lat":50.8908348083496,"lng":5.97499990463257},"countryCode":"NL","name":"Heerlen","stationCode":"HRL","uicCode":"8400307"},{"coordinate":{"lat":50.8963890075684,"lng":6.01916646957398},"countryCode":"NL","name":"Landgraaf","stationCode":"LG","uicCode":"8400548"},{"coordinate":{"lat":50.8960498196442,"lng":6.0602474212646396},"countryCode":"NL","name":"Eygelshoven Markt","stationCode":"EGHM","uicCode":"8400234"},{"coordinate":{"lat":50.870916,"lng":6.094486},"countryCode":"D","name":"Herzogenrath","stationCode":"HZ","uicCode":"8015190"},{"coordinate":{"lat":50.7678,"lng":6.091499},"countryCode":"D","name":"Aachen Hbf","stationCode":"AHBF","uicCode":"8015345"}],"direction":"BOTH"},"consequence":{"section":{"stations":[{"coordinate":{"lat":50.8908348083496,"lng":5.97499990463257},"countryCode":"NL","name":"Heerlen","stationCode":"HRL","uicCode":"8400307"},{"coordinate":{"lat":50.8963890075684,"lng":6.01916646957398},"countryCode":"NL","name":"Landgraaf","stationCode":"LG","uicCode":"8400548"},{"coordinate":{"lat":50.8960498196442,"lng":6.0602474212646396},"countryCode":"NL","name":"Eygelshoven Markt","stationCode":"EGHM","uicCode":"8400234"},{"coordinate":{"lat":50.870916,"lng":6.094486},"countryCode":"D","name":"Herzogenrath","stationCode":"HZ","uicCode":"8015190"},{"coordinate":{"lat":50.7678,"lng":6.091499},"countryCode":"D","name":"Aachen Hbf","stationCode":"AHBF","uicCode":"8015345"}],"direction":"ONE_WAY"},"description":"minder treinen","level":"LESS_TRAINS"},"sectionType":"NEIGHBORING_COUNTRY"}],"summaryAdditionalTravelTime":{"label":"De extra reistijd is ongeveer 30 minuten.","shortLabel":"extra reistijd 30 min.","minimumDurationInMinutes":30,"maximumDurationInMinutes":30},"timespans":[{"start":"2024-05-13T08:45:00+0200","end":"2024-05-13T12:15:00+0200","period":"Maandag 13 mei 8:45 uur t/m maandag 13 mei 12:15 uur.","situation":{"label":"Door werkzaamheden: tussen Heerlen en Aachen Hbf rijden er minder treinen."},"cause":{"label":"werkzaamheden"},"additionalTravelTime":{"label":"De extra reistijd is ongeveer 30 minuten.","shortLabel":"extra reistijd 30 min.","minimumDurationInMinutes":30,"maximumDurationInMinutes":30},"alternativeTransport":{"label":"er rijden stopbussen","shortLabel":"er rijden stopbussen"},"advices":["Enkele treinen zijn vervangen door een stopbus. U kunt ook met een trein eerder of later reizen."]}],"alternativeTransportTimespans":[{"start":"2024-05-13T08:45:00+0200","end":"2024-05-13T12:15:00+0200","alternativeTransport":{"location":[{"station":{"coordinate":{"lat":50.8908348083496,"lng":5.97499990463257},"countryCode":"NL","name":"Heerlen","stationCode":"HRL","uicCode":"8400307"},"description":"vanaf de voorzijde van het station"},{"station":{"coordinate":{"lat":50.8963890075684,"lng":6.01916646957398},"countryCode":"NL","name":"Landgraaf","stationCode":"LG","uicCode":"8400548"},"description":"vanaf de doorgaande weg, voorzijde station"},{"station":{"coordinate":{"lat":50.8960498196442,"lng":6.0602474212646396},"countryCode":"NL","name":"Eygelshoven Markt","stationCode":"EGHM","uicCode":"8400234"},"description":"vanaf de bushalte Centrum"},{"station":{"coordinate":{"lat":50.870916,"lng":6.094486},"countryCode":"D","name":"Herzogenrath","stationCode":"HZ","uicCode":"8015190"},"description":"volg de aanwijzingen op het station"},{"station":{"coordinate":{"lat":50.78036,"lng":6.070715},"countryCode":"D","name":"Aachen West","stationCode":"AW","uicCode":"8015199"},"description":"volg de aanwijzingen op het station"},{"station":{"coordinate":{"lat":50.7678,"lng":6.091499},"countryCode":"D","name":"Aachen Hbf","stationCode":"AHBF","uicCode":"8015345"},"description":"volg de aanwijzingen op het station"}],"label":"Er rijden stopbussen tussen Heerlen, Landgraaf, Eygelshoven Markt, Herzogenrath, Aachen West en Aachen Hbf.","shortLabel":"er rijden stopbussen Heerlen - Landgraaf - Eygelshoven Mrkt - Herzogenrath - Aachen West - Aachen Hbf"}}]},{"type":"MAINTENANCE","id":"7004920","title":"Arnhem - Duisburg - D端sseldorf.","isActive":false,"local":false,"titleSections":[[{"type":"STATION","value":"Arnhem C."},{"type":"ICON","value":"MAINTENANCE"},{"type":"STATION","value":"Oberhausen Hbf"},{"type":"STATION","value":"D端sseldorf Hbf"}]],"registrationTime":"2024-05-02T15:43:14+0200","start":"2024-05-14T00:05:00+0200","releaseTime":"2024-05-02T15:43:14+0200","end":"2024-06-15T02:00:00+0200","period":"Dinsdag 14 mei 0:05 uur t/m zaterdag 15 juni 2:00 uur.","impact":{"value":5},"publicationSections":[{"section":{"stations":[{"coordinate":{"lat":51.9850006103516,"lng":5.89916658401489},"countryCode":"NL","name":"Arnhem Centraal","stationCode":"AH","uicCode":"8400071"},{"coordinate":{"lat":51.985279083252,"lng":5.91944456100464},"countryCode":"NL","name":"Arnhem Velperpoort","stationCode":"AHP","uicCode":"8400072"},{"coordinate":{"lat":51.96286,"lng":5.9695},"countryCode":"NL","name":"Westervoort","stationCode":"WTV","uicCode":"8400688"},{"coordinate":{"lat":51.9433326721191,"lng":6.01472234725952},"countryCode":"NL","name":"Duiven","stationCode":"DVN","uicCode":"8400193"},{"coordinate":{"lat":51.9230537414551,"lng":6.07194423675537},"countryCode":"NL","name":"Zevenaar","stationCode":"ZV","uicCode":"8400735"},{"coordinate":{"lat":51.8743,"lng":6.15417},"countryCode":"D","name":"Emmerich-Elten","stationCode":"EL","uicCode":"8033415"},{"coordinate":{"lat":51.834283,"lng":6.255718},"countryCode":"D","name":"Emmerich","stationCode":"EM","uicCode":"8010288"},{"coordinate":{"lat":51.655833,"lng":6.627222},"countryCode":"D","name":"Wesel","stationCode":"WESEL","uicCode":"8010275"},{"coordinate":{"lat":51.47512,"lng":6.852038},"countryCode":"D","name":"Oberhausen Hbf","stationCode":"OBERH","uicCode":"8010263"},{"coordinate":{"lat":51.4297785713316,"lng":6.77590370178222},"countryCode":"D","name":"Duisburg Hbf","stationCode":"DUISB","uicCode":"8010316"},{"coordinate":{"lat":51.292009,"lng":6.786836},"countryCode":"D","name":"D端sseldorf Flughafen","stationCode":"KDFFH","uicCode":"8039904"},{"coordinate":{"lat":51.220146,"lng":6.793137},"countryCode":"D","name":"D端sseldorf Hbf","stationCode":"DUSSEL","uicCode":"8008094"}],"direction":"BOTH"},"consequence":{"section":{"stations":[{"coordinate":{"lat":51.9850006103516,"lng":5.89916658401489},"countryCode":"NL","name":"Arnhem Centraal","stationCode":"AH","uicCode":"8400071"},{"coordinate":{"lat":51.985279083252,"lng":5.91944456100464},"countryCode":"NL","name":"Arnhem Velperpoort","stationCode":"AHP","uicCode":"8400072"},{"coordinate":{"lat":51.96286,"lng":5.9695},"countryCode":"NL","name":"Westervoort","stationCode":"WTV","uicCode":"8400688"},{"coordinate":{"lat":51.9433326721191,"lng":6.01472234725952},"countryCode":"NL","name":"Duiven","stationCode":"DVN","uicCode":"8400193"},{"coordinate":{"lat":51.9230537414551,"lng":6.07194423675537},"countryCode":"NL","name":"Zevenaar","stationCode":"ZV","uicCode":"8400735"},{"coordinate":{"lat":51.8743,"lng":6.15417},"countryCode":"D","name":"Emmerich-Elten","stationCode":"EL","uicCode":"8033415"},{"coordinate":{"lat":51.834283,"lng":6.255718},"countryCode":"D","name":"Emmerich","stationCode":"EM","uicCode":"8010288"},{"coordinate":{"lat":51.655833,"lng":6.627222},"countryCode":"D","name":"Wesel","stationCode":"WESEL","uicCode":"8010275"},{"coordinate":{"lat":51.47512,"lng":6.852038},"countryCode":"D","name":"Oberhausen Hbf","stationCode":"OBERH","uicCode":"8010263"}],"direction":"ONE_WAY"},"description":"rijden bussen","level":"LESS_TRAINS"},"sectionType":"NEIGHBORING_COUNTRY"}],"summaryAdditionalTravelTime":{"label":"De extra reistijd kan oplopen tot 90 minuten.","shortLabel":"extra reistijd tot 90 min.","maximumDurationInMinutes":90},"timespans":[{"start":"2024-05-14T00:05:00+0200","end":"2024-06-15T02:00:00+0200","period":"Dinsdag 14 mei 0:05 uur t/m zaterdag 15 juni 2:00 uur.","situation":{"label":"Door werkzaamheden: tussen Arnhem Centraal en Oberhausen Hbf rijden er bussen."},"cause":{"label":"werkzaamheden"},"additionalTravelTime":{"label":"De extra reistijd kan oplopen tot 90 minuten.","shortLabel":"extra reistijd tot 90 min.","maximumDurationInMinutes":90},"alternativeTransport":{"label":"er rijden stopbussen","shortLabel":"er rijden stopbussen"},"advices":["Dit kan gevolgen hebben voor uw reis. Plan uw reis in de (Internationale) app."]}],"alternativeTransportTimespans":[{"start":"2024-05-14T00:05:00+0200","end":"2024-06-15T02:00:00+0200","alternativeTransport":{"location":[{"station":{"coordinate":{"lat":51.9850006103516,"lng":5.89916658401489},"countryCode":"NL","name":"Arnhem Centraal","stationCode":"AH","uicCode":"8400071"},"description":"vanaf bushalte L of H"},{"station":{"coordinate":{"lat":51.9230537414551,"lng":6.07194423675537},"countryCode":"NL","name":"Zevenaar","stationCode":"ZV","uicCode":"8400735"},"description":"vanaf het stationsplein bij de Kiss & Ride plaatsen, aan beide zijden van de weg"},{"station":{"coordinate":{"lat":51.8743,"lng":6.15417},"countryCode":"D","name":"Emmerich-Elten","stationCode":"EL","uicCode":"8033415"},"description":"volg de aanwijzingen op het station"},{"station":{"coordinate":{"lat":51.834283,"lng":6.255718},"countryCode":"D","name":"Emmerich","stationCode":"EM","uicCode":"8010288"},"description":"volg de aanwijzingen op het station"}],"label":"Er rijden stopbussen tussen Arnhem Centraal, Zevenaar, Emmerich-Elten en Emmerich.","shortLabel":"er rijden stopbussen Arnhem C. - Zevenaar - Emmerich-Elten - Emmerich"}}]},{"type":"MAINTENANCE","id":"7004905","title":"Schiphol - Leiden.","isActive":false,"local":false,"titleSections":[[{"type":"STATION","value":"Schiphol Airport"},{"type":"ICON","value":"MAINTENANCE"},{"type":"STATION","value":"Leiden C."}]],"registrationTime":"2024-04-26T10:12:31+0200","start":"2024-05-15T01:15:00+0200","releaseTime":"2024-04-26T10:12:31+0200","end":"2024-05-15T05:15:00+0200","period":"Woensdag 15 mei 1:15 uur t/m woensdag 15 mei 5:15 uur.","impact":{"value":3},"publicationSections":[{"section":{"stations":[{"coordinate":{"lat":52.3094444274902,"lng":4.76194429397583},"countryCode":"NL","name":"Schiphol Airport","stationCode":"SHL","uicCode":"8400561"},{"coordinate":{"lat":52.2933349609375,"lng":4.70055532455444},"countryCode":"NL","name":"Hoofddorp","stationCode":"HFD","uicCode":"8400332"},{"coordinate":{"lat":52.2588882446289,"lng":4.64555549621582},"countryCode":"NL","name":"Nieuw Vennep","stationCode":"NVP","uicCode":"8400460"},{"coordinate":{"lat":52.215278,"lng":4.517222},"countryCode":"NL","name":"Sassenheim","stationCode":"SSH","uicCode":"8400603"},{"coordinate":{"lat":52.1661109924316,"lng":4.48166656494141},"countryCode":"NL","name":"Leiden Centraal","stationCode":"LEDN","uicCode":"8400390"}],"direction":"BOTH"},"consequence":{"section":{"stations":[{"coordinate":{"lat":52.3094444274902,"lng":4.76194429397583},"countryCode":"NL","name":"Schiphol Airport","stationCode":"SHL","uicCode":"8400561"},{"coordinate":{"lat":52.2933349609375,"lng":4.70055532455444},"countryCode":"NL","name":"Hoofddorp","stationCode":"HFD","uicCode":"8400332"},{"coordinate":{"lat":52.2588882446289,"lng":4.64555549621582},"countryCode":"NL","name":"Nieuw Vennep","stationCode":"NVP","uicCode":"8400460"},{"coordinate":{"lat":52.215278,"lng":4.517222},"countryCode":"NL","name":"Sassenheim","stationCode":"SSH","uicCode":"8400603"},{"coordinate":{"lat":52.1661109924316,"lng":4.48166656494141},"countryCode":"NL","name":"Leiden Centraal","stationCode":"LEDN","uicCode":"8400390"}],"direction":"ONE_WAY"},"description":"rijden bussen","level":"LESS_TRAINS"},"sectionType":"NL"}],"summaryAdditionalTravelTime":{"label":"De extra reistijd kan oplopen tot 30 minuten.","shortLabel":"extra reistijd tot 30 min.","maximumDurationInMinutes":30},"timespans":[{"start":"2024-05-15T01:15:00+0200","end":"2024-05-15T05:15:00+0200","period":"Woensdag 15 mei 1:15 uur t/m woensdag 15 mei 5:15 uur.","situation":{"label":"Door werkzaamheden: tussen Schiphol Airport en Leiden Centraal rijden er bussen."},"cause":{"label":"werkzaamheden"},"additionalTravelTime":{"label":"De extra reistijd kan oplopen tot 30 minuten.","shortLabel":"extra reistijd tot 30 min.","maximumDurationInMinutes":30},"alternativeTransport":{"label":"er rijden snelbussen","shortLabel":"er rijden snelbussen"},"advices":[]}],"alternativeTransportTimespans":[{"start":"2024-05-15T01:15:00+0200","end":"2024-05-15T05:15:00+0200","alternativeTransport":{"location":[{"station":{"coordinate":{"lat":52.3094444274902,"lng":4.76194429397583},"countryCode":"NL","name":"Schiphol Airport","stationCode":"SHL","uicCode":"8400561"},"description":"van het busstation halte C15 en C17"},{"station":{"coordinate":{"lat":52.1661109924316,"lng":4.48166656494141},"countryCode":"NL","name":"Leiden Centraal","stationCode":"LEDN","uicCode":"8400390"},"description":"vanaf het stadsbusstation"}],"label":"Er rijden snelbussen tussen Schiphol Airport en Leiden Centraal.","shortLabel":"er rijden snelbussen Schiphol Airport - Leiden C."}}]},{"type":"MAINTENANCE","id":"7004772","title":"Heerlen - Aachen Hbf.","isActive":false,"local":false,"titleSections":[[{"type":"STATION","value":"Heerlen"},{"type":"ICON","value":"MAINTENANCE"},{"type":"STATION","value":"Aachen Hbf"}]],"registrationTime":"2024-05-07T10:04:38+0200","start":"2024-05-16T08:45:00+0200","releaseTime":"2024-05-07T10:04:38+0200","end":"2024-05-16T12:15:00+0200","period":"Donderdag 16 mei 8:45 uur t/m donderdag 16 mei 12:15 uur.","impact":{"value":2},"publicationSections":[{"section":{"stations":[{"coordinate":{"lat":50.8908348083496,"lng":5.97499990463257},"countryCode":"NL","name":"Heerlen","stationCode":"HRL","uicCode":"8400307"},{"coordinate":{"lat":50.8963890075684,"lng":6.01916646957398},"countryCode":"NL","name":"Landgraaf","stationCode":"LG","uicCode":"8400548"},{"coordinate":{"lat":50.8960498196442,"lng":6.0602474212646396},"countryCode":"NL","name":"Eygelshoven Markt","stationCode":"EGHM","uicCode":"8400234"},{"coordinate":{"lat":50.870916,"lng":6.094486},"countryCode":"D","name":"Herzogenrath","stationCode":"HZ","uicCode":"8015190"},{"coordinate":{"lat":50.7678,"lng":6.091499},"countryCode":"D","name":"Aachen Hbf","stationCode":"AHBF","uicCode":"8015345"}],"direction":"BOTH"},"consequence":{"section":{"stations":[{"coordinate":{"lat":50.8908348083496,"lng":5.97499990463257},"countryCode":"NL","name":"Heerlen","stationCode":"HRL","uicCode":"8400307"},{"coordinate":{"lat":50.8963890075684,"lng":6.01916646957398},"countryCode":"NL","name":"Landgraaf","stationCode":"LG","uicCode":"8400548"},{"coordinate":{"lat":50.8960498196442,"lng":6.0602474212646396},"countryCode":"NL","name":"Eygelshoven Markt","stationCode":"EGHM","uicCode":"8400234"},{"coordinate":{"lat":50.870916,"lng":6.094486},"countryCode":"D","name":"Herzogenrath","stationCode":"HZ","uicCode":"8015190"},{"coordinate":{"lat":50.7678,"lng":6.091499},"countryCode":"D","name":"Aachen Hbf","stationCode":"AHBF","uicCode":"8015345"}],"direction":"ONE_WAY"},"description":"minder treinen","level":"LESS_TRAINS"},"sectionType":"NEIGHBORING_COUNTRY"}],"summaryAdditionalTravelTime":{"label":"De extra reistijd is ongeveer 30 minuten.","shortLabel":"extra reistijd 30 min.","minimumDurationInMinutes":30,"maximumDurationInMinutes":30},"timespans":[{"start":"2024-05-16T08:45:00+0200","end":"2024-05-16T12:15:00+0200","period":"Donderdag 16 mei 8:45 uur t/m donderdag 16 mei 12:15 uur.","situation":{"label":"Door werkzaamheden: tussen Heerlen en Aachen Hbf rijden er minder treinen."},"cause":{"label":"werkzaamheden"},"additionalTravelTime":{"label":"De extra reistijd is ongeveer 30 minuten.","shortLabel":"extra reistijd 30 min.","minimumDurationInMinutes":30,"maximumDurationInMinutes":30},"alternativeTransport":{"label":"er rijden stopbussen","shortLabel":"er rijden stopbussen"},"advices":["Enkele treinen zijn vervangen door een stopbus. U kunt ook met een trein eerder of later reizen."]}],"alternativeTransportTimespans":[{"start":"2024-05-16T08:45:00+0200","end":"2024-05-16T12:15:00+0200","alternativeTransport":{"location":[{"station":{"coordinate":{"lat":50.8908348083496,"lng":5.97499990463257},"countryCode":"NL","name":"Heerlen","stationCode":"HRL","uicCode":"8400307"},"description":"vanaf de voorzijde van het station"},{"station":{"coordinate":{"lat":50.8963890075684,"lng":6.01916646957398},"countryCode":"NL","name":"Landgraaf","stationCode":"LG","uicCode":"8400548"},"description":"vanaf de doorgaande weg, voorzijde station"},{"station":{"coordinate":{"lat":50.8960498196442,"lng":6.0602474212646396},"countryCode":"NL","name":"Eygelshoven Markt","stationCode":"EGHM","uicCode":"8400234"},"description":"vanaf de bushalte Centrum"},{"station":{"coordinate":{"lat":50.870916,"lng":6.094486},"countryCode":"D","name":"Herzogenrath","stationCode":"HZ","uicCode":"8015190"},"description":"volg de aanwijzingen op het station"},{"station":{"coordinate":{"lat":50.78036,"lng":6.070715},"countryCode":"D","name":"Aachen West","stationCode":"AW","uicCode":"8015199"},"description":"volg de aanwijzingen op het station"},{"station":{"coordinate":{"lat":50.7678,"lng":6.091499},"countryCode":"D","name":"Aachen Hbf","stationCode":"AHBF","uicCode":"8015345"},"description":"volg de aanwijzingen op het station"}],"label":"Er rijden stopbussen tussen Heerlen, Landgraaf, Eygelshoven Markt, Herzogenrath, Aachen West en Aachen Hbf.","shortLabel":"er rijden stopbussen Heerlen - Landgraaf - Eygelshoven Mrkt - Herzogenrath - Aachen West - Aachen Hbf"}}]},{"type":"MAINTENANCE","id":"7004887","title":"Lelystad - Zwolle.","isActive":false,"local":false,"titleSections":[[{"type":"STATION","value":"Lelystad C."},{"type":"STATION","value":"Kampen Zuid"},{"type":"ICON","value":"MAINTENANCE"},{"type":"STATION","value":"Zwolle"}]],"registrationTime":"2024-04-22T12:26:39+0200","start":"2024-05-17T00:00:00+0200","releaseTime":"2024-04-22T12:26:39+0200","end":"2024-05-17T01:20:00+0200","period":"Vrijdag 17 mei 0:00 uur t/m vrijdag 17 mei 1:20 uur.","impact":{"value":3},"publicationSections":[{"section":{"stations":[{"coordinate":{"lat":52.5077781677246,"lng":5.47277784347534},"countryCode":"NL","name":"Lelystad Centrum","stationCode":"LLS","uicCode":"8400394"},{"coordinate":{"lat":52.5344,"lng":5.72089},"countryCode":"NL","name":"Dronten","stationCode":"DRON","uicCode":"8400198"},{"coordinate":{"lat":52.5331,"lng":5.91309},"countryCode":"NL","name":"Kampen Zuid","stationCode":"KPNZ","uicCode":"8400360"},{"coordinate":{"lat":52.5047225952148,"lng":6.09194421768188},"countryCode":"NL","name":"Zwolle","stationCode":"ZL","uicCode":"8400747"}],"direction":"ONE_WAY"},"consequence":{"section":{"stations":[{"coordinate":{"lat":52.5331,"lng":5.91309},"countryCode":"NL","name":"Kampen Zuid","stationCode":"KPNZ","uicCode":"8400360"},{"coordinate":{"lat":52.5047225952148,"lng":6.09194421768188},"countryCode":"NL","name":"Zwolle","stationCode":"ZL","uicCode":"8400747"}],"direction":"ONE_WAY"},"description":"rijden bussen","level":"LESS_TRAINS"},"sectionType":"NL"}],"summaryAdditionalTravelTime":{"label":"De extra reistijd is ongeveer 15 minuten.","shortLabel":"extra reistijd 15 min.","minimumDurationInMinutes":15,"maximumDurationInMinutes":15},"timespans":[{"start":"2024-05-17T00:00:00+0200","end":"2024-05-17T01:20:00+0200","period":"Vrijdag 17 mei 0:00 uur t/m vrijdag 17 mei 1:20 uur.","situation":{"label":"Door werkzaamheden: van Zwolle naar Kampen Zuid rijden er bussen."},"cause":{"label":"werkzaamheden"},"additionalTravelTime":{"label":"De extra reistijd is ongeveer 15 minuten.","shortLabel":"extra reistijd 15 min.","minimumDurationInMinutes":15,"maximumDurationInMinutes":15},"alternativeTransport":{"label":"er rijden stopbussen","shortLabel":"er rijden stopbussen"},"advices":[]}],"alternativeTransportTimespans":[{"start":"2024-05-17T00:00:00+0200","end":"2024-05-17T01:20:00+0200","alternativeTransport":{"location":[{"station":{"coordinate":{"lat":52.5047225952148,"lng":6.09194421768188},"countryCode":"NL","name":"Zwolle","stationCode":"ZL","uicCode":"8400747"},"description":"vanaf de Hanzelaan, aan de zuidzijde van het station"},{"station":{"coordinate":{"lat":52.5331,"lng":5.91309},"countryCode":"NL","name":"Kampen Zuid","stationCode":"KPNZ","uicCode":"8400360"},"description":"vanaf de voorzijde van het station"},{"station":{"coordinate":{"lat":52.5344,"lng":5.72089},"countryCode":"NL","name":"Dronten","stationCode":"DRON","uicCode":"8400198"},"description":"vanaf de voorzijde van het station"},{"station":{"coordinate":{"lat":52.5077781677246,"lng":5.47277784347534},"countryCode":"NL","name":"Lelystad Centrum","stationCode":"LLS","uicCode":"8400394"},"description":"vanaf de achterzijde van het station"}],"label":"Er rijden stopbussen van Zwolle, Kampen Zuid, Dronten naar Lelystad Centrum.","shortLabel":"er rijden stopbussen Zwolle -> Kampen Zuid -> Dronten -> Lelystad C."}}]},{"type":"MAINTENANCE","id":"7004888","title":"Utrecht - Arnhem; Utrecht - Rhenen.","isActive":false,"local":false,"titleSections":[[{"type":"STATION","value":"Utrecht C."},{"type":"ICON","value":"MAINTENANCE"},{"type":"STATION","value":"Ede-Wageningen"},{"type":"STATION","value":"Arnhem C."}],[{"type":"STATION","value":"Utrecht C."},{"type":"ICON","value":"MAINTENANCE"},{"type":"STATION","value":"Rhenen"}],[{"type":"STATION","value":"Utrecht C."},{"type":"STATION","value":"Driebergen-Zeist"},{"type":"ICON","value":"MAINTENANCE"},{"type":"STATION","value":"Ede-Wageningen"},{"type":"STATION","value":"Arnhem C."}],[{"type":"STATION","value":"Utrecht C."},{"type":"STATION","value":"Driebergen-Zeist"},{"type":"ICON","value":"MAINTENANCE"},{"type":"STATION","value":"Rhenen"}]],"registrationTime":"2024-05-03T16:46:34+0200","start":"2024-05-17T05:15:00+0200","releaseTime":"2024-05-03T16:46:34+0200","end":"2024-05-21T01:45:00+0200","period":"Vrijdag 17 mei 5:15 uur t/m dinsdag 21 mei 1:45 uur.","impact":{"value":4},"publicationSections":[{"section":{"stations":[{"coordinate":{"lat":52.0888900756836,"lng":5.11027765274048},"countryCode":"NL","name":"Utrecht Centraal","stationCode":"UT","uicCode":"8400621"},{"coordinate":{"lat":52.078889,"lng":5.121667},"countryCode":"NL","name":"Utrecht Vaartsche Rijn","stationCode":"UTVR","uicCode":"8400606"},{"coordinate":{"lat":52.0630569458008,"lng":5.19444465637207},"countryCode":"NL","name":"Bunnik","stationCode":"BNK","uicCode":"8400141"},{"coordinate":{"lat":52.0652770996094,"lng":5.25861120223999},"countryCode":"NL","name":"Driebergen-Zeist","stationCode":"DB","uicCode":"8400182"},{"coordinate":{"lat":52.0641670227051,"lng":5.36999988555908},"countryCode":"NL","name":"Maarn","stationCode":"MRN","uicCode":"8400417"},{"coordinate":{"lat":52.0458335876465,"lng":5.57388877868652},"countryCode":"NL","name":"Veenendaal-De Klomp","stationCode":"KLP","uicCode":"8400637"},{"coordinate":{"lat":52.0277786254883,"lng":5.67305564880371},"countryCode":"NL","name":"Ede-Wageningen","stationCode":"ED","uicCode":"8400200"},{"coordinate":{"lat":52.0055541992188,"lng":5.7936110496521},"countryCode":"NL","name":"Wolfheze","stationCode":"WF","uicCode":"8400704"},{"coordinate":{"lat":51.9949989318848,"lng":5.84000015258789},"countryCode":"NL","name":"Oosterbeek","stationCode":"OTB","uicCode":"8400489"},{"coordinate":{"lat":51.9850006103516,"lng":5.89916658401489},"countryCode":"NL","name":"Arnhem Centraal","stationCode":"AH","uicCode":"8400071"}],"direction":"BOTH"},"consequence":{"section":{"stations":[{"coordinate":{"lat":52.0888900756836,"lng":5.11027765274048},"countryCode":"NL","name":"Utrecht Centraal","stationCode":"UT","uicCode":"8400621"},{"coordinate":{"lat":52.078889,"lng":5.121667},"countryCode":"NL","name":"Utrecht Vaartsche Rijn","stationCode":"UTVR","uicCode":"8400606"},{"coordinate":{"lat":52.0630569458008,"lng":5.19444465637207},"countryCode":"NL","name":"Bunnik","stationCode":"BNK","uicCode":"8400141"},{"coordinate":{"lat":52.0652770996094,"lng":5.25861120223999},"countryCode":"NL","name":"Driebergen-Zeist","stationCode":"DB","uicCode":"8400182"},{"coordinate":{"lat":52.0641670227051,"lng":5.36999988555908},"countryCode":"NL","name":"Maarn","stationCode":"MRN","uicCode":"8400417"},{"coordinate":{"lat":52.0458335876465,"lng":5.57388877868652},"countryCode":"NL","name":"Veenendaal-De Klomp","stationCode":"KLP","uicCode":"8400637"},{"coordinate":{"lat":52.0277786254883,"lng":5.67305564880371},"countryCode":"NL","name":"Ede-Wageningen","stationCode":"ED","uicCode":"8400200"}],"direction":"ONE_WAY"},"description":"rijden bussen","level":"LESS_TRAINS"},"sectionType":"NL"},{"section":{"stations":[{"coordinate":{"lat":52.0888900756836,"lng":5.11027765274048},"countryCode":"NL","name":"Utrecht Centraal","stationCode":"UT","uicCode":"8400621"},{"coordinate":{"lat":52.078889,"lng":5.121667},"countryCode":"NL","name":"Utrecht Vaartsche Rijn","stationCode":"UTVR","uicCode":"8400606"},{"coordinate":{"lat":52.0630569458008,"lng":5.19444465637207},"countryCode":"NL","name":"Bunnik","stationCode":"BNK","uicCode":"8400141"},{"coordinate":{"lat":52.0652770996094,"lng":5.25861120223999},"countryCode":"NL","name":"Driebergen-Zeist","stationCode":"DB","uicCode":"8400182"},{"coordinate":{"lat":52.0641670227051,"lng":5.36999988555908},"countryCode":"NL","name":"Maarn","stationCode":"MRN","uicCode":"8400417"},{"coordinate":{"lat":52.0280570983887,"lng":5.53138875961304},"countryCode":"NL","name":"Veenendaal West","stationCode":"VNDW","uicCode":"8400628"},{"coordinate":{"lat":52.0200004577637,"lng":5.54861116409302},"countryCode":"NL","name":"Veenendaal Centrum","stationCode":"VNDC","uicCode":"8400627"},{"coordinate":{"lat":51.958610534668,"lng":5.57833337783814},"countryCode":"NL","name":"Rhenen","stationCode":"RHN","uicCode":"8400517"}],"direction":"BOTH"},"consequence":{"section":{"stations":[{"coordinate":{"lat":52.0888900756836,"lng":5.11027765274048},"countryCode":"NL","name":"Utrecht Centraal","stationCode":"UT","uicCode":"8400621"},{"coordinate":{"lat":52.078889,"lng":5.121667},"countryCode":"NL","name":"Utrecht Vaartsche Rijn","stationCode":"UTVR","uicCode":"8400606"},{"coordinate":{"lat":52.0630569458008,"lng":5.19444465637207},"countryCode":"NL","name":"Bunnik","stationCode":"BNK","uicCode":"8400141"},{"coordinate":{"lat":52.0652770996094,"lng":5.25861120223999},"countryCode":"NL","name":"Driebergen-Zeist","stationCode":"DB","uicCode":"8400182"},{"coordinate":{"lat":52.0641670227051,"lng":5.36999988555908},"countryCode":"NL","name":"Maarn","stationCode":"MRN","uicCode":"8400417"},{"coordinate":{"lat":52.0280570983887,"lng":5.53138875961304},"countryCode":"NL","name":"Veenendaal West","stationCode":"VNDW","uicCode":"8400628"},{"coordinate":{"lat":52.0200004577637,"lng":5.54861116409302},"countryCode":"NL","name":"Veenendaal Centrum","stationCode":"VNDC","uicCode":"8400627"},{"coordinate":{"lat":51.958610534668,"lng":5.57833337783814},"countryCode":"NL","name":"Rhenen","stationCode":"RHN","uicCode":"8400517"}],"direction":"ONE_WAY"},"description":"rijden bussen","level":"LESS_TRAINS"},"sectionType":"NL"},{"section":{"stations":[{"coordinate":{"lat":52.0888900756836,"lng":5.11027765274048},"countryCode":"NL","name":"Utrecht Centraal","stationCode":"UT","uicCode":"8400621"},{"coordinate":{"lat":52.078889,"lng":5.121667},"countryCode":"NL","name":"Utrecht Vaartsche Rijn","stationCode":"UTVR","uicCode":"8400606"},{"coordinate":{"lat":52.0630569458008,"lng":5.19444465637207},"countryCode":"NL","name":"Bunnik","stationCode":"BNK","uicCode":"8400141"},{"coordinate":{"lat":52.0652770996094,"lng":5.25861120223999},"countryCode":"NL","name":"Driebergen-Zeist","stationCode":"DB","uicCode":"8400182"},{"coordinate":{"lat":52.0641670227051,"lng":5.36999988555908},"countryCode":"NL","name":"Maarn","stationCode":"MRN","uicCode":"8400417"},{"coordinate":{"lat":52.0458335876465,"lng":5.57388877868652},"countryCode":"NL","name":"Veenendaal-De Klomp","stationCode":"KLP","uicCode":"8400637"},{"coordinate":{"lat":52.0277786254883,"lng":5.67305564880371},"countryCode":"NL","name":"Ede-Wageningen","stationCode":"ED","uicCode":"8400200"},{"coordinate":{"lat":52.0055541992188,"lng":5.7936110496521},"countryCode":"NL","name":"Wolfheze","stationCode":"WF","uicCode":"8400704"},{"coordinate":{"lat":51.9949989318848,"lng":5.84000015258789},"countryCode":"NL","name":"Oosterbeek","stationCode":"OTB","uicCode":"8400489"},{"coordinate":{"lat":51.9850006103516,"lng":5.89916658401489},"countryCode":"NL","name":"Arnhem Centraal","stationCode":"AH","uicCode":"8400071"}],"direction":"BOTH"},"consequence":{"section":{"stations":[{"coordinate":{"lat":52.0652770996094,"lng":5.25861120223999},"countryCode":"NL","name":"Driebergen-Zeist","stationCode":"DB","uicCode":"8400182"},{"coordinate":{"lat":52.0641670227051,"lng":5.36999988555908},"countryCode":"NL","name":"Maarn","stationCode":"MRN","uicCode":"8400417"},{"coordinate":{"lat":52.0458335876465,"lng":5.57388877868652},"countryCode":"NL","name":"Veenendaal-De Klomp","stationCode":"KLP","uicCode":"8400637"},{"coordinate":{"lat":52.0277786254883,"lng":5.67305564880371},"countryCode":"NL","name":"Ede-Wageningen","stationCode":"ED","uicCode":"8400200"}],"direction":"ONE_WAY"},"description":"rijden bussen","level":"LESS_TRAINS"},"sectionType":"NL"},{"section":{"stations":[{"coordinate":{"lat":52.0888900756836,"lng":5.11027765274048},"countryCode":"NL","name":"Utrecht Centraal","stationCode":"UT","uicCode":"8400621"},{"coordinate":{"lat":52.078889,"lng":5.121667},"countryCode":"NL","name":"Utrecht Vaartsche Rijn","stationCode":"UTVR","uicCode":"8400606"},{"coordinate":{"lat":52.0630569458008,"lng":5.19444465637207},"countryCode":"NL","name":"Bunnik","stationCode":"BNK","uicCode":"8400141"},{"coordinate":{"lat":52.0652770996094,"lng":5.25861120223999},"countryCode":"NL","name":"Driebergen-Zeist","stationCode":"DB","uicCode":"8400182"},{"coordinate":{"lat":52.0641670227051,"lng":5.36999988555908},"countryCode":"NL","name":"Maarn","stationCode":"MRN","uicCode":"8400417"},{"coordinate":{"lat":52.0280570983887,"lng":5.53138875961304},"countryCode":"NL","name":"Veenendaal West","stationCode":"VNDW","uicCode":"8400628"},{"coordinate":{"lat":52.0200004577637,"lng":5.54861116409302},"countryCode":"NL","name":"Veenendaal Centrum","stationCode":"VNDC","uicCode":"8400627"},{"coordinate":{"lat":51.958610534668,"lng":5.57833337783814},"countryCode":"NL","name":"Rhenen","stationCode":"RHN","uicCode":"8400517"}],"direction":"BOTH"},"consequence":{"section":{"stations":[{"coordinate":{"lat":52.0652770996094,"lng":5.25861120223999},"countryCode":"NL","name":"Driebergen-Zeist","stationCode":"DB","uicCode":"8400182"},{"coordinate":{"lat":52.0641670227051,"lng":5.36999988555908},"countryCode":"NL","name":"Maarn","stationCode":"MRN","uicCode":"8400417"},{"coordinate":{"lat":52.0280570983887,"lng":5.53138875961304},"countryCode":"NL","name":"Veenendaal West","stationCode":"VNDW","uicCode":"8400628"},{"coordinate":{"lat":52.0200004577637,"lng":5.54861116409302},"countryCode":"NL","name":"Veenendaal Centrum","stationCode":"VNDC","uicCode":"8400627"},{"coordinate":{"lat":51.958610534668,"lng":5.57833337783814},"countryCode":"NL","name":"Rhenen","stationCode":"RHN","uicCode":"8400517"}],"direction":"ONE_WAY"},"description":"rijden bussen","level":"LESS_TRAINS"},"sectionType":"NL"}],"summaryAdditionalTravelTime":{"label":"De extra reistijd is meer dan 15 minuten.","shortLabel":"extra reistijd meer dan 15 min.","minimumDurationInMinutes":15},"timespans":[{"start":"2024-05-17T05:15:00+0200","end":"2024-05-19T05:15:00+0200","period":"Vrijdag 17 mei 5:15 uur t/m zondag 19 mei 5:15 uur.","situation":{"label":"Door werkzaamheden: tussen Utrecht Centraal en Ede-Wageningen rijden er bussen en tussen Utrecht Centraal en Rhenen rijden er bussen."},"cause":{"label":"werkzaamheden"},"additionalTravelTime":{"label":"De extra reistijd kan oplopen tot 45 minuten.","shortLabel":"extra reistijd tot 45 min.","maximumDurationInMinutes":45},"alternativeTransport":{"label":"er rijden stop- en snelbussen","shortLabel":"er rijden stop- en snelbussen"},"advices":["tussen Utrecht C. en Nijmegen reis via 's-Hertogenbosch"]},{"start":"2024-05-19T05:15:00+0200","end":"2024-05-21T01:45:00+0200","period":"Zondag 19 mei 5:15 uur t/m dinsdag 21 mei 1:45 uur.","situation":{"label":"Door werkzaamheden: tussen Driebergen-Zeist en Ede-Wageningen rijden er bussen en tussen Driebergen-Zeist en Rhenen rijden er bussen."},"cause":{"label":"werkzaamheden"},"additionalTravelTime":{"label":"De extra reistijd is meer dan 15 minuten.","shortLabel":"extra reistijd meer dan 15 min.","minimumDurationInMinutes":15},"alternativeTransport":{"label":"er rijden stop- en snelbussen","shortLabel":"er rijden stop- en snelbussen"},"advices":["tussen Utrecht C. en Nijmegen reis via 's-Hertogenbosch"]}],"alternativeTransportTimespans":[{"start":"2024-05-17T05:15:00+0200","end":"2024-05-19T05:15:00+0200","alternativeTransport":{"location":[{"station":{"coordinate":{"lat":52.0888900756836,"lng":5.11027765274048},"countryCode":"NL","name":"Utrecht Centraal","stationCode":"UT","uicCode":"8400621"},"description":"vanaf de Jaarbeursplein, halte G"},{"station":{"coordinate":{"lat":52.0630569458008,"lng":5.19444465637207},"countryCode":"NL","name":"Bunnik","stationCode":"BNK","uicCode":"8400141"},"description":"vanaf de Baan van Fectio aan de uitgang Groeneweg"},{"station":{"coordinate":{"lat":52.0652770996094,"lng":5.25861120223999},"countryCode":"NL","name":"Driebergen-Zeist","stationCode":"DB","uicCode":"8400182"},"description":"vanaf het busstation"},{"station":{"coordinate":{"lat":52.0641670227051,"lng":5.36999988555908},"countryCode":"NL","name":"Maarn","stationCode":"MRN","uicCode":"8400417"},"description":"vanaf de voorzijde van het station"},{"station":{"coordinate":{"lat":52.0280570983887,"lng":5.53138875961304},"countryCode":"NL","name":"Veenendaal West","stationCode":"VNDW","uicCode":"8400628"},"description":"vanaf de bushalte"},{"station":{"coordinate":{"lat":52.0200004577637,"lng":5.54861116409302},"countryCode":"NL","name":"Veenendaal Centrum","stationCode":"VNDC","uicCode":"8400627"},"description":"vanaf de OV halte Kerkewijk, Westzijde"},{"station":{"coordinate":{"lat":51.958610534668,"lng":5.57833337783814},"countryCode":"NL","name":"Rhenen","stationCode":"RHN","uicCode":"8400517"},"description":"vanaf het P+R-terrein"}],"label":"Er rijden stopbussen tussen Utrecht Centraal, Bunnik, Driebergen-Zeist, Maarn, Veenendaal West, Veenendaal Centrum en Rhenen.","shortLabel":"er rijden stopbussen Utrecht C. - Bunnik - Driebergen-Zeist - Maarn - Veenendaal West - Veenendaal C. - Rhenen"}},{"start":"2024-05-17T05:15:00+0200","end":"2024-05-18T04:00:00+0200","alternativeTransport":{"location":[{"station":{"coordinate":{"lat":52.0888900756836,"lng":5.11027765274048},"countryCode":"NL","name":"Utrecht Centraal","stationCode":"UT","uicCode":"8400621"},"description":"vanaf de Jaarbeursplein, halte G"},{"station":{"coordinate":{"lat":52.0277786254883,"lng":5.67305564880371},"countryCode":"NL","name":"Ede-Wageningen","stationCode":"ED","uicCode":"8400200"},"description":"vanaf het busstation"}],"label":"Er rijden snelbussen tussen Utrecht Centraal en Ede-Wageningen.","shortLabel":"er rijden snelbussen Utrecht C. - Ede-Wageningen"}},{"start":"2024-05-17T05:15:00+0200","end":"2024-05-18T04:00:00+0200","alternativeTransport":{"location":[{"station":{"coordinate":{"lat":52.0888900756836,"lng":5.11027765274048},"countryCode":"NL","name":"Utrecht Centraal","stationCode":"UT","uicCode":"8400621"},"description":"volg de aanwijzingen op het station"},{"station":{"coordinate":{"lat":52.0652770996094,"lng":5.25861120223999},"countryCode":"NL","name":"Driebergen-Zeist","stationCode":"DB","uicCode":"8400182"},"description":"volg de aanwijzingen op het station"},{"station":{"coordinate":{"lat":52.0458335876465,"lng":5.57388877868652},"countryCode":"NL","name":"Veenendaal-De Klomp","stationCode":"KLP","uicCode":"8400637"},"description":"volg de aanwijzingen op het station"},{"station":{"coordinate":{"lat":52.0277786254883,"lng":5.67305564880371},"countryCode":"NL","name":"Ede-Wageningen","stationCode":"ED","uicCode":"8400200"},"description":"volg de aanwijzingen op het station"}],"label":"Er rijden stopbussen tussen Utrecht Centraal, Driebergen-Zeist, Veenendaal-De Klomp en Ede-Wageningen.","shortLabel":"er rijden stopbussen Utrecht C. - Driebergen-Zeist - De Klomp - Ede-Wageningen"}},{"start":"2024-05-18T05:15:00+0200","end":"2024-05-19T04:00:00+0200","alternativeTransport":{"location":[{"station":{"coordinate":{"lat":52.0888900756836,"lng":5.11027765274048},"countryCode":"NL","name":"Utrecht Centraal","stationCode":"UT","uicCode":"8400621"},"description":"vanaf de Jaarbeursplein, halte G"},{"station":{"coordinate":{"lat":52.0277786254883,"lng":5.67305564880371},"countryCode":"NL","name":"Ede-Wageningen","stationCode":"ED","uicCode":"8400200"},"description":"vanaf het busstation"}],"label":"Er rijden snelbussen tussen Utrecht Centraal en Ede-Wageningen.","shortLabel":"er rijden snelbussen Utrecht C. - Ede-Wageningen"}},{"start":"2024-05-18T05:15:00+0200","end":"2024-05-19T04:00:00+0200","alternativeTransport":{"location":[{"station":{"coordinate":{"lat":52.0888900756836,"lng":5.11027765274048},"countryCode":"NL","name":"Utrecht Centraal","stationCode":"UT","uicCode":"8400621"},"description":"vanaf de Jaarbeursplein, halte G"},{"station":{"coordinate":{"lat":52.0652770996094,"lng":5.25861120223999},"countryCode":"NL","name":"Driebergen-Zeist","stationCode":"DB","uicCode":"8400182"},"description":"vanaf het busstation"},{"station":{"coordinate":{"lat":52.0458335876465,"lng":5.57388877868652},"countryCode":"NL","name":"Veenendaal-De Klomp","stationCode":"KLP","uicCode":"8400637"},"description":"vanaf het busstation"},{"station":{"coordinate":{"lat":52.0277786254883,"lng":5.67305564880371},