[{"type":"DISRUPTION","id":"6060437","title":"Amersfoort - Amersfoort Vathorst.","isActive":true,"topic":"disruption_6060437_nl","local":false,"titleSections":[[{"type":"STATION","value":"Amersfoort C."},{"type":"ICON","value":"DISRUPTION"},{"type":"STATION","value":"Vathorst"}]],"registrationTime":"2025-11-14T18:02:19+0100","releaseTime":"2025-11-14T18:02:19+0100","start":"2025-11-14T01:54:44+0100","end":"2025-11-16T01:00:00+0100","phase":{"id":"2","label":"Impact bekend"},"impact":{"value":2},"expectedDuration":{"description":"Dit duurt ten minste tot zondag 16 november 1:00 uur.","endTime":"2025-11-16T01:00:00+0100"},"publicationSections":[{"section":{"stations":[{"coordinate":{"lat":52.1538887023926,"lng":5.37055540084839},"countryCode":"NL","name":"Amersfoort Centraal","stationCode":"AMF","uicCode":"8400055"},{"coordinate":{"lat":52.1748221374512,"lng":5.40388870239258},"countryCode":"NL","name":"Amersfoort Schothorst","stationCode":"AMFS","uicCode":"8400054"},{"coordinate":{"lat":52.1927795410156,"lng":5.43388891220093},"countryCode":"NL","name":"Amersfoort Vathorst","stationCode":"AVAT","uicCode":"8400228"}],"direction":"BOTH","operators":["NS"]},"consequence":{"section":{"stations":[{"coordinate":{"lat":52.1538887023926,"lng":5.37055540084839},"countryCode":"NL","name":"Amersfoort Centraal","stationCode":"AMF","uicCode":"8400055"},{"coordinate":{"lat":52.1748221374512,"lng":5.40388870239258},"countryCode":"NL","name":"Amersfoort Schothorst","stationCode":"AMFS","uicCode":"8400054"},{"coordinate":{"lat":52.1927795410156,"lng":5.43388891220093},"countryCode":"NL","name":"Amersfoort Vathorst","stationCode":"AVAT","uicCode":"8400228"}],"direction":"BOTH","operators":["NS"]},"description":"minder Sprinters","level":"LESS_TRAINS"},"sectionType":"NL"}],"summaryAdditionalTravelTime":{"label":"De extra reistijd kan oplopen tot 15 minuten.","shortLabel":"Extra reistijd tot 15 min.","maximumDurationInMinutes":15},"timespans":[{"start":"2025-11-14T01:54:44+0100","end":"2025-11-16T01:00:00+0100","period":"Vrijdag 14 november 1:54 uur t/m zondag 16 november 1:00 uur.","situation":{"label":"Door een wisselstoring: tussen Amersfoort Centraal en Amersfoort Vathorst rijden er minder Sprinters."},"cause":{"label":"wisselstoring","type":"OTHER"},"additionalTravelTime":{"label":"De extra reistijd kan oplopen tot 15 minuten.","shortLabel":"Extra reistijd tot 15 min.","maximumDurationInMinutes":15},"advices":[]}],"alternativeTransportTimespans":[]},{"type":"MAINTENANCE","id":"7004492","title":"Groningen - Leer.","isActive":true,"local":false,"titleSections":[[{"type":"STATION","value":"Groningen"},{"type":"STATION","value":"Bad Nieuweschans"},{"type":"ICON","value":"MAINTENANCE"},{"type":"STATION","value":"Weener"},{"type":"STATION","value":"Leer (Ostfr.)"}]],"registrationTime":"2025-11-03T15:18:51+0100","start":"2024-02-01T04:00:00+0100","releaseTime":"2025-11-03T15:18:51+0100","end":"2026-06-30T23:58:00+0200","period":"Donderdag 1 februari 2024 4:00 uur t/m dinsdag 30 juni 2026 23:58 uur.","impact":{"value":3},"publicationSections":[{"section":{"stations":[{"coordinate":{"lat":53.2105560302734,"lng":6.56472206115723},"countryCode":"NL","name":"Groningen","stationCode":"GN","uicCode":"8400263"},{"coordinate":{"lat":53.20480027,"lng":6.5854178},"countryCode":"NL","name":"Groningen Europapark","stationCode":"GERP","uicCode":"8400238"},{"coordinate":{"lat":53.1617362,"lng":6.7220882},"countryCode":"NL","name":"Kropswolde","stationCode":"KW","uicCode":"8400369"},{"coordinate":{"lat":53.1607232,"lng":6.7402989},"countryCode":"NL","name":"Martenshoek","stationCode":"MTH","uicCode":"8400430"},{"coordinate":{"lat":53.1598181316756,"lng":6.77075386047363},"countryCode":"NL","name":"Hoogezand-Sappemeer","stationCode":"HGZ","uicCode":"8400331"},{"coordinate":{"lat":53.1596122800056,"lng":6.8679141998291},"countryCode":"NL","name":"Zuidbroek","stationCode":"ZB","uicCode":"8400742"},{"coordinate":{"lat":53.1655362,"lng":6.9777775},"countryCode":"NL","name":"Scheemda","stationCode":"SDA","uicCode":"8400551"},{"coordinate":{"lat":53.1392377,"lng":7.035101},"countryCode":"NL","name":"Winschoten","stationCode":"WS","uicCode":"8400696"},{"coordinate":{"lat":53.1844,"lng":7.19937},"countryCode":"NL","name":"Bad Nieuweschans","stationCode":"NSCH","uicCode":"8400457"},{"coordinate":{"lat":53.16311,"lng":7.3442},"countryCode":"D","name":"Weener","stationCode":"WR","uicCode":"8021239"},{"coordinate":{"lat":53.23165,"lng":7.465283},"countryCode":"D","name":"Leer (Ostfriesl)","stationCode":"LEER","uicCode":"8021091"}],"direction":"BOTH","operators":["Arriva"]},"consequence":{"section":{"stations":[{"coordinate":{"lat":53.1844,"lng":7.19937},"countryCode":"NL","name":"Bad Nieuweschans","stationCode":"NSCH","uicCode":"8400457"},{"coordinate":{"lat":53.16311,"lng":7.3442},"countryCode":"D","name":"Weener","stationCode":"WR","uicCode":"8021239"}],"direction":"BOTH","operators":["Arriva"]},"description":"er rijden bussen","level":"LESS_TRAINS"},"sectionType":"NEIGHBORING_COUNTRY"}],"summaryAdditionalTravelTime":{"label":"De extra reistijd kan oplopen tot 30 minuten.","shortLabel":"Extra reistijd tot 30 min.","maximumDurationInMinutes":30},"timespans":[{"start":"2024-02-01T04:00:00+0100","end":"2026-06-30T23:58:00+0200","period":"Donderdag 1 februari 2024 4:00 uur t/m dinsdag 30 juni 2026 23:58 uur.","situation":{"label":"Door een aangepaste dienstregeling: tussen Bad Nieuweschans en Weener rijden er bussen."},"cause":{"label":"aangepaste dienstregeling","type":"OTHER"},"additionalTravelTime":{"label":"De extra reistijd kan oplopen tot 30 minuten.","shortLabel":"Extra reistijd tot 30 min.","maximumDurationInMinutes":30},"alternativeTransport":{"label":"er rijden stopbussen","shortLabel":"er rijden stopbussen"},"advices":[]}],"alternativeTransportTimespans":[{"start":"2024-02-01T04:00:00+0100","end":"2026-06-30T23:58:00+0200","alternativeTransport":{"location":[{"station":{"coordinate":{"lat":53.1844,"lng":7.19937},"countryCode":"NL","name":"Bad Nieuweschans","stationCode":"NSCH","uicCode":"8400457"},"description":"vanaf de voorzijde van het station"},{"station":{"coordinate":{"lat":53.16311,"lng":7.3442},"countryCode":"D","name":"Weener","stationCode":"WR","uicCode":"8021239"},"description":"vanaf de voorzijde van het station"},{"station":{"coordinate":{"lat":53.23165,"lng":7.465283},"countryCode":"D","name":"Leer (Ostfriesl)","stationCode":"LEER","uicCode":"8021091"},"description":"vanaf het busstation"}],"label":"Er rijden stopbussen tussen Bad Nieuweschans, Weener en Leer (Ostfriesl).","shortLabel":"Er rijden stopbussen Bad Nieuweschans - Weener - Leer (Ostfr.)."}}]},{"type":"MAINTENANCE","id":"7007055","title":"Amsterdam - Köln - Zürich HB.","isActive":false,"local":false,"titleSections":[[{"type":"STATION","value":"Amsterdam C."},{"type":"ICON","value":"MAINTENANCE"},{"type":"STATION","value":"Zürich HB"}]],"registrationTime":"2025-10-15T13:57:39+0200","start":"2025-11-14T20:00:00+0100","releaseTime":"2025-10-15T13:57:39+0200","end":"2025-11-16T22:00:00+0100","period":"Vrijdag 14 november 20:00 uur t/m zondag 16 november 22:00 uur.","impact":{"value":2},"publicationSections":[{"section":{"stations":[{"coordinate":{"lat":52.3788871765137,"lng":4.90027761459351},"countryCode":"NL","name":"Amsterdam Centraal","stationCode":"ASD","uicCode":"8400058"},{"coordinate":{"lat":52.3605537414551,"lng":4.93111133575439},"countryCode":"NL","name":"Amsterdam Muiderpoort","stationCode":"ASDM","uicCode":"8400060"},{"coordinate":{"lat":52.3466682434082,"lng":4.91777801513672},"countryCode":"NL","name":"Amsterdam Amstel","stationCode":"ASA","uicCode":"8400057"},{"coordinate":{"lat":52.3233337402344,"lng":4.93638896942139},"countryCode":"NL","name":"Duivendrecht","stationCode":"DVD","uicCode":"8400194"},{"coordinate":{"lat":52.3122215270996,"lng":4.94694423675537},"countryCode":"NL","name":"Amsterdam Bijlmer ArenA","stationCode":"ASB","uicCode":"8400074"},{"coordinate":{"lat":52.29844,"lng":4.95972},"countryCode":"NL","name":"Amsterdam Holendrecht","stationCode":"ASHD","uicCode":"8400231"},{"coordinate":{"lat":52.2785,"lng":4.977},"countryCode":"NL","name":"Abcoude","stationCode":"AC","uicCode":"8400047"},{"coordinate":{"lat":52.17149,"lng":4.9906},"countryCode":"NL","name":"Breukelen","stationCode":"BKL","uicCode":"8400133"},{"coordinate":{"lat":52.1352767944336,"lng":5.03361129760742},"countryCode":"NL","name":"Maarssen","stationCode":"MAS","uicCode":"8400419"},{"coordinate":{"lat":52.103055,"lng":5.09},"countryCode":"NL","name":"Utrecht Zuilen","stationCode":"UTZL","uicCode":"8400613"},{"coordinate":{"lat":52.0888900756836,"lng":5.11027765274048},"countryCode":"NL","name":"Utrecht Centraal","stationCode":"UT","uicCode":"8400621"},{"coordinate":{"lat":52.078889,"lng":5.121667},"countryCode":"NL","name":"Utrecht Vaartsche Rijn","stationCode":"UTVR","uicCode":"8400606"},{"coordinate":{"lat":52.0630569458008,"lng":5.19444465637207},"countryCode":"NL","name":"Bunnik","stationCode":"BNK","uicCode":"8400141"},{"coordinate":{"lat":52.0652770996094,"lng":5.25861120223999},"countryCode":"NL","name":"Driebergen-Zeist","stationCode":"DB","uicCode":"8400182"},{"coordinate":{"lat":52.0641670227051,"lng":5.36999988555908},"countryCode":"NL","name":"Maarn","stationCode":"MRN","uicCode":"8400417"},{"coordinate":{"lat":52.0458335876465,"lng":5.57388877868652},"countryCode":"NL","name":"Veenendaal-De Klomp","stationCode":"KLP","uicCode":"8400637"},{"coordinate":{"lat":52.0277786254883,"lng":5.67305564880371},"countryCode":"NL","name":"Ede-Wageningen","stationCode":"ED","uicCode":"8400200"},{"coordinate":{"lat":52.0055541992188,"lng":5.7936110496521},"countryCode":"NL","name":"Wolfheze","stationCode":"WF","uicCode":"8400704"},{"coordinate":{"lat":51.9949989318848,"lng":5.84000015258789},"countryCode":"NL","name":"Oosterbeek","stationCode":"OTB","uicCode":"8400489"},{"coordinate":{"lat":51.9850006103516,"lng":5.89916658401489},"countryCode":"NL","name":"Arnhem Centraal","stationCode":"AH","uicCode":"8400071"},{"coordinate":{"lat":51.985279083252,"lng":5.91944456100464},"countryCode":"NL","name":"Arnhem Velperpoort","stationCode":"AHP","uicCode":"8400072"},{"coordinate":{"lat":51.96286,"lng":5.9695},"countryCode":"NL","name":"Westervoort","stationCode":"WTV","uicCode":"8400688"},{"coordinate":{"lat":51.9433326721191,"lng":6.01472234725952},"countryCode":"NL","name":"Duiven","stationCode":"DVN","uicCode":"8400193"},{"coordinate":{"lat":51.9230537414551,"lng":6.07194423675537},"countryCode":"NL","name":"Zevenaar","stationCode":"ZV","uicCode":"8400735"},{"coordinate":{"lat":51.8743,"lng":6.15417},"countryCode":"D","name":"Emmerich-Elten","stationCode":"EL","uicCode":"8033415"},{"coordinate":{"lat":51.834283,"lng":6.255718},"countryCode":"D","name":"Emmerich","stationCode":"EM","uicCode":"8010288"},{"coordinate":{"lat":51.47512,"lng":6.852038},"countryCode":"D","name":"Oberhausen Hbf","stationCode":"OBERH","uicCode":"8010263"},{"coordinate":{"lat":51.4297785713316,"lng":6.77590370178222},"countryCode":"D","name":"Duisburg Hbf","stationCode":"DUISB","uicCode":"8010316"},{"coordinate":{"lat":51.220146,"lng":6.793137},"countryCode":"D","name":"Düsseldorf Hbf","stationCode":"DUSSEL","uicCode":"8008094"},{"coordinate":{"lat":50.9432158,"lng":6.9589214},"countryCode":"D","name":"Köln Hbf","stationCode":"KOLN","uicCode":"8015458"},{"coordinate":{"lat":50.7320141646745,"lng":7.09712505340576},"countryCode":"D","name":"Bonn Hbf","stationCode":"BONN","uicCode":"8015485"},{"coordinate":{"lat":50.351085,"lng":7.588649},"countryCode":"D","name":"Koblenz Hbf","stationCode":"KKO","uicCode":"8019023"},{"coordinate":{"lat":50.001117,"lng":8.25872},"countryCode":"D","name":"Mainz Hbf","stationCode":"FMZ","uicCode":"8019051"},{"coordinate":{"lat":50.0531710299286,"lng":8.570237159729},"countryCode":"D","name":"Frankfurt Flughafen Fernb","stationCode":"FNAF","uicCode":"8061676"},{"coordinate":{"lat":50.1071222,"lng":8.6638338},"countryCode":"D","name":"Frankfurt (M) Hbf","stationCode":"FFFM","uicCode":"8011068"},{"coordinate":{"lat":49.479354,"lng":8.468921},"countryCode":"D","name":"Mannheim Hbf","stationCode":"MANNHE","uicCode":"8014008"},{"coordinate":{"lat":48.9936223,"lng":8.400743},"countryCode":"D","name":"Karlsruhe Hbf","stationCode":"KARLSR","uicCode":"8014228"},{"coordinate":{"lat":48.789588,"lng":8.1863869},"countryCode":"D","name":"Baden-Baden","stationCode":"RBB","uicCode":"8014277"},{"coordinate":{"lat":48.476475,"lng":7.946723},"countryCode":"D","name":"Offenburg","stationCode":"RO","uicCode":"8014309"},{"coordinate":{"lat":47.99789,"lng":7.84134},"countryCode":"D","name":"Freiburg (Breisgau) Hbf","stationCode":"RF","uicCode":"8014350"},{"coordinate":{"lat":47.56815,"lng":7.6073},"countryCode":"D","name":"Basel Bad Bf","stationCode":"BASELB","uicCode":"8014431"},{"coordinate":{"lat":47.5474,"lng":7.58956},"countryCode":"CH","name":"Basel SBB","stationCode":"BASELS","uicCode":"8500010"},{"coordinate":{"lat":47.37819,"lng":8.5392},"countryCode":"CH","name":"Zürich HB","stationCode":"ZUE","uicCode":"8503000"}],"direction":"ONE_WAY","operators":["NS Int"]},"consequence":{"section":{"stations":[{"coordinate":{"lat":52.3788871765137,"lng":4.90027761459351},"countryCode":"NL","name":"Amsterdam Centraal","stationCode":"ASD","uicCode":"8400058"},{"coordinate":{"lat":52.3605537414551,"lng":4.93111133575439},"countryCode":"NL","name":"Amsterdam Muiderpoort","stationCode":"ASDM","uicCode":"8400060"},{"coordinate":{"lat":52.3466682434082,"lng":4.91777801513672},"countryCode":"NL","name":"Amsterdam Amstel","stationCode":"ASA","uicCode":"8400057"},{"coordinate":{"lat":52.3233337402344,"lng":4.93638896942139},"countryCode":"NL","name":"Duivendrecht","stationCode":"DVD","uicCode":"8400194"},{"coordinate":{"lat":52.3122215270996,"lng":4.94694423675537},"countryCode":"NL","name":"Amsterdam Bijlmer ArenA","stationCode":"ASB","uicCode":"8400074"},{"coordinate":{"lat":52.29844,"lng":4.95972},"countryCode":"NL","name":"Amsterdam Holendrecht","stationCode":"ASHD","uicCode":"8400231"},{"coordinate":{"lat":52.2785,"lng":4.977},"countryCode":"NL","name":"Abcoude","stationCode":"AC","uicCode":"8400047"},{"coordinate":{"lat":52.17149,"lng":4.9906},"countryCode":"NL","name":"Breukelen","stationCode":"BKL","uicCode":"8400133"},{"coordinate":{"lat":52.1352767944336,"lng":5.03361129760742},"countryCode":"NL","name":"Maarssen","stationCode":"MAS","uicCode":"8400419"},{"coordinate":{"lat":52.103055,"lng":5.09},"countryCode":"NL","name":"Utrecht Zuilen","stationCode":"UTZL","uicCode":"8400613"},{"coordinate":{"lat":52.0888900756836,"lng":5.11027765274048},"countryCode":"NL","name":"Utrecht Centraal","stationCode":"UT","uicCode":"8400621"},{"coordinate":{"lat":52.078889,"lng":5.121667},"countryCode":"NL","name":"Utrecht Vaartsche Rijn","stationCode":"UTVR","uicCode":"8400606"},{"coordinate":{"lat":52.0630569458008,"lng":5.19444465637207},"countryCode":"NL","name":"Bunnik","stationCode":"BNK","uicCode":"8400141"},{"coordinate":{"lat":52.0652770996094,"lng":5.25861120223999},"countryCode":"NL","name":"Driebergen-Zeist","stationCode":"DB","uicCode":"8400182"},{"coordinate":{"lat":52.0641670227051,"lng":5.36999988555908},"countryCode":"NL","name":"Maarn","stationCode":"MRN","uicCode":"8400417"},{"coordinate":{"lat":52.0458335876465,"lng":5.57388877868652},"countryCode":"NL","name":"Veenendaal-De Klomp","stationCode":"KLP","uicCode":"8400637"},{"coordinate":{"lat":52.0277786254883,"lng":5.67305564880371},"countryCode":"NL","name":"Ede-Wageningen","stationCode":"ED","uicCode":"8400200"},{"coordinate":{"lat":52.0055541992188,"lng":5.7936110496521},"countryCode":"NL","name":"Wolfheze","stationCode":"WF","uicCode":"8400704"},{"coordinate":{"lat":51.9949989318848,"lng":5.84000015258789},"countryCode":"NL","name":"Oosterbeek","stationCode":"OTB","uicCode":"8400489"},{"coordinate":{"lat":51.9850006103516,"lng":5.89916658401489},"countryCode":"NL","name":"Arnhem Centraal","stationCode":"AH","uicCode":"8400071"},{"coordinate":{"lat":51.985279083252,"lng":5.91944456100464},"countryCode":"NL","name":"Arnhem Velperpoort","stationCode":"AHP","uicCode":"8400072"},{"coordinate":{"lat":51.96286,"lng":5.9695},"countryCode":"NL","name":"Westervoort","stationCode":"WTV","uicCode":"8400688"},{"coordinate":{"lat":51.9433326721191,"lng":6.01472234725952},"countryCode":"NL","name":"Duiven","stationCode":"DVN","uicCode":"8400193"},{"coordinate":{"lat":51.9230537414551,"lng":6.07194423675537},"countryCode":"NL","name":"Zevenaar","stationCode":"ZV","uicCode":"8400735"},{"coordinate":{"lat":51.8743,"lng":6.15417},"countryCode":"D","name":"Emmerich-Elten","stationCode":"EL","uicCode":"8033415"},{"coordinate":{"lat":51.834283,"lng":6.255718},"countryCode":"D","name":"Emmerich","stationCode":"EM","uicCode":"8010288"},{"coordinate":{"lat":51.47512,"lng":6.852038},"countryCode":"D","name":"Oberhausen Hbf","stationCode":"OBERH","uicCode":"8010263"},{"coordinate":{"lat":51.4297785713316,"lng":6.77590370178222},"countryCode":"D","name":"Duisburg Hbf","stationCode":"DUISB","uicCode":"8010316"},{"coordinate":{"lat":51.220146,"lng":6.793137},"countryCode":"D","name":"Düsseldorf Hbf","stationCode":"DUSSEL","uicCode":"8008094"},{"coordinate":{"lat":50.9432158,"lng":6.9589214},"countryCode":"D","name":"Köln Hbf","stationCode":"KOLN","uicCode":"8015458"},{"coordinate":{"lat":50.7320141646745,"lng":7.09712505340576},"countryCode":"D","name":"Bonn Hbf","stationCode":"BONN","uicCode":"8015485"},{"coordinate":{"lat":50.351085,"lng":7.588649},"countryCode":"D","name":"Koblenz Hbf","stationCode":"KKO","uicCode":"8019023"},{"coordinate":{"lat":50.001117,"lng":8.25872},"countryCode":"D","name":"Mainz Hbf","stationCode":"FMZ","uicCode":"8019051"},{"coordinate":{"lat":50.0531710299286,"lng":8.570237159729},"countryCode":"D","name":"Frankfurt Flughafen Fernb","stationCode":"FNAF","uicCode":"8061676"},{"coordinate":{"lat":50.1071222,"lng":8.6638338},"countryCode":"D","name":"Frankfurt (M) Hbf","stationCode":"FFFM","uicCode":"8011068"},{"coordinate":{"lat":49.479354,"lng":8.468921},"countryCode":"D","name":"Mannheim Hbf","stationCode":"MANNHE","uicCode":"8014008"},{"coordinate":{"lat":48.9936223,"lng":8.400743},"countryCode":"D","name":"Karlsruhe Hbf","stationCode":"KARLSR","uicCode":"8014228"},{"coordinate":{"lat":48.789588,"lng":8.1863869},"countryCode":"D","name":"Baden-Baden","stationCode":"RBB","uicCode":"8014277"},{"coordinate":{"lat":48.476475,"lng":7.946723},"countryCode":"D","name":"Offenburg","stationCode":"RO","uicCode":"8014309"},{"coordinate":{"lat":47.99789,"lng":7.84134},"countryCode":"D","name":"Freiburg (Breisgau) Hbf","stationCode":"RF","uicCode":"8014350"},{"coordinate":{"lat":47.56815,"lng":7.6073},"countryCode":"D","name":"Basel Bad Bf","stationCode":"BASELB","uicCode":"8014431"},{"coordinate":{"lat":47.5474,"lng":7.58956},"countryCode":"CH","name":"Basel SBB","stationCode":"BASELS","uicCode":"8500010"},{"coordinate":{"lat":47.37819,"lng":8.5392},"countryCode":"CH","name":"Zürich HB","stationCode":"ZUE","uicCode":"8503000"}],"direction":"ONE_WAY","operators":["NS Int"]},"description":"aangepaste internationale dienstregeling","level":"LESS_TRAINS"},"sectionType":"NEIGHBORING_COUNTRY"}],"timespans":[{"start":"2025-11-14T20:00:00+0100","end":"2025-11-16T22:00:00+0100","period":"Vrijdag 14 november 20:00 uur t/m zondag 16 november 22:00 uur.","situation":{"label":"Door werkzaamheden: van Amsterdam Centraal naar Zürich HB is de internationale dienstregeling aangepast."},"cause":{"label":"werkzaamheden","type":"OTHER"},"advices":["NightJet 403 stopt niet in Bonn-Beuel en Köln Hbf maar stopt in plaats daarvan op Bonn Hbf."]}],"alternativeTransportTimespans":[]},{"type":"MAINTENANCE","id":"7007090","title":"Amsterdam - Hilversum; Amsterdam - Almere; Schiphol - Lelystad; Schiphol - Amersfoort.","isActive":false,"local":false,"titleSections":[[{"type":"STATION","value":"Amsterdam C."},{"type":"STATION","value":"Weesp"},{"type":"ICON","value":"MAINTENANCE"},{"type":"STATION","value":"Naarden-Bussum"},{"type":"STATION","value":"Hilversum"}],[{"type":"STATION","value":"Schiphol Airport"},{"type":"STATION","value":"Weesp"},{"type":"ICON","value":"MAINTENANCE"},{"type":"STATION","value":"Naarden-Bussum"},{"type":"STATION","value":"Amersfoort C."}],[{"type":"STATION","value":"Amsterdam C."},{"type":"ICON","value":"MAINTENANCE"},{"type":"STATION","value":"Almere C."}],[{"type":"STATION","value":"Schiphol Airport"},{"type":"STATION","value":"Amsterdam Zuid"},{"type":"ICON","value":"MAINTENANCE"},{"type":"STATION","value":"Almere C."},{"type":"STATION","value":"Lelystad C."}]],"registrationTime":"2025-10-27T12:01:36+0100","start":"2025-11-14T21:45:00+0100","releaseTime":"2025-10-27T12:01:36+0100","end":"2025-11-15T02:00:00+0100","period":"Vrijdag 14 november 21:45 uur t/m zaterdag 15 november 2:00 uur.","impact":{"value":2},"publicationSections":[{"section":{"stations":[{"coordinate":{"lat":52.3788871765137,"lng":4.90027761459351},"countryCode":"NL","name":"Amsterdam Centraal","stationCode":"ASD","uicCode":"8400058"},{"coordinate":{"lat":52.3605537414551,"lng":4.93111133575439},"countryCode":"NL","name":"Amsterdam Muiderpoort","stationCode":"ASDM","uicCode":"8400060"},{"coordinate":{"lat":52.35274,"lng":4.94855},"countryCode":"NL","name":"Amsterdam Science Park","stationCode":"ASSP","uicCode":"8400235"},{"coordinate":{"lat":52.34515,"lng":4.967566},"countryCode":"NL","name":"Diemen","stationCode":"DMN","uicCode":"8400165"},{"coordinate":{"lat":52.3127784729004,"lng":5.04305553436279},"countryCode":"NL","name":"Weesp","stationCode":"WP","uicCode":"8400685"},{"coordinate":{"lat":52.2802772521973,"lng":5.15694427490234},"countryCode":"NL","name":"Naarden-Bussum","stationCode":"NDB","uicCode":"8400452"},{"coordinate":{"lat":52.2658348083496,"lng":5.16305541992188},"countryCode":"NL","name":"Bussum Zuid","stationCode":"BSMZ","uicCode":"8400145"},{"coordinate":{"lat":52.2380561828613,"lng":5.17388868331909},"countryCode":"NL","name":"Hilversum Media Park","stationCode":"HVSM","uicCode":"8400324"},{"coordinate":{"lat":52.2258338928223,"lng":5.18194437026978},"countryCode":"NL","name":"Hilversum","stationCode":"HVS","uicCode":"8400322"}],"direction":"BOTH","operators":["NS"]},"consequence":{"section":{"stations":[{"coordinate":{"lat":52.3127784729004,"lng":5.04305553436279},"countryCode":"NL","name":"Weesp","stationCode":"WP","uicCode":"8400685"},{"coordinate":{"lat":52.2802772521973,"lng":5.15694427490234},"countryCode":"NL","name":"Naarden-Bussum","stationCode":"NDB","uicCode":"8400452"}],"direction":"BOTH","operators":["NS"]},"description":"geen treinen","level":"LESS_TRAINS"},"sectionType":"NL"},{"section":{"stations":[{"coordinate":{"lat":52.3094444274902,"lng":4.76194429397583},"countryCode":"NL","name":"Schiphol Airport","stationCode":"SHL","uicCode":"8400561"},{"coordinate":{"lat":52.338889,"lng":4.872356},"countryCode":"NL","name":"Amsterdam Zuid","stationCode":"ASDZ","uicCode":"8400061"},{"coordinate":{"lat":52.3372230529785,"lng":4.89027786254883},"countryCode":"NL","name":"Amsterdam RAI","stationCode":"RAI","uicCode":"8400056"},{"coordinate":{"lat":52.3233337402344,"lng":4.93638896942139},"countryCode":"NL","name":"Duivendrecht","stationCode":"DVD","uicCode":"8400194"},{"coordinate":{"lat":52.3302764892578,"lng":4.95583343505859},"countryCode":"NL","name":"Diemen Zuid","stationCode":"DMNZ","uicCode":"8400163"},{"coordinate":{"lat":52.3127784729004,"lng":5.04305553436279},"countryCode":"NL","name":"Weesp","stationCode":"WP","uicCode":"8400685"},{"coordinate":{"lat":52.2802772521973,"lng":5.15694427490234},"countryCode":"NL","name":"Naarden-Bussum","stationCode":"NDB","uicCode":"8400452"},{"coordinate":{"lat":52.2658348083496,"lng":5.16305541992188},"countryCode":"NL","name":"Bussum Zuid","stationCode":"BSMZ","uicCode":"8400145"},{"coordinate":{"lat":52.2380561828613,"lng":5.17388868331909},"countryCode":"NL","name":"Hilversum Media Park","stationCode":"HVSM","uicCode":"8400324"},{"coordinate":{"lat":52.2258338928223,"lng":5.18194437026978},"countryCode":"NL","name":"Hilversum","stationCode":"HVS","uicCode":"8400322"},{"coordinate":{"lat":52.2083320617676,"lng":5.28083324432373},"countryCode":"NL","name":"Baarn","stationCode":"BRN","uicCode":"8400086"},{"coordinate":{"lat":52.1538887023926,"lng":5.37055540084839},"countryCode":"NL","name":"Amersfoort Centraal","stationCode":"AMF","uicCode":"8400055"}],"direction":"BOTH","operators":["NS"]},"consequence":{"section":{"stations":[{"coordinate":{"lat":52.3127784729004,"lng":5.04305553436279},"countryCode":"NL","name":"Weesp","stationCode":"WP","uicCode":"8400685"},{"coordinate":{"lat":52.2802772521973,"lng":5.15694427490234},"countryCode":"NL","name":"Naarden-Bussum","stationCode":"NDB","uicCode":"8400452"}],"direction":"BOTH","operators":["NS"]},"description":"geen treinen","level":"LESS_TRAINS"},"sectionType":"NL"},{"section":{"stations":[{"coordinate":{"lat":52.3788871765137,"lng":4.90027761459351},"countryCode":"NL","name":"Amsterdam Centraal","stationCode":"ASD","uicCode":"8400058"},{"coordinate":{"lat":52.3605537414551,"lng":4.93111133575439},"countryCode":"NL","name":"Amsterdam Muiderpoort","stationCode":"ASDM","uicCode":"8400060"},{"coordinate":{"lat":52.35274,"lng":4.94855},"countryCode":"NL","name":"Amsterdam Science Park","stationCode":"ASSP","uicCode":"8400235"},{"coordinate":{"lat":52.34515,"lng":4.967566},"countryCode":"NL","name":"Diemen","stationCode":"DMN","uicCode":"8400165"},{"coordinate":{"lat":52.3127784729004,"lng":5.04305553436279},"countryCode":"NL","name":"Weesp","stationCode":"WP","uicCode":"8400685"},{"coordinate":{"lat":52.342778,"lng":5.151944},"countryCode":"NL","name":"Almere Poort","stationCode":"AMPO","uicCode":"8400450"},{"coordinate":{"lat":52.3675003051758,"lng":5.19027757644653},"countryCode":"NL","name":"Almere Muziekwijk","stationCode":"ALMM","uicCode":"8400082"},{"coordinate":{"lat":52.37503,"lng":5.21764},"countryCode":"NL","name":"Almere Centrum","stationCode":"ALM","uicCode":"8400080"}],"direction":"BOTH","operators":["NS"]},"consequence":{"section":{"stations":[{"coordinate":{"lat":52.3788871765137,"lng":4.90027761459351},"countryCode":"NL","name":"Amsterdam Centraal","stationCode":"ASD","uicCode":"8400058"},{"coordinate":{"lat":52.3605537414551,"lng":4.93111133575439},"countryCode":"NL","name":"Amsterdam Muiderpoort","stationCode":"ASDM","uicCode":"8400060"},{"coordinate":{"lat":52.35274,"lng":4.94855},"countryCode":"NL","name":"Amsterdam Science Park","stationCode":"ASSP","uicCode":"8400235"},{"coordinate":{"lat":52.34515,"lng":4.967566},"countryCode":"NL","name":"Diemen","stationCode":"DMN","uicCode":"8400165"},{"coordinate":{"lat":52.3127784729004,"lng":5.04305553436279},"countryCode":"NL","name":"Weesp","stationCode":"WP","uicCode":"8400685"},{"coordinate":{"lat":52.342778,"lng":5.151944},"countryCode":"NL","name":"Almere Poort","stationCode":"AMPO","uicCode":"8400450"},{"coordinate":{"lat":52.3675003051758,"lng":5.19027757644653},"countryCode":"NL","name":"Almere Muziekwijk","stationCode":"ALMM","uicCode":"8400082"},{"coordinate":{"lat":52.37503,"lng":5.21764},"countryCode":"NL","name":"Almere Centrum","stationCode":"ALM","uicCode":"8400080"}],"direction":"BOTH","operators":["NS"]},"description":"minder treinen","level":"LESS_TRAINS"},"sectionType":"NL"},{"section":{"stations":[{"coordinate":{"lat":52.3094444274902,"lng":4.76194429397583},"countryCode":"NL","name":"Schiphol Airport","stationCode":"SHL","uicCode":"8400561"},{"coordinate":{"lat":52.338889,"lng":4.872356},"countryCode":"NL","name":"Amsterdam Zuid","stationCode":"ASDZ","uicCode":"8400061"},{"coordinate":{"lat":52.3372230529785,"lng":4.89027786254883},"countryCode":"NL","name":"Amsterdam RAI","stationCode":"RAI","uicCode":"8400056"},{"coordinate":{"lat":52.3233337402344,"lng":4.93638896942139},"countryCode":"NL","name":"Duivendrecht","stationCode":"DVD","uicCode":"8400194"},{"coordinate":{"lat":52.3302764892578,"lng":4.95583343505859},"countryCode":"NL","name":"Diemen Zuid","stationCode":"DMNZ","uicCode":"8400163"},{"coordinate":{"lat":52.3127784729004,"lng":5.04305553436279},"countryCode":"NL","name":"Weesp","stationCode":"WP","uicCode":"8400685"},{"coordinate":{"lat":52.342778,"lng":5.151944},"countryCode":"NL","name":"Almere Poort","stationCode":"AMPO","uicCode":"8400450"},{"coordinate":{"lat":52.3675003051758,"lng":5.19027757644653},"countryCode":"NL","name":"Almere Muziekwijk","stationCode":"ALMM","uicCode":"8400082"},{"coordinate":{"lat":52.37503,"lng":5.21764},"countryCode":"NL","name":"Almere Centrum","stationCode":"ALM","uicCode":"8400080"},{"coordinate":{"lat":52.3766670227051,"lng":5.24472236633301},"countryCode":"NL","name":"Almere Parkwijk","stationCode":"ALMP","uicCode":"8400104"},{"coordinate":{"lat":52.3941650390625,"lng":5.2780556678772},"countryCode":"NL","name":"Almere Buiten","stationCode":"ALMB","uicCode":"8400081"},{"coordinate":{"lat":52.4033317565918,"lng":5.30055570602417},"countryCode":"NL","name":"Almere Oostvaarders","stationCode":"ALMO","uicCode":"8400226"},{"coordinate":{"lat":52.5077781677246,"lng":5.47277784347534},"countryCode":"NL","name":"Lelystad Centrum","stationCode":"LLS","uicCode":"8400394"}],"direction":"BOTH","operators":["NS"]},"consequence":{"section":{"stations":[{"coordinate":{"lat":52.338889,"lng":4.872356},"countryCode":"NL","name":"Amsterdam Zuid","stationCode":"ASDZ","uicCode":"8400061"},{"coordinate":{"lat":52.3372230529785,"lng":4.89027786254883},"countryCode":"NL","name":"Amsterdam RAI","stationCode":"RAI","uicCode":"8400056"},{"coordinate":{"lat":52.3233337402344,"lng":4.93638896942139},"countryCode":"NL","name":"Duivendrecht","stationCode":"DVD","uicCode":"8400194"},{"coordinate":{"lat":52.3302764892578,"lng":4.95583343505859},"countryCode":"NL","name":"Diemen Zuid","stationCode":"DMNZ","uicCode":"8400163"},{"coordinate":{"lat":52.3127784729004,"lng":5.04305553436279},"countryCode":"NL","name":"Weesp","stationCode":"WP","uicCode":"8400685"},{"coordinate":{"lat":52.342778,"lng":5.151944},"countryCode":"NL","name":"Almere Poort","stationCode":"AMPO","uicCode":"8400450"},{"coordinate":{"lat":52.3675003051758,"lng":5.19027757644653},"countryCode":"NL","name":"Almere Muziekwijk","stationCode":"ALMM","uicCode":"8400082"},{"coordinate":{"lat":52.37503,"lng":5.21764},"countryCode":"NL","name":"Almere Centrum","stationCode":"ALM","uicCode":"8400080"}],"direction":"BOTH","operators":["NS"]},"description":"minder treinen","level":"LESS_TRAINS"},"sectionType":"NL"}],"summaryAdditionalTravelTime":{"label":"De extra reistijd ligt tussen 15 en 30 minuten.","shortLabel":"Extra reistijd: 15 - 30 min.","minimumDurationInMinutes":15,"maximumDurationInMinutes":30},"timespans":[{"start":"2025-11-14T21:45:00+0100","end":"2025-11-15T02:00:00+0100","period":"Vrijdag 14 november 21:45 uur t/m zaterdag 15 november 2:00 uur.","situation":{"label":"Door werkzaamheden: tussen Weesp en Naarden-Bussum rijden er geen treinen en tussen Amsterdam Centraal en Almere Centrum rijden er minder treinen en tussen Amsterdam Zuid en Almere Centrum rijden er minder treinen."},"cause":{"label":"werkzaamheden","type":"OTHER"},"additionalTravelTime":{"label":"De extra reistijd ligt tussen 15 en 30 minuten.","shortLabel":"Extra reistijd: 15 - 30 min.","minimumDurationInMinutes":15,"maximumDurationInMinutes":30},"advices":["Er worden geen bussen ingezet. U kunt omreizen via Almere Poort of  via Utrecht Centraal. "]}],"alternativeTransportTimespans":[]},{"type":"MAINTENANCE","id":"7006762","title":"Schiphol Airport.","isActive":false,"local":false,"titleSections":[[{"type":"STATION","value":"Schiphol Airport"}],[{"type":"STATION","value":"Amsterdam C."},{"type":"ICON","value":"MAINTENANCE"},{"type":"STATION","value":"Schiphol Airport"}],[{"type":"STATION","value":"Schiphol Airport"},{"type":"ICON","value":"MAINTENANCE"},{"type":"STATION","value":"Amsterdam Zuid"},{"type":"STATION","value":"Utrecht C."}],[{"type":"STATION","value":"Schiphol Airport"},{"type":"ICON","value":"MAINTENANCE"},{"type":"STATION","value":"Amsterdam Zuid"},{"type":"STATION","value":"Amersfoort C."}],[{"type":"STATION","value":"Schiphol Airport"},{"type":"ICON","value":"MAINTENANCE"},{"type":"STATION","value":"Amsterdam Zuid"},{"type":"STATION","value":"Lelystad C."}]],"registrationTime":"2025-11-10T13:52:37+0100","start":"2025-11-15T00:00:00+0100","releaseTime":"2025-11-10T13:52:37+0100","end":"2025-12-08T03:00:00+0100","period":"Zaterdag 15 november 0:00 uur t/m maandag 8 december 3:00 uur.","impact":{"value":5},"publicationSections":[{"section":{"stations":[{"coordinate":{"lat":52.3094444274902,"lng":4.76194429397583},"countryCode":"NL","name":"Schiphol Airport","stationCode":"SHL","uicCode":"8400561"},{"coordinate":{"lat":52.2933349609375,"lng":4.70055532455444},"countryCode":"NL","name":"Hoofddorp","stationCode":"HFD","uicCode":"8400332"},{"coordinate":{"lat":52.2588882446289,"lng":4.64555549621582},"countryCode":"NL","name":"Nieuw Vennep","stationCode":"NVP","uicCode":"8400460"},{"coordinate":{"lat":52.215278,"lng":4.517222},"countryCode":"NL","name":"Sassenheim","stationCode":"SSH","uicCode":"8400603"},{"coordinate":{"lat":52.1661109924316,"lng":4.48166656494141},"countryCode":"NL","name":"Leiden Centraal","stationCode":"LEDN","uicCode":"8400390"}],"direction":"BOTH","operators":["NS"]},"consequence":{"section":{"stations":[{"coordinate":{"lat":52.3094444274902,"lng":4.76194429397583},"countryCode":"NL","name":"Schiphol Airport","stationCode":"SHL","uicCode":"8400561"}],"direction":"BOTH","operators":["NS"]},"description":"veel minder treinen","level":"LESS_TRAINS"},"sectionType":"NL"},{"section":{"stations":[{"coordinate":{"lat":52.3094444274902,"lng":4.76194429397583},"countryCode":"NL","name":"Schiphol Airport","stationCode":"SHL","uicCode":"8400561"},{"coordinate":{"lat":52.338889,"lng":4.872356},"countryCode":"NL","name":"Amsterdam Zuid","stationCode":"ASDZ","uicCode":"8400061"},{"coordinate":{"lat":52.3372230529785,"lng":4.89027786254883},"countryCode":"NL","name":"Amsterdam RAI","stationCode":"RAI","uicCode":"8400056"},{"coordinate":{"lat":52.3122215270996,"lng":4.94694423675537},"countryCode":"NL","name":"Amsterdam Bijlmer ArenA","stationCode":"ASB","uicCode":"8400074"},{"coordinate":{"lat":52.29844,"lng":4.95972},"countryCode":"NL","name":"Amsterdam Holendrecht","stationCode":"ASHD","uicCode":"8400231"},{"coordinate":{"lat":52.2785,"lng":4.977},"countryCode":"NL","name":"Abcoude","stationCode":"AC","uicCode":"8400047"},{"coordinate":{"lat":52.17149,"lng":4.9906},"countryCode":"NL","name":"Breukelen","stationCode":"BKL","uicCode":"8400133"},{"coordinate":{"lat":52.1352767944336,"lng":5.03361129760742},"countryCode":"NL","name":"Maarssen","stationCode":"MAS","uicCode":"8400419"},{"coordinate":{"lat":52.103055,"lng":5.09},"countryCode":"NL","name":"Utrecht Zuilen","stationCode":"UTZL","uicCode":"8400613"},{"coordinate":{"lat":52.0888900756836,"lng":5.11027765274048},"countryCode":"NL","name":"Utrecht Centraal","stationCode":"UT","uicCode":"8400621"}],"direction":"BOTH","operators":["NS"]},"consequence":{"section":{"stations":[{"coordinate":{"lat":52.3094444274902,"lng":4.76194429397583},"countryCode":"NL","name":"Schiphol Airport","stationCode":"SHL","uicCode":"8400561"}],"direction":"BOTH","operators":["NS"]},"description":"veel minder treinen","level":"LESS_TRAINS"},"sectionType":"NL"},{"section":{"stations":[{"coordinate":{"lat":52.3788871765137,"lng":4.90027761459351},"countryCode":"NL","name":"Amsterdam Centraal","stationCode":"ASD","uicCode":"8400058"},{"coordinate":{"lat":52.3888893127441,"lng":4.83777761459351},"countryCode":"NL","name":"Amsterdam Sloterdijk","stationCode":"ASS","uicCode":"8400059"},{"coordinate":{"lat":52.3577766418457,"lng":4.83388900756836},"countryCode":"NL","name":"Amsterdam Lelylaan","stationCode":"ASDL","uicCode":"8400079"},{"coordinate":{"lat":52.3094444274902,"lng":4.76194429397583},"countryCode":"NL","name":"Schiphol Airport","stationCode":"SHL","uicCode":"8400561"}],"direction":"BOTH","operators":["NS"]},"consequence":{"section":{"stations":[{"coordinate":{"lat":52.3094444274902,"lng":4.76194429397583},"countryCode":"NL","name":"Schiphol Airport","stationCode":"SHL","uicCode":"8400561"}],"direction":"BOTH","operators":["NS"]},"description":"veel minder treinen","level":"LESS_TRAINS"},"sectionType":"NL"},{"section":{"stations":[{"coordinate":{"lat":52.3094444274902,"lng":4.76194429397583},"countryCode":"NL","name":"Schiphol Airport","stationCode":"SHL","uicCode":"8400561"},{"coordinate":{"lat":52.338889,"lng":4.872356},"countryCode":"NL","name":"Amsterdam Zuid","stationCode":"ASDZ","uicCode":"8400061"},{"coordinate":{"lat":52.3372230529785,"lng":4.89027786254883},"countryCode":"NL","name":"Amsterdam RAI","stationCode":"RAI","uicCode":"8400056"},{"coordinate":{"lat":52.3233337402344,"lng":4.93638896942139},"countryCode":"NL","name":"Duivendrecht","stationCode":"DVD","uicCode":"8400194"},{"coordinate":{"lat":52.3302764892578,"lng":4.95583343505859},"countryCode":"NL","name":"Diemen Zuid","stationCode":"DMNZ","uicCode":"8400163"},{"coordinate":{"lat":52.3127784729004,"lng":5.04305553436279},"countryCode":"NL","name":"Weesp","stationCode":"WP","uicCode":"8400685"},{"coordinate":{"lat":52.342778,"lng":5.151944},"countryCode":"NL","name":"Almere Poort","stationCode":"AMPO","uicCode":"8400450"},{"coordinate":{"lat":52.3675003051758,"lng":5.19027757644653},"countryCode":"NL","name":"Almere Muziekwijk","stationCode":"ALMM","uicCode":"8400082"},{"coordinate":{"lat":52.37503,"lng":5.21764},"countryCode":"NL","name":"Almere Centrum","stationCode":"ALM","uicCode":"8400080"},{"coordinate":{"lat":52.3766670227051,"lng":5.24472236633301},"countryCode":"NL","name":"Almere Parkwijk","stationCode":"ALMP","uicCode":"8400104"},{"coordinate":{"lat":52.3941650390625,"lng":5.2780556678772},"countryCode":"NL","name":"Almere Buiten","stationCode":"ALMB","uicCode":"8400081"},{"coordinate":{"lat":52.4033317565918,"lng":5.30055570602417},"countryCode":"NL","name":"Almere Oostvaarders","stationCode":"ALMO","uicCode":"8400226"},{"coordinate":{"lat":52.5077781677246,"lng":5.47277784347534},"countryCode":"NL","name":"Lelystad Centrum","stationCode":"LLS","uicCode":"8400394"}],"direction":"BOTH","operators":["NS"]},"consequence":{"section":{"stations":[{"coordinate":{"lat":52.3094444274902,"lng":4.76194429397583},"countryCode":"NL","name":"Schiphol Airport","stationCode":"SHL","uicCode":"8400561"}],"direction":"BOTH","operators":["NS"]},"description":"veel minder treinen","level":"LESS_TRAINS"},"sectionType":"NL"},{"section":{"stations":[{"coordinate":{"lat":52.3094444274902,"lng":4.76194429397583},"countryCode":"NL","name":"Schiphol Airport","stationCode":"SHL","uicCode":"8400561"},{"coordinate":{"lat":52.338889,"lng":4.872356},"countryCode":"NL","name":"Amsterdam Zuid","stationCode":"ASDZ","uicCode":"8400061"},{"coordinate":{"lat":52.3372230529785,"lng":4.89027786254883},"countryCode":"NL","name":"Amsterdam RAI","stationCode":"RAI","uicCode":"8400056"},{"coordinate":{"lat":52.3233337402344,"lng":4.93638896942139},"countryCode":"NL","name":"Duivendrecht","stationCode":"DVD","uicCode":"8400194"},{"coordinate":{"lat":52.3302764892578,"lng":4.95583343505859},"countryCode":"NL","name":"Diemen Zuid","stationCode":"DMNZ","uicCode":"8400163"},{"coordinate":{"lat":52.3127784729004,"lng":5.04305553436279},"countryCode":"NL","name":"Weesp","stationCode":"WP","uicCode":"8400685"},{"coordinate":{"lat":52.2802772521973,"lng":5.15694427490234},"countryCode":"NL","name":"Naarden-Bussum","stationCode":"NDB","uicCode":"8400452"},{"coordinate":{"lat":52.2658348083496,"lng":5.16305541992188},"countryCode":"NL","name":"Bussum Zuid","stationCode":"BSMZ","uicCode":"8400145"},{"coordinate":{"lat":52.2380561828613,"lng":5.17388868331909},"countryCode":"NL","name":"Hilversum Media Park","stationCode":"HVSM","uicCode":"8400324"},{"coordinate":{"lat":52.2258338928223,"lng":5.18194437026978},"countryCode":"NL","name":"Hilversum","stationCode":"HVS","uicCode":"8400322"},{"coordinate":{"lat":52.2083320617676,"lng":5.28083324432373},"countryCode":"NL","name":"Baarn","stationCode":"BRN","uicCode":"8400086"},{"coordinate":{"lat":52.1538887023926,"lng":5.37055540084839},"countryCode":"NL","name":"Amersfoort Centraal","stationCode":"AMF","uicCode":"8400055"}],"direction":"BOTH","operators":["NS"]},"consequence":{"section":{"stations":[{"coordinate":{"lat":52.3094444274902,"lng":4.76194429397583},"countryCode":"NL","name":"Schiphol Airport","stationCode":"SHL","uicCode":"8400561"}],"direction":"BOTH","operators":["NS"]},"description":"veel minder treinen","level":"LESS_TRAINS"},"sectionType":"NL"},{"section":{"stations":[{"coordinate":{"lat":52.338889,"lng":4.872356},"countryCode":"NL","name":"Amsterdam Zuid","stationCode":"ASDZ","uicCode":"8400061"},{"coordinate":{"lat":52.3094444274902,"lng":4.76194429397583},"countryCode":"NL","name":"Schiphol Airport","stationCode":"SHL","uicCode":"8400561"},{"coordinate":{"lat":52.2933349609375,"lng":4.70055532455444},"countryCode":"NL","name":"Hoofddorp","stationCode":"HFD","uicCode":"8400332"},{"coordinate":{"lat":51.9249992370605,"lng":4.46888875961304},"countryCode":"NL","name":"Rotterdam Centraal","stationCode":"RTD","uicCode":"8400530"}],"direction":"BOTH","operators":["NS Int"]},"consequence":{"section":{"stations":[{"coordinate":{"lat":52.3094444274902,"lng":4.76194429397583},"countryCode":"NL","name":"Schiphol Airport","stationCode":"SHL","uicCode":"8400561"}],"direction":"BOTH","operators":["NS Int"]},"description":"veel minder treinen","level":"LESS_TRAINS"},"sectionType":"HSL"},{"section":{"stations":[{"coordinate":{"lat":52.3788871765137,"lng":4.90027761459351},"countryCode":"NL","name":"Amsterdam Centraal","stationCode":"ASD","uicCode":"8400058"},{"coordinate":{"lat":52.3888893127441,"lng":4.83777761459351},"countryCode":"NL","name":"Amsterdam Sloterdijk","stationCode":"ASS","uicCode":"8400059"},{"coordinate":{"lat":52.3577766418457,"lng":4.83388900756836},"countryCode":"NL","name":"Amsterdam Lelylaan","stationCode":"ASDL","uicCode":"8400079"},{"coordinate":{"lat":52.3094444274902,"lng":4.76194429397583},"countryCode":"NL","name":"Schiphol Airport","stationCode":"SHL","uicCode":"8400561"}],"direction":"ONE_WAY","operators":["NS"]},"consequence":{"section":{"stations":[{"coordinate":{"lat":52.3788871765137,"lng":4.90027761459351},"countryCode":"NL","name":"Amsterdam Centraal","stationCode":"ASD","uicCode":"8400058"},{"coordinate":{"lat":52.3888893127441,"lng":4.83777761459351},"countryCode":"NL","name":"Amsterdam Sloterdijk","stationCode":"ASS","uicCode":"8400059"},{"coordinate":{"lat":52.3577766418457,"lng":4.83388900756836},"countryCode":"NL","name":"Amsterdam Lelylaan","stationCode":"ASDL","uicCode":"8400079"},{"coordinate":{"lat":52.3094444274902,"lng":4.76194429397583},"countryCode":"NL","name":"Schiphol Airport","stationCode":"SHL","uicCode":"8400561"}],"direction":"ONE_WAY","operators":["NS"]},"description":"geen treinen","level":"LESS_TRAINS"},"sectionType":"NL"},{"section":{"stations":[{"coordinate":{"lat":52.3094444274902,"lng":4.76194429397583},"countryCode":"NL","name":"Schiphol Airport","stationCode":"SHL","uicCode":"8400561"},{"coordinate":{"lat":52.338889,"lng":4.872356},"countryCode":"NL","name":"Amsterdam Zuid","stationCode":"ASDZ","uicCode":"8400061"},{"coordinate":{"lat":52.3372230529785,"lng":4.89027786254883},"countryCode":"NL","name":"Amsterdam RAI","stationCode":"RAI","uicCode":"8400056"},{"coordinate":{"lat":52.3122215270996,"lng":4.94694423675537},"countryCode":"NL","name":"Amsterdam Bijlmer ArenA","stationCode":"ASB","uicCode":"8400074"},{"coordinate":{"lat":52.29844,"lng":4.95972},"countryCode":"NL","name":"Amsterdam Holendrecht","stationCode":"ASHD","uicCode":"8400231"},{"coordinate":{"lat":52.2785,"lng":4.977},"countryCode":"NL","name":"Abcoude","stationCode":"AC","uicCode":"8400047"},{"coordinate":{"lat":52.17149,"lng":4.9906},"countryCode":"NL","name":"Breukelen","stationCode":"BKL","uicCode":"8400133"},{"coordinate":{"lat":52.1352767944336,"lng":5.03361129760742},"countryCode":"NL","name":"Maarssen","stationCode":"MAS","uicCode":"8400419"},{"coordinate":{"lat":52.103055,"lng":5.09},"countryCode":"NL","name":"Utrecht Zuilen","stationCode":"UTZL","uicCode":"8400613"},{"coordinate":{"lat":52.0888900756836,"lng":5.11027765274048},"countryCode":"NL","name":"Utrecht Centraal","stationCode":"UT","uicCode":"8400621"}],"direction":"ONE_WAY","operators":["NS"]},"consequence":{"section":{"stations":[{"coordinate":{"lat":52.3094444274902,"lng":4.76194429397583},"countryCode":"NL","name":"Schiphol Airport","stationCode":"SHL","uicCode":"8400561"},{"coordinate":{"lat":52.338889,"lng":4.872356},"countryCode":"NL","name":"Amsterdam Zuid","stationCode":"ASDZ","uicCode":"8400061"}],"direction":"ONE_WAY","operators":["NS"]},"description":"geen treinen","level":"LESS_TRAINS"},"sectionType":"NL"},{"section":{"stations":[{"coordinate":{"lat":52.3094444274902,"lng":4.76194429397583},"countryCode":"NL","name":"Schiphol Airport","stationCode":"SHL","uicCode":"8400561"},{"coordinate":{"lat":52.338889,"lng":4.872356},"countryCode":"NL","name":"Amsterdam Zuid","stationCode":"ASDZ","uicCode":"8400061"},{"coordinate":{"lat":52.3372230529785,"lng":4.89027786254883},"countryCode":"NL","name":"Amsterdam RAI","stationCode":"RAI","uicCode":"8400056"},{"coordinate":{"lat":52.3233337402344,"lng":4.93638896942139},"countryCode":"NL","name":"Duivendrecht","stationCode":"DVD","uicCode":"8400194"},{"coordinate":{"lat":52.3302764892578,"lng":4.95583343505859},"countryCode":"NL","name":"Diemen Zuid","stationCode":"DMNZ","uicCode":"8400163"},{"coordinate":{"lat":52.3127784729004,"lng":5.04305553436279},"countryCode":"NL","name":"Weesp","stationCode":"WP","uicCode":"8400685"},{"coordinate":{"lat":52.2802772521973,"lng":5.15694427490234},"countryCode":"NL","name":"Naarden-Bussum","stationCode":"NDB","uicCode":"8400452"},{"coordinate":{"lat":52.2658348083496,"lng":5.16305541992188},"countryCode":"NL","name":"Bussum Zuid","stationCode":"BSMZ","uicCode":"8400145"},{"coordinate":{"lat":52.2380561828613,"lng":5.17388868331909},"countryCode":"NL","name":"Hilversum Media Park","stationCode":"HVSM","uicCode":"8400324"},{"coordinate":{"lat":52.2258338928223,"lng":5.18194437026978},"countryCode":"NL","name":"Hilversum","stationCode":"HVS","uicCode":"8400322"},{"coordinate":{"lat":52.2083320617676,"lng":5.28083324432373},"countryCode":"NL","name":"Baarn","stationCode":"BRN","uicCode":"8400086"},{"coordinate":{"lat":52.1538887023926,"lng":5.37055540084839},"countryCode":"NL","name":"Amersfoort Centraal","stationCode":"AMF","uicCode":"8400055"}],"direction":"ONE_WAY","operators":["NS"]},"consequence":{"section":{"stations":[{"coordinate":{"lat":52.3094444274902,"lng":4.76194429397583},"countryCode":"NL","name":"Schiphol Airport","stationCode":"SHL","uicCode":"8400561"},{"coordinate":{"lat":52.338889,"lng":4.872356},"countryCode":"NL","name":"Amsterdam Zuid","stationCode":"ASDZ","uicCode":"8400061"}],"direction":"ONE_WAY","operators":["NS"]},"description":"geen treinen","level":"LESS_TRAINS"},"sectionType":"NL"},{"section":{"stations":[{"coordinate":{"lat":52.3094444274902,"lng":4.76194429397583},"countryCode":"NL","name":"Schiphol Airport","stationCode":"SHL","uicCode":"8400561"},{"coordinate":{"lat":52.338889,"lng":4.872356},"countryCode":"NL","name":"Amsterdam Zuid","stationCode":"ASDZ","uicCode":"8400061"},{"coordinate":{"lat":52.3372230529785,"lng":4.89027786254883},"countryCode":"NL","name":"Amsterdam RAI","stationCode":"RAI","uicCode":"8400056"},{"coordinate":{"lat":52.3233337402344,"lng":4.93638896942139},"countryCode":"NL","name":"Duivendrecht","stationCode":"DVD","uicCode":"8400194"},{"coordinate":{"lat":52.3302764892578,"lng":4.95583343505859},"countryCode":"NL","name":"Diemen Zuid","stationCode":"DMNZ","uicCode":"8400163"},{"coordinate":{"lat":52.3127784729004,"lng":5.04305553436279},"countryCode":"NL","name":"Weesp","stationCode":"WP","uicCode":"8400685"},{"coordinate":{"lat":52.342778,"lng":5.151944},"countryCode":"NL","name":"Almere Poort","stationCode":"AMPO","uicCode":"8400450"},{"coordinate":{"lat":52.3675003051758,"lng":5.19027757644653},"countryCode":"NL","name":"Almere Muziekwijk","stationCode":"ALMM","uicCode":"8400082"},{"coordinate":{"lat":52.37503,"lng":5.21764},"countryCode":"NL","name":"Almere Centrum","stationCode":"ALM","uicCode":"8400080"},{"coordinate":{"lat":52.3766670227051,"lng":5.24472236633301},"countryCode":"NL","name":"Almere Parkwijk","stationCode":"ALMP","uicCode":"8400104"},{"coordinate":{"lat":52.3941650390625,"lng":5.2780556678772},"countryCode":"NL","name":"Almere Buiten","stationCode":"ALMB","uicCode":"8400081"},{"coordinate":{"lat":52.4033317565918,"lng":5.30055570602417},"countryCode":"NL","name":"Almere Oostvaarders","stationCode":"ALMO","uicCode":"8400226"},{"coordinate":{"lat":52.5077781677246,"lng":5.47277784347534},"countryCode":"NL","name":"Lelystad Centrum","stationCode":"LLS","uicCode":"8400394"}],"direction":"ONE_WAY","operators":["NS"]},"consequence":{"section":{"stations":[{"coordinate":{"lat":52.3094444274902,"lng":4.76194429397583},"countryCode":"NL","name":"Schiphol Airport","stationCode":"SHL","uicCode":"8400561"},{"coordinate":{"lat":52.338889,"lng":4.872356},"countryCode":"NL","name":"Amsterdam Zuid","stationCode":"ASDZ","uicCode":"8400061"}],"direction":"ONE_WAY","operators":["NS"]},"description":"geen treinen","level":"LESS_TRAINS"},"sectionType":"NL"},{"section":{"stations":[{"coordinate":{"lat":52.3094444274902,"lng":4.76194429397583},"countryCode":"NL","name":"Schiphol Airport","stationCode":"SHL","uicCode":"8400561"},{"coordinate":{"lat":52.2933349609375,"lng":4.70055532455444},"countryCode":"NL","name":"Hoofddorp","stationCode":"HFD","uicCode":"8400332"},{"coordinate":{"lat":51.9249992370605,"lng":4.46888875961304},"countryCode":"NL","name":"Rotterdam Centraal","stationCode":"RTD","uicCode":"8400530"}],"direction":"BOTH","operators":["NS Int"]},"consequence":{"section":{"stations":[{"coordinate":{"lat":52.3094444274902,"lng":4.76194429397583},"countryCode":"NL","name":"Schiphol Airport","stationCode":"SHL","uicCode":"8400561"}],"direction":"BOTH","operators":["NS Int"]},"description":"veel minder treinen","level":"LESS_TRAINS"},"sectionType":"HSL"}],"summaryAdditionalTravelTime":{"label":"De extra reistijd kan oplopen tot 30 minuten.","shortLabel":"Extra reistijd tot 30 min.","maximumDurationInMinutes":30},"timespans":[{"start":"2025-11-15T00:00:00+0100","end":"2025-11-29T03:00:00+0100","period":"Zaterdag 15 november 0:00 uur t/m zaterdag 29 november 3:00 uur.","situation":{"label":"Door werkzaamheden: van, via en naar Schiphol Airport rijden er veel minder treinen."},"cause":{"label":"werkzaamheden","type":"OTHER"},"additionalTravelTime":{"label":"De extra reistijd kan oplopen tot 30 minuten.","shortLabel":"Extra reistijd tot 30 min.","maximumDurationInMinutes":30},"alternativeTransport":{"label":"er rijdt een bus","shortLabel":"er rijdt een bus"},"advices":["Hou rekening met extra drukte en een langere reistijd."]},{"start":"2025-11-29T03:00:00+0100","end":"2025-12-01T03:00:00+0100","period":"Zaterdag 29 november 3:00 uur t/m maandag 1 december 3:00 uur.","situation":{"label":"Door werkzaamheden: van Amsterdam Centraal naar Schiphol Airport rijden er geen treinen en van Schiphol Airport naar Amsterdam Zuid rijden er geen treinen."},"cause":{"label":"werkzaamheden","type":"OTHER"},"additionalTravelTime":{"label":"De extra reistijd ligt tussen 15 en 30 minuten.","shortLabel":"Extra reistijd: 15 - 30 min.","minimumDurationInMinutes":15,"maximumDurationInMinutes":30},"alternativeTransport":{"label":"maak gebruik van de Amsterdamse metro","shortLabel":"gebruik de Amsterdamse metro"},"advices":["Van Amsterdam Zuid naar Schiphol Airport en van Schiphol Airport naar Amsterdam Centraal rijden treinen in één richting.","Van Amsterdam C. naar Schiphol Airport reis via Duivendrecht en Amsterdam Zuid.","Van Schiphol Airport naar Amsterdam Zuid reis via Amsterdam C.","Tussen Almere C. en Leiden C. reis via Amsterdam C. en Haarlem."]},{"start":"2025-12-01T03:00:00+0100","end":"2025-12-08T03:00:00+0100","period":"Maandag 1 december 3:00 uur t/m maandag 8 december 3:00 uur.","situation":{"label":"Door werkzaamheden: van, via en naar Schiphol Airport rijden er veel minder treinen."},"cause":{"label":"werkzaamheden","type":"OTHER"},"additionalTravelTime":{"label":"De extra reistijd is ongeveer 30 minuten.","shortLabel":"Extra reistijd 30 min.","minimumDurationInMinutes":30,"maximumDurationInMinutes":30},"advices":["Hou rekening met extra drukte en een langere reistijd.\n"]}],"alternativeTransportTimespans":[{"start":"2025-11-15T01:00:00+0100","end":"2025-11-15T02:00:00+0100","alternativeTransport":{"location":[{"station":{"coordinate":{"lat":52.3094444274902,"lng":4.76194429397583},"countryCode":"NL","name":"Schiphol Airport","stationCode":"SHL","uicCode":"8400561"},"description":"vanaf de Halte F6, volg borden Touring coaches"},{"station":{"coordinate":{"lat":52.338889,"lng":4.872356},"countryCode":"NL","name":"Amsterdam Zuid","stationCode":"ASDZ","uicCode":"8400061"},"description":"vanaf de Strawinskylaan uitgang Zuidplein"},{"station":{"coordinate":{"lat":52.3372230529785,"lng":4.89027786254883},"countryCode":"NL","name":"Amsterdam RAI","stationCode":"RAI","uicCode":"8400056"},"description":"vanaf de voorzijde van het station"},{"station":{"coordinate":{"lat":52.3233337402344,"lng":4.93638896942139},"countryCode":"NL","name":"Duivendrecht","stationCode":"DVD","uicCode":"8400194"},"description":"vanaf het busstation"}],"label":"Er rijdt een bus van Schiphol Airport, Amsterdam Zuid, Amsterdam RAI naar Duivendrecht.","shortLabel":"Er rijdt een bus Schiphol Airport -> Amsterdam Zuid -> RAI -> Duivendrecht."}},{"start":"2025-11-16T01:00:00+0100","end":"2025-11-16T02:00:00+0100","alternativeTransport":{"location":[{"station":{"coordinate":{"lat":52.3094444274902,"lng":4.76194429397583},"countryCode":"NL","name":"Schiphol Airport","stationCode":"SHL","uicCode":"8400561"},"description":"vanaf de Halte F6, volg borden Touring coaches"},{"station":{"coordinate":{"lat":52.338889,"lng":4.872356},"countryCode":"NL","name":"Amsterdam Zuid","stationCode":"ASDZ","uicCode":"8400061"},"description":"vanaf de Strawinskylaan uitgang Zuidplein"},{"station":{"coordinate":{"lat":52.3372230529785,"lng":4.89027786254883},"countryCode":"NL","name":"Amsterdam RAI","stationCode":"RAI","uicCode":"8400056"},"description":"vanaf de voorzijde van het station"},{"station":{"coordinate":{"lat":52.3233337402344,"lng":4.93638896942139},"countryCode":"NL","name":"Duivendrecht","stationCode":"DVD","uicCode":"8400194"},"description":"vanaf het busstation"}],"label":"Er rijdt een bus van Schiphol Airport, Amsterdam Zuid, Amsterdam RAI naar Duivendrecht.","shortLabel":"Er rijdt een bus Schiphol Airport -> Amsterdam Zuid -> RAI -> Duivendrecht."}},{"start":"2025-11-29T03:00:00+0100","end":"2025-12-01T03:00:00+0100","alternativeTransport":{"location":[{"station":{"coordinate":{"lat":52.3788871765137,"lng":4.90027761459351},"countryCode":"NL","name":"Amsterdam Centraal","stationCode":"ASD","uicCode":"8400058"},"description":"volg de aanwijzingen op het station"},{"station":{"coordinate":{"lat":52.338889,"lng":4.872356},"countryCode":"NL","name":"Amsterdam Zuid","stationCode":"ASDZ","uicCode":"8400061"},"description":"volg de aanwijzingen op het station"}],"label":"Maak gebruik van de Amsterdamse metro tussen Amsterdam Centraal en Amsterdam Zuid.","shortLabel":"Gebruik de Amsterdamse metro Amsterdam C. - Amsterdam Zuid."}}]},{"type":"MAINTENANCE","id":"7007036","title":"Haarlem - Alkmaar.","isActive":false,"local":false,"titleSections":[[{"type":"STATION","value":"Haarlem"},{"type":"STATION","value":"Santpoort Noord"},{"type":"ICON","value":"MAINTENANCE"},{"type":"STATION","value":"Uitgeest"},{"type":"STATION","value":"Alkmaar"}]],"registrationTime":"2025-11-03T13:52:42+0100","start":"2025-11-15T00:45:00+0100","releaseTime":"2025-11-03T13:52:42+0100","end":"2025-11-22T01:50:00+0100","period":"Zaterdag 15 november 0:45 uur t/m zaterdag 22 november 1:50 uur.","impact":{"value":5},"publicationSections":[{"section":{"stations":[{"coordinate":{"lat":52.3877792358398,"lng":4.63833332061768},"countryCode":"NL","name":"Haarlem","stationCode":"HLM","uicCode":"8400285"},{"coordinate":{"lat":52.404167175293,"lng":4.62750005722046},"countryCode":"NL","name":"Bloemendaal","stationCode":"BLL","uicCode":"8400118"},{"coordinate":{"lat":52.4197235107422,"lng":4.63138866424561},"countryCode":"NL","name":"Santpoort Zuid","stationCode":"SPTZ","uicCode":"8400544"},{"coordinate":{"lat":52.4338874816895,"lng":4.63250017166138},"countryCode":"NL","name":"Santpoort Noord","stationCode":"SPTN","uicCode":"8400543"},{"coordinate":{"lat":52.4425010681152,"lng":4.63805532455444},"countryCode":"NL","name":"Driehuis","stationCode":"DRH","uicCode":"8400183"},{"coordinate":{"lat":52.4783325195313,"lng":4.65666675567627},"countryCode":"NL","name":"Beverwijk","stationCode":"BV","uicCode":"8400113"},{"coordinate":{"lat":52.4952774047852,"lng":4.68694448471069},"countryCode":"NL","name":"Heemskerk","stationCode":"HK","uicCode":"8400317"},{"coordinate":{"lat":52.5216674804687,"lng":4.70166683197022},"countryCode":"NL","name":"Uitgeest","stationCode":"UTG","uicCode":"8400615"},{"coordinate":{"lat":52.5458335876465,"lng":4.65861129760742},"countryCode":"NL","name":"Castricum","stationCode":"CAS","uicCode":"8400151"},{"coordinate":{"lat":52.5994453430176,"lng":4.70055532455444},"countryCode":"NL","name":"Heiloo","stationCode":"HLO","uicCode":"8400309"},{"coordinate":{"lat":52.6377792358398,"lng":4.73972225189209},"countryCode":"NL","name":"Alkmaar","stationCode":"AMR","uicCode":"8400050"}],"direction":"BOTH","operators":["NS"]},"consequence":{"section":{"stations":[{"coordinate":{"lat":52.4338874816895,"lng":4.63250017166138},"countryCode":"NL","name":"Santpoort Noord","stationCode":"SPTN","uicCode":"8400543"},{"coordinate":{"lat":52.4425010681152,"lng":4.63805532455444},"countryCode":"NL","name":"Driehuis","stationCode":"DRH","uicCode":"8400183"},{"coordinate":{"lat":52.4783325195313,"lng":4.65666675567627},"countryCode":"NL","name":"Beverwijk","stationCode":"BV","uicCode":"8400113"},{"coordinate":{"lat":52.4952774047852,"lng":4.68694448471069},"countryCode":"NL","name":"Heemskerk","stationCode":"HK","uicCode":"8400317"},{"coordinate":{"lat":52.5216674804687,"lng":4.70166683197022},"countryCode":"NL","name":"Uitgeest","stationCode":"UTG","uicCode":"8400615"}],"direction":"BOTH","operators":["NS"]},"description":"er rijden bussen","level":"LESS_TRAINS"},"sectionType":"NL"}],"summaryAdditionalTravelTime":{"label":"De extra reistijd is ongeveer 15 minuten.","shortLabel":"Extra reistijd 15 min.","minimumDurationInMinutes":15,"maximumDurationInMinutes":15},"timespans":[{"start":"2025-11-15T00:45:00+0100","end":"2025-11-22T01:50:00+0100","period":"Zaterdag 15 november 0:45 uur t/m zaterdag 22 november 1:50 uur.","situation":{"label":"Door werkzaamheden: tussen Santpoort Noord en Uitgeest rijden er bussen."},"cause":{"label":"werkzaamheden","type":"OTHER"},"additionalTravelTime":{"label":"De extra reistijd is ongeveer 15 minuten.","shortLabel":"Extra reistijd 15 min.","minimumDurationInMinutes":15,"maximumDurationInMinutes":15},"alternativeTransport":{"label":"er rijden stop- en snelbussen","shortLabel":"er rijden stop- en snelbussen"},"advices":["Tussen Haarlem en Alkmaar reis via Sloterdijk."]}],"alternativeTransportTimespans":[{"start":"2025-11-15T00:45:00+0100","end":"2025-11-15T02:45:00+0100","alternativeTransport":{"location":[{"station":{"coordinate":{"lat":52.5216674804687,"lng":4.70166683197022},"countryCode":"NL","name":"Uitgeest","stationCode":"UTG","uicCode":"8400615"},"description":"vanaf de achterzijde van het station"},{"station":{"coordinate":{"lat":52.4952774047852,"lng":4.68694448471069},"countryCode":"NL","name":"Heemskerk","stationCode":"HK","uicCode":"8400317"},"description":"vanaf de voorzijde van het station"},{"station":{"coordinate":{"lat":52.4783325195313,"lng":4.65666675567627},"countryCode":"NL","name":"Beverwijk","stationCode":"BV","uicCode":"8400113"},"description":"vanaf het busstation"},{"station":{"coordinate":{"lat":52.4425010681152,"lng":4.63805532455444},"countryCode":"NL","name":"Driehuis","stationCode":"DRH","uicCode":"8400183"},"description":"vanaf de van den Vondellaan"},{"station":{"coordinate":{"lat":52.4338874816895,"lng":4.63250017166138},"countryCode":"NL","name":"Santpoort Noord","stationCode":"SPTN","uicCode":"8400543"},"description":"vanaf de voorzijde van het station"},{"station":{"coordinate":{"lat":52.4197235107422,"lng":4.63138866424561},"countryCode":"NL","name":"Santpoort Zuid","stationCode":"SPTZ","uicCode":"8400544"},"description":"vanaf de voorzijde van het station"},{"station":{"coordinate":{"lat":52.404167175293,"lng":4.62750005722046},"countryCode":"NL","name":"Bloemendaal","stationCode":"BLL","uicCode":"8400118"},"description":"vanaf de voorzijde van het station"},{"station":{"coordinate":{"lat":52.3877792358398,"lng":4.63833332061768},"countryCode":"NL","name":"Haarlem","stationCode":"HLM","uicCode":"8400285"},"description":"vanaf de Jansweg"}],"label":"Er rijden stopbussen van Uitgeest, Heemskerk, Beverwijk, Driehuis, Santpoort Noord, Santpoort Zuid, Bloemendaal naar Haarlem.","shortLabel":"Er rijden stopbussen Uitgeest -> Heemskerk -> Beverwijk -> Driehuis -> Santpoort Noord -> Santpoort Zuid -> Bloemendaal -> Haarlem."}},{"start":"2025-11-15T00:45:00+0100","end":"2025-11-15T02:45:00+0100","alternativeTransport":{"location":[{"station":{"coordinate":{"lat":52.4338874816895,"lng":4.63250017166138},"countryCode":"NL","name":"Santpoort Noord","stationCode":"SPTN","uicCode":"8400543"},"description":"vanaf de voorzijde van het station"},{"station":{"coordinate":{"lat":52.4425010681152,"lng":4.63805532455444},"countryCode":"NL","name":"Driehuis","stationCode":"DRH","uicCode":"8400183"},"description":"vanaf de van den Vondellaan"},{"station":{"coordinate":{"lat":52.4783325195313,"lng":4.65666675567627},"countryCode":"NL","name":"Beverwijk","stationCode":"BV","uicCode":"8400113"},"description":"vanaf het busstation"},{"station":{"coordinate":{"lat":52.4952774047852,"lng":4.68694448471069},"countryCode":"NL","name":"Heemskerk","stationCode":"HK","uicCode":"8400317"},"description":"vanaf de voorzijde van het station"},{"station":{"coordinate":{"lat":52.5216674804687,"lng":4.70166683197022},"countryCode":"NL","name":"Uitgeest","stationCode":"UTG","uicCode":"8400615"},"description":"vanaf de achterzijde van het station"},{"station":{"coordinate":{"lat":52.5458335876465,"lng":4.65861129760742},"countryCode":"NL","name":"Castricum","stationCode":"CAS","uicCode":"8400151"},"description":"vanaf de voorzijde van het station"},{"station":{"coordinate":{"lat":52.5994453430176,"lng":4.70055532455444},"countryCode":"NL","name":"Heiloo","stationCode":"HLO","uicCode":"8400309"},"description":"vanaf de voorzijde van het station"},{"station":{"coordinate":{"lat":52.6377792358398,"lng":4.73972225189209},"countryCode":"NL","name":"Alkmaar","stationCode":"AMR","uicCode":"8400050"},"description":"vanaf de achterzijde van het station"},{"station":{"coordinate":{"lat":52.6438903808594,"lng":4.76416683197022},"countryCode":"NL","name":"Alkmaar Noord","stationCode":"AMRN","uicCode":"8400052"},"description":"vanaf het busstation"},{"station":{"coordinate":{"lat":52.6697235107422,"lng":4.82277774810791},"countryCode":"NL","name":"Heerhugowaard","stationCode":"HWD","uicCode":"8400306"},"description":"vanaf het busstation"}],"label":"Er rijden stopbussen van Santpoort Noord, Driehuis, Beverwijk, Heemskerk, Uitgeest, Castricum, Heiloo, Alkmaar, Alkmaar Noord naar Heerhugowaard.","shortLabel":"Er rijden stopbussen Santpoort Noord -> Driehuis -> Beverwijk -> Heemskerk -> Uitgeest -> Castricum -> Heiloo -> Alkmaar -> Alkmaar Noord -> Heerhugowaard."}},{"start":"2025-11-15T06:20:00+0100","end":"2025-11-17T01:50:00+0100","alternativeTransport":{"location":[{"station":{"coordinate":{"lat":52.4338874816895,"lng":4.63250017166138},"countryCode":"NL","name":"Santpoort Noord","stationCode":"SPTN","uicCode":"8400543"},"description":"vanaf de voorzijde van het station"},{"station":{"coordinate":{"lat":52.4425010681152,"lng":4.63805532455444},"countryCode":"NL","name":"Driehuis","stationCode":"DRH","uicCode":"8400183"},"description":"vanaf de van den Vondellaan"},{"station":{"coordinate":{"lat":52.4783325195313,"lng":4.65666675567627},"countryCode":"NL","name":"Beverwijk","stationCode":"BV","uicCode":"8400113"},"description":"vanaf het busstation"},{"station":{"coordinate":{"lat":52.4952774047852,"lng":4.68694448471069},"countryCode":"NL","name":"Heemskerk","stationCode":"HK","uicCode":"8400317"},"description":"vanaf de voorzijde van het station"},{"station":{"coordinate":{"lat":52.5216674804687,"lng":4.70166683197022},"countryCode":"NL","name":"Uitgeest","stationCode":"UTG","uicCode":"8400615"},"description":"vanaf de achterzijde van het station"}],"label":"Er rijden stopbussen tussen Santpoort Noord, Driehuis, Beverwijk, Heemskerk en Uitgeest.","shortLabel":"Er rijden stopbussen Santpoort Noord - Driehuis - Beverwijk - Heemskerk - Uitgeest."}},{"start":"2025-11-17T05:20:00+0100","end":"2025-11-21T01:50:00+0100","alternativeTransport":{"location":[{"station":{"coordinate":{"lat":52.4338874816895,"lng":4.63250017166138},"countryCode":"NL","name":"Santpoort Noord","stationCode":"SPTN","uicCode":"8400543"},"description":"vanaf de voorzijde van het station"},{"station":{"coordinate":{"lat":52.4425010681152,"lng":4.63805532455444},"countryCode":"NL","name":"Driehuis","stationCode":"DRH","uicCode":"8400183"},"description":"vanaf de van den Vondellaan"},{"station":{"coordinate":{"lat":52.4783325195313,"lng":4.65666675567627},"countryCode":"NL","name":"Beverwijk","stationCode":"BV","uicCode":"8400113"},"description":"vanaf het busstation"},{"station":{"coordinate":{"lat":52.4952774047852,"lng":4.68694448471069},"countryCode":"NL","name":"Heemskerk","stationCode":"HK","uicCode":"8400317"},"description":"vanaf de voorzijde van het station"},{"station":{"coordinate":{"lat":52.5216674804687,"lng":4.70166683197022},"countryCode":"NL","name":"Uitgeest","stationCode":"UTG","uicCode":"8400615"},"description":"vanaf de achterzijde van het station"}],"label":"Er rijden stopbussen tussen Santpoort Noord, Driehuis, Beverwijk, Heemskerk en Uitgeest.","shortLabel":"Er rijden stopbussen Santpoort Noord - Driehuis - Beverwijk - Heemskerk - Uitgeest."}},{"start":"2025-11-17T05:20:00+0100","end":"2025-11-21T01:50:00+0100","alternativeTransport":{"location":[{"station":{"coordinate":{"lat":52.3877792358398,"lng":4.63833332061768},"countryCode":"NL","name":"Haarlem","stationCode":"HLM","uicCode":"8400285"},"description":"vanaf de Jansweg"},{"station":{"coordinate":{"lat":52.4783325195313,"lng":4.65666675567627},"countryCode":"NL","name":"Beverwijk","stationCode":"BV","uicCode":"8400113"},"description":"vanaf het busstation"}],"label":"Er rijden snelbussen tussen Haarlem en Beverwijk.","shortLabel":"Er rijden snelbussen Haarlem - Beverwijk."}},{"start":"2025-11-21T05:20:00+0100","end":"2025-11-22T01:50:00+0100","alternativeTransport":{"location":[{"station":{"coordinate":{"lat":52.4338874816895,"lng":4.63250017166138},"countryCode":"NL","name":"Santpoort Noord","stationCode":"SPTN","uicCode":"8400543"},"description":"vanaf de voorzijde van het station"},{"station":{"coordinate":{"lat":52.4425010681152,"lng":4.63805532455444},"countryCode":"NL","name":"Driehuis","stationCode":"DRH","uicCode":"8400183"},"description":"vanaf de van den Vondellaan"},{"station":{"coordinate":{"lat":52.4783325195313,"lng":4.65666675567627},"countryCode":"NL","name":"Beverwijk","stationCode":"BV","uicCode":"8400113"},"description":"vanaf het busstation"},{"station":{"coordinate":{"lat":52.4952774047852,"lng":4.68694448471069},"countryCode":"NL","name":"Heemskerk","stationCode":"HK","uicCode":"8400317"},"description":"vanaf de voorzijde van het station"},{"station":{"coordinate":{"lat":52.5216674804687,"lng":4.70166683197022},"countryCode":"NL","name":"Uitgeest","stationCode":"UTG","uicCode":"8400615"},"description":"vanaf de achterzijde van het station"}],"label":"Er rijden stopbussen tussen Santpoort Noord, Driehuis, Beverwijk, Heemskerk en Uitgeest.","shortLabel":"Er rijden stopbussen Santpoort Noord - Driehuis - Beverwijk - Heemskerk - Uitgeest."}},{"start":"2025-11-21T05:20:00+0100","end":"2025-11-22T01:50:00+0100","alternativeTransport":{"location":[{"station":{"coordinate":{"lat":52.3877792358398,"lng":4.63833332061768},"countryCode":"NL","name":"Haarlem","stationCode":"HLM","uicCode":"8400285"},"description":"vanaf de Jansweg"},{"station":{"coordinate":{"lat":52.4783325195313,"lng":4.65666675567627},"countryCode":"NL","name":"Beverwijk","stationCode":"BV","uicCode":"8400113"},"description":"vanaf het busstation"}],"label":"Er rijden snelbussen tussen Haarlem en Beverwijk.","shortLabel":"Er rijden snelbussen Haarlem - Beverwijk."}}]},{"type":"MAINTENANCE","id":"7007121","title":"Amsterdam - Alkmaar; Alkmaar - Den Helder.","isActive":false,"local":false,"titleSections":[[{"type":"STATION","value":"Amsterdam C."},{"type":"ICON","value":"MAINTENANCE"},{"type":"STATION","value":"Zaandam"},{"type":"STATION","value":"Alkmaar"}],[{"type":"STATION","value":"Alkmaar"},{"type":"ICON","value":"MAINTENANCE"},{"type":"STATION","value":"Heerhugowaard"},{"type":"STATION","value":"Den Helder"}]],"registrationTime":"2025-11-03T13:40:19+0100","start":"2025-11-15T01:00:00+0100","releaseTime":"2025-11-03T13:40:19+0100","end":"2025-11-15T03:20:00+0100","period":"Zaterdag 15 november 1:00 uur t/m zaterdag 15 november 3:20 uur.","impact":{"value":3},"publicationSections":[{"section":{"stations":[{"coordinate":{"lat":52.3788871765137,"lng":4.90027761459351},"countryCode":"NL","name":"Amsterdam Centraal","stationCode":"ASD","uicCode":"8400058"},{"coordinate":{"lat":52.3888893127441,"lng":4.83777761459351},"countryCode":"NL","name":"Amsterdam Sloterdijk","stationCode":"ASS","uicCode":"8400059"},{"coordinate":{"lat":52.4388885498047,"lng":4.81361103057861},"countryCode":"NL","name":"Zaandam","stationCode":"ZD","uicCode":"8400731"},{"coordinate":{"lat":52.458610534668,"lng":4.80555534362793},"countryCode":"NL","name":"Koog aan de Zaan","stationCode":"KZ","uicCode":"8400363"},{"coordinate":{"lat":52.469165802002,"lng":4.80499982833862},"countryCode":"NL","name":"Zaandijk Zaanse Schans","stationCode":"ZZS","uicCode":"8400364"},{"coordinate":{"lat":52.4891662597656,"lng":4.79222202301025},"countryCode":"NL","name":"Wormerveer","stationCode":"WM","uicCode":"8400707"},{"coordinate":{"lat":52.49511,"lng":4.75417},"countryCode":"NL","name":"Krommenie-Assendelft","stationCode":"KMA","uicCode":"8400368"},{"coordinate":{"lat":52.5216674804687,"lng":4.70166683197022},"countryCode":"NL","name":"Uitgeest","stationCode":"UTG","uicCode":"8400615"},{"coordinate":{"lat":52.5458335876465,"lng":4.65861129760742},"countryCode":"NL","name":"Castricum","stationCode":"CAS","uicCode":"8400151"},{"coordinate":{"lat":52.5994453430176,"lng":4.70055532455444},"countryCode":"NL","name":"Heiloo","stationCode":"HLO","uicCode":"8400309"},{"coordinate":{"lat":52.6377792358398,"lng":4.73972225189209},"countryCode":"NL","name":"Alkmaar","stationCode":"AMR","uicCode":"8400050"}],"direction":"BOTH","operators":["NS"]},"consequence":{"section":{"stations":[{"coordinate":{"lat":52.3788871765137,"lng":4.90027761459351},"countryCode":"NL","name":"Amsterdam Centraal","stationCode":"ASD","uicCode":"8400058"},{"coordinate":{"lat":52.3888893127441,"lng":4.83777761459351},"countryCode":"NL","name":"Amsterdam Sloterdijk","stationCode":"ASS","uicCode":"8400059"},{"coordinate":{"lat":52.4388885498047,"lng":4.81361103057861},"countryCode":"NL","name":"Zaandam","stationCode":"ZD","uicCode":"8400731"}],"direction":"BOTH","operators":["NS"]},"description":"er rijden bussen","level":"LESS_TRAINS"},"sectionType":"NL"},{"section":{"stations":[{"coordinate":{"lat":52.6377792358398,"lng":4.73972225189209},"countryCode":"NL","name":"Alkmaar","stationCode":"AMR","uicCode":"8400050"},{"coordinate":{"lat":52.6438903808594,"lng":4.76416683197022},"countryCode":"NL","name":"Alkmaar Noord","stationCode":"AMRN","uicCode":"8400052"},{"coordinate":{"lat":52.6697235107422,"lng":4.82277774810791},"countryCode":"NL","name":"Heerhugowaard","stationCode":"HWD","uicCode":"8400306"},{"coordinate":{"lat":52.7844429016113,"lng":4.80527782440186},"countryCode":"NL","name":"Schagen","stationCode":"SGN","uicCode":"8400549"},{"coordinate":{"lat":52.8672218322754,"lng":4.81111097335815},"countryCode":"NL","name":"Anna Paulowna","stationCode":"ANA","uicCode":"8400065"},{"coordinate":{"lat":52.9324989318848,"lng":4.76416683197022},"countryCode":"NL","name":"Den Helder Zuid","stationCode":"HDRZ","uicCode":"8400303"},{"coordinate":{"lat":52.9552764892578,"lng":4.76111125946045},"countryCode":"NL","name":"Den Helder","stationCode":"HDR","uicCode":"8400311"}],"direction":"BOTH","operators":["NS"]},"consequence":{"section":{"stations":[{"coordinate":{"lat":52.6377792358398,"lng":4.73972225189209},"countryCode":"NL","name":"Alkmaar","stationCode":"AMR","uicCode":"8400050"},{"coordinate":{"lat":52.6438903808594,"lng":4.76416683197022},"countryCode":"NL","name":"Alkmaar Noord","stationCode":"AMRN","uicCode":"8400052"},{"coordinate":{"lat":52.6697235107422,"lng":4.82277774810791},"countryCode":"NL","name":"Heerhugowaard","stationCode":"HWD","uicCode":"8400306"}],"direction":"BOTH","operators":["NS"]},"description":"er rijden bussen","level":"LESS_TRAINS"},"sectionType":"NL"}],"summaryAdditionalTravelTime":{"label":"De extra reistijd kan oplopen tot 30 minuten.","shortLabel":"Extra reistijd tot 30 min.","maximumDurationInMinutes":30},"timespans":[{"start":"2025-11-15T01:00:00+0100","end":"2025-11-15T03:20:00+0100","period":"Zaterdag 15 november 1:00 uur t/m zaterdag 15 november 3:20 uur.","situation":{"label":"Door werkzaamheden: tussen Amsterdam Centraal en Zaandam rijden er bussen en tussen Alkmaar en Heerhugowaard rijden er bussen."},"cause":{"label":"werkzaamheden","type":"OTHER"},"additionalTravelTime":{"label":"De extra reistijd kan oplopen tot 30 minuten.","shortLabel":"Extra reistijd tot 30 min.","maximumDurationInMinutes":30},"alternativeTransport":{"label":"er rijden stop- en snelbussen","shortLabel":"er rijden stop- en snelbussen"},"advices":[]}],"alternativeTransportTimespans":[{"start":"2025-11-15T01:00:00+0100","end":"2025-11-15T03:20:00+0100","alternativeTransport":{"location":[{"station":{"coordinate":{"lat":52.3788871765137,"lng":4.90027761459351},"countryCode":"NL","name":"Amsterdam Centraal","stationCode":"ASD","uicCode":"8400058"},"description":"vanaf het busstation"},{"station":{"coordinate":{"lat":52.6377792358398,"lng":4.73972225189209},"countryCode":"NL","name":"Alkmaar","stationCode":"AMR","uicCode":"8400050"},"description":"vanaf de achterzijde van het station"}],"label":"Er rijden snelbussen tussen Amsterdam Centraal en Alkmaar.","shortLabel":"Er rijden snelbussen Amsterdam C. - Alkmaar."}},{"start":"2025-11-15T01:00:00+0100","end":"2025-11-15T03:20:00+0100","alternativeTransport":{"location":[{"station":{"coordinate":{"lat":52.6697235107422,"lng":4.82277774810791},"countryCode":"NL","name":"Heerhugowaard","stationCode":"HWD","uicCode":"8400306"},"description":"vanaf het busstation"},{"station":{"coordinate":{"lat":52.6438903808594,"lng":4.76416683197022},"countryCode":"NL","name":"Alkmaar Noord","stationCode":"AMRN","uicCode":"8400052"},"description":"vanaf het busstation"},{"station":{"coordinate":{"lat":52.6377792358398,"lng":4.73972225189209},"countryCode":"NL","name":"Alkmaar","stationCode":"AMR","uicCode":"8400050"},"description":"vanaf de achterzijde van het station"}],"label":"Er rijden stopbussen van Heerhugowaard, Alkmaar Noord naar Alkmaar.","shortLabel":"Er rijden stopbussen Heerhugowaard -> Alkmaar Noord -> Alkmaar."}},{"start":"2025-11-15T01:00:00+0100","end":"2025-11-15T03:20:00+0100","alternativeTransport":{"location":[{"station":{"coordinate":{"lat":52.4388885498047,"lng":4.81361103057861},"countryCode":"NL","name":"Zaandam","stationCode":"ZD","uicCode":"8400731"},"description":"vanaf het busstation"},{"station":{"coordinate":{"lat":52.458610534668,"lng":4.80555534362793},"countryCode":"NL","name":"Koog aan de Zaan","stationCode":"KZ","uicCode":"8400363"},"description":"vanaf de provinciale weg"},{"station":{"coordinate":{"lat":52.469165802002,"lng":4.80499982833862},"countryCode":"NL","name":"Zaandijk Zaanse Schans","stationCode":"ZZS","uicCode":"8400364"},"description":"vanaf de provinciale weg"},{"station":{"coordinate":{"lat":52.4891662597656,"lng":4.79222202301025},"countryCode":"NL","name":"Wormerveer","stationCode":"WM","uicCode":"8400707"},"description":"vanaf de provinciale weg"},{"station":{"coordinate":{"lat":52.49511,"lng":4.75417},"countryCode":"NL","name":"Krommenie-Assendelft","stationCode":"KMA","uicCode":"8400368"},"description":"vanaf de provinciale weg"},{"station":{"coordinate":{"lat":52.5216674804687,"lng":4.70166683197022},"countryCode":"NL","name":"Uitgeest","stationCode":"UTG","uicCode":"8400615"},"description":"vanaf de achterzijde van het station"},{"station":{"coordinate":{"lat":52.5458335876465,"lng":4.65861129760742},"countryCode":"NL","name":"Castricum","stationCode":"CAS","uicCode":"8400151"},"description":"vanaf de voorzijde van het station"},{"station":{"coordinate":{"lat":52.5994453430176,"lng":4.70055532455444},"countryCode":"NL","name":"Heiloo","stationCode":"HLO","uicCode":"8400309"},"description":"vanaf de voorzijde van het station"},{"station":{"coordinate":{"lat":52.5216674804687,"lng":4.70166683197022},"countryCode":"NL","name":"Uitgeest","stationCode":"UTG","uicCode":"8400615"},"description":"vanaf de achterzijde van het station"}],"label":"Er rijden stopbussen van Zaandam, Koog aan de Zaan, Zaandijk Zaanse Schans, Wormerveer, Krommenie-Assendelft, Uitgeest, Castricum, Heiloo naar Uitgeest.","shortLabel":"Er rijden stopbussen Zaandam -> Koog a.d. Zaan -> Zaanse Schans -> Wormerveer -> Krommenie-Ass. -> Uitgeest -> Castricum -> Heiloo -> Uitgeest."}}]},{"type":"MAINTENANCE","id":"7007040","title":"Utrecht - 's-Hertogenbosch.","isActive":false,"local":false,"titleSections":[[{"type":"STATION","value":"Utrecht C."},{"type":"STATION","value":"Houten"},{"type":"ICON","value":"MAINTENANCE"},{"type":"STATION","value":"'s-Hertogenbosch"}]],"registrationTime":"2025-11-01T17:45:53+0100","start":"2025-11-15T01:30:00+0100","releaseTime":"2025-11-01T17:45:53+0100","end":"2025-11-17T05:25:00+0100","period":"Zaterdag 15 november 1:30 uur t/m maandag 17 november 5:25 uur.","impact":{"value":3},"publicationSections":[{"section":{"stations":[{"coordinate":{"lat":52.0888900756836,"lng":5.11027765274048},"countryCode":"NL","name":"Utrecht Centraal","stationCode":"UT","uicCode":"8400621"},{"coordinate":{"lat":52.078889,"lng":5.121667},"countryCode":"NL","name":"Utrecht Vaartsche Rijn","stationCode":"UTVR","uicCode":"8400606"},{"coordinate":{"lat":52.0655555725098,"lng":5.14416646957397},"countryCode":"NL","name":"Utrecht Lunetten","stationCode":"UTLN","uicCode":"8400623"},{"coordinate":{"lat":52.03402,"lng":5.16821},"countryCode":"NL","name":"Houten","stationCode":"HTN","uicCode":"8400340"},{"coordinate":{"lat":52.01701,"lng":5.17949},"countryCode":"NL","name":"Houten Castellum","stationCode":"HTNC","uicCode":"8400335"},{"coordinate":{"lat":51.9466667175293,"lng":5.22694444656372},"countryCode":"NL","name":"Culemborg","stationCode":"CL","uicCode":"8400154"},{"coordinate":{"lat":51.88301,"lng":5.27127},"countryCode":"NL","name":"Geldermalsen","stationCode":"GDM","uicCode":"8400244"},{"coordinate":{"lat":51.8088874816895,"lng":5.26333332061768},"countryCode":"NL","name":"Zaltbommel","stationCode":"ZBM","uicCode":"8400732"},{"coordinate":{"lat":51.69048,"lng":5.29362},"countryCode":"NL","name":"'s-Hertogenbosch","stationCode":"HT","uicCode":"8400319"}],"direction":"BOTH","operators":["NS"]},"consequence":{"section":{"stations":[{"coordinate":{"lat":52.03402,"lng":5.16821},"countryCode":"NL","name":"Houten","stationCode":"HTN","uicCode":"8400340"},{"coordinate":{"lat":52.01701,"lng":5.17949},"countryCode":"NL","name":"Houten Castellum","stationCode":"HTNC","uicCode":"8400335"},{"coordinate":{"lat":51.9466667175293,"lng":5.22694444656372},"countryCode":"NL","name":"Culemborg","stationCode":"CL","uicCode":"8400154"},{"coordinate":{"lat":51.88301,"lng":5.27127},"countryCode":"NL","name":"Geldermalsen","stationCode":"GDM","uicCode":"8400244"},{"coordinate":{"lat":51.8088874816895,"lng":5.26333332061768},"countryCode":"NL","name":"Zaltbommel","stationCode":"ZBM","uicCode":"8400732"},{"coordinate":{"lat":51.69048,"lng":5.29362},"countryCode":"NL","name":"'s-Hertogenbosch","stationCode":"HT","uicCode":"8400319"}],"direction":"BOTH","operators":["NS"]},"description":"er rijden bussen","level":"LESS_TRAINS"},"sectionType":"NL"}],"summaryAdditionalTravelTime":{"label":"De extra reistijd kan oplopen tot 30 minuten.","shortLabel":"Extra reistijd tot 30 min.","maximumDurationInMinutes":30},"timespans":[{"start":"2025-11-15T01:30:00+0100","end":"2025-11-17T05:25:00+0100","period":"Zaterdag 15 november 1:30 uur t/m maandag 17 november 5:25 uur.","situation":{"label":"Door werkzaamheden: tussen Houten en 's-Hertogenbosch rijden er bussen."},"cause":{"label":"werkzaamheden","type":"OTHER"},"additionalTravelTime":{"label":"De extra reistijd kan oplopen tot 30 minuten.","shortLabel":"Extra reistijd tot 30 min.","maximumDurationInMinutes":30},"alternativeTransport":{"label":"er rijden stop- en snelbussen","shortLabel":"er rijden stop- en snelbussen"},"advices":["Reis tussen Utrecht C en 's-Hertogenbosch met de NS-Snelbus. Sprinters rijden tot Houten Castellum. NS-stopbus rijdt vanaf Houten naar Geldermalsen."]}],"alternativeTransportTimespans":[{"start":"2025-11-15T01:30:00+0100","end":"2025-11-17T05:25:00+0100","alternativeTransport":{"location":[{"station":{"coordinate":{"lat":52.0888900756836,"lng":5.11027765274048},"countryCode":"NL","name":"Utrecht Centraal","stationCode":"UT","uicCode":"8400621"},"description":"vanaf de Jaarbeursplein, halte G"},{"station":{"coordinate":{"lat":51.69048,"lng":5.29362},"countryCode":"NL","name":"'s-Hertogenbosch","stationCode":"HT","uicCode":"8400319"},"description":"vanaf de Magistratenlaan aan de achterzijde van het station"}],"label":"Er rijden snelbussen tussen Utrecht Centraal en 's-Hertogenbosch.","shortLabel":"Er rijden snelbussen Utrecht C. - 's-Hertogenbosch."}},{"start":"2025-11-15T01:30:00+0100","end":"2025-11-16T02:25:00+0100","alternativeTransport":{"location":[{"station":{"coordinate":{"lat":52.03402,"lng":5.16821},"countryCode":"NL","name":"Houten","stationCode":"HTN","uicCode":"8400340"},"description":"vanaf het busstation"},{"station":{"coordinate":{"lat":51.9466667175293,"lng":5.22694444656372},"countryCode":"NL","name":"Culemborg","stationCode":"CL","uicCode":"8400154"},"description":"vanaf het busstation"},{"station":{"coordinate":{"lat":51.88301,"lng":5.27127},"countryCode":"NL","name":"Geldermalsen","stationCode":"GDM","uicCode":"8400244"},"description":"vanaf de bushalte"}],"label":"Er rijden stopbussen tussen Houten, Culemborg en Geldermalsen.","shortLabel":"Er rijden stopbussen Houten - Culemborg - Geldermalsen."}},{"start":"2025-11-16T06:50:00+0100","end":"2025-11-17T00:50:00+0100","alternativeTransport":{"location":[{"station":{"coordinate":{"lat":51.69048,"lng":5.29362},"countryCode":"NL","name":"'s-Hertogenbosch","stationCode":"HT","uicCode":"8400319"},"description":"vanaf de Magistratenlaan aan de achterzijde van het station"},{"station":{"coordinate":{"lat":51.8088874816895,"lng":5.26333332061768},"countryCode":"NL","name":"Zaltbommel","stationCode":"ZBM","uicCode":"8400732"},"description":"vanaf de voorzijde van het station"},{"station":{"coordinate":{"lat":51.88301,"lng":5.27127},"countryCode":"NL","name":"Geldermalsen","stationCode":"GDM","uicCode":"8400244"},"description":"vanaf de bushalte"},{"station":{"coordinate":{"lat":51.9466667175293,"lng":5.22694444656372},"countryCode":"NL","name":"Culemborg","stationCode":"CL","uicCode":"8400154"},"description":"vanaf het busstation"},{"station":{"coordinate":{"lat":52.03402,"lng":5.16821},"countryCode":"NL","name":"Houten","stationCode":"HTN","uicCode":"8400340"},"description":"vanaf het busstation"}],"label":"Er rijden stopbussen tussen 's-Hertogenbosch, Zaltbommel, Geldermalsen, Culemborg en Houten.","shortLabel":"Er rijden stopbussen 's-Hertogenbosch - Zaltbommel - Geldermalsen - Culemborg - Houten."}},{"start":"2025-11-16T06:50:00+0100","end":"2025-11-17T00:50:00+0100","alternativeTransport":{"location":[{"station":{"coordinate":{"lat":51.8894462585449,"lng":5.42222213745117},"countryCode":"NL","name":"Tiel","stationCode":"TL","uicCode":"8400596"},"description":"vanaf het busstation, aan de treinvervangend vervoer halte"},{"station":{"coordinate":{"lat":51.8738899230957,"lng":5.39222240447998},"countryCode":"NL","name":"Tiel Passewaaij","stationCode":"TPSW","uicCode":"8400600"},"description":"vanaf de bushalte"},{"station":{"coordinate":{"lat":51.88301,"lng":5.27127},"countryCode":"NL","name":"Geldermalsen","stationCode":"GDM","uicCode":"8400244"},"description":"vanaf de bushalte"},{"station":{"coordinate":{"lat":51.9466667175293,"lng":5.22694444656372},"countryCode":"NL","name":"Culemborg","stationCode":"CL","uicCode":"8400154"},"description":"vanaf het busstation"},{"station":{"coordinate":{"lat":52.03402,"lng":5.16821},"countryCode":"NL","name":"Houten","stationCode":"HTN","uicCode":"8400340"},"description":"vanaf het busstation"}],"label":"Er rijden stopbussen tussen Tiel, Tiel Passewaaij, Geldermalsen, Culemborg en Houten.","shortLabel":"Er rijden stopbussen Tiel - Passewaaij - Geldermalsen - Culemborg - Houten."}}]},{"type":"MAINTENANCE","id":"7006873","title":"Den Haag - Rotterdam; Gouda - Den Haag.","isActive":false,"local":false,"titleSections":[[{"type":"STATION","value":"Den Haag C."},{"type":"ICON","value":"MAINTENANCE"},{"type":"STATION","value":"Den Haag HS"},{"type":"STATION","value":"Rotterdam C."}],[{"type":"STATION","value":"Gouda"},{"type":"STATION","value":"Ypenburg"},{"type":"ICON","value":"MAINTENANCE"},{"type":"STATION","value":"Den Haag C."}]],"registrationTime":"2025-10-06T11:51:46+0200","start":"2025-11-15T04:00:00+0100","releaseTime":"2025-10-06T11:51:46+0200","end":"2025-11-17T02:00:00+0100","period":"Zaterdag 15 november 4:00 uur t/m maandag 17 november 2:00 uur.","impact":{"value":4},"publicationSections":[{"section":{"stations":[{"coordinate":{"lat":52.0802764892578,"lng":4.32499980926514},"countryCode":"NL","name":"Den Haag Centraal","stationCode":"GVC","uicCode":"8400282"},{"coordinate":{"lat":52.0697212219238,"lng":4.32250022888184},"countryCode":"NL","name":"Den Haag HS","stationCode":"GV","uicCode":"8400280"},{"coordinate":{"lat":52.0538902282715,"lng":4.3086109161377},"countryCode":"NL","name":"Den Haag Moerwijk","stationCode":"GVMW","uicCode":"8400279"},{"coordinate":{"lat":52.039722442627,"lng":4.31916666030884},"countryCode":"NL","name":"Rijswijk","stationCode":"RSW","uicCode":"8400505"},{"coordinate":{"lat":52.0066680908203,"lng":4.35638904571533},"countryCode":"NL","name":"Delft","stationCode":"DT","uicCode":"8400170"},{"coordinate":{"lat":51.9908332824707,"lng":4.36472225189209},"countryCode":"NL","name":"Delft Campus","stationCode":"DTCP","uicCode":"8400166"},{"coordinate":{"lat":51.9212438128032,"lng":4.4089937210083},"countryCode":"NL","name":"Schiedam Centrum","stationCode":"SDM","uicCode":"8400553"},{"coordinate":{"lat":51.9249992370605,"lng":4.46888875961304},"countryCode":"NL","name":"Rotterdam Centraal","stationCode":"RTD","uicCode":"8400530"}],"direction":"BOTH","operators":["NS"]},"consequence":{"section":{"stations":[{"coordinate":{"lat":52.0802764892578,"lng":4.32499980926514},"countryCode":"NL","name":"Den Haag Centraal","stationCode":"GVC","uicCode":"8400282"},{"coordinate":{"lat":52.0697212219238,"lng":4.32250022888184},"countryCode":"NL","name":"Den Haag HS","stationCode":"GV","uicCode":"8400280"}],"direction":"BOTH","operators":["NS"]},"description":"geen treinen","level":"LESS_TRAINS"},"sectionType":"NL"},{"section":{"stations":[{"coordinate":{"lat":52.0175018310547,"lng":4.70444440841675},"countryCode":"NL","name":"Gouda","stationCode":"GD","uicCode":"8400258"},{"coordinate":{"lat":52.042222,"lng":4.517222},"countryCode":"NL","name":"Lansingerland-Zoetermeer","stationCode":"LLZM","uicCode":"8400135"},{"coordinate":{"lat":52.0463905334473,"lng":4.49277782440186},"countryCode":"NL","name":"Zoetermeer Oost","stationCode":"ZTMO","uicCode":"8400740"},{"coordinate":{"lat":52.0475006103516,"lng":4.47722244262695},"countryCode":"NL","name":"Zoetermeer","stationCode":"ZTM","uicCode":"8400741"},{"coordinate":{"lat":52.0552787780762,"lng":4.39222240447998},"countryCode":"NL","name":"Den Haag Ypenburg","stationCode":"YPB","uicCode":"8400379"},{"coordinate":{"lat":52.0666656494141,"lng":4.3594446182251},"countryCode":"NL","name":"Voorburg","stationCode":"VB","uicCode":"8400658"},{"coordinate":{"lat":52.0802764892578,"lng":4.32499980926514},"countryCode":"NL","name":"Den Haag Centraal","stationCode":"GVC","uicCode":"8400282"}],"direction":"BOTH","operators":["NS"]},"consequence":{"section":{"stations":[{"coordinate":{"lat":52.0552787780762,"lng":4.39222240447998},"countryCode":"NL","name":"Den Haag Ypenburg","stationCode":"YPB","uicCode":"8400379"},{"coordinate":{"lat":52.0666656494141,"lng":4.3594446182251},"countryCode":"NL","name":"Voorburg","stationCode":"VB","uicCode":"8400658"},{"coordinate":{"lat":52.0802764892578,"lng":4.32499980926514},"countryCode":"NL","name":"Den Haag Centraal","stationCode":"GVC","uicCode":"8400282"}],"direction":"BOTH","operators":["NS"]},"description":"er rijden bussen","level":"LESS_TRAINS"},"sectionType":"NL"}],"summaryAdditionalTravelTime":{"label":"De extra reistijd is meer dan 15 minuten.","shortLabel":"Extra reistijd meer dan 15 min.","minimumDurationInMinutes":15},"timespans":[{"start":"2025-11-15T04:00:00+0100","end":"2025-11-17T02:00:00+0100","period":"Zaterdag 15 november 4:00 uur t/m maandag 17 november 2:00 uur.","situation":{"label":"Door werkzaamheden: tussen Den Haag Centraal en Den Haag HS rijden er geen treinen en tussen Den Haag Centraal en Den Haag Ypenburg rijden er bussen."},"cause":{"label":"werkzaamheden","type":"OTHER"},"additionalTravelTime":{"label":"De extra reistijd is meer dan 15 minuten.","shortLabel":"Extra reistijd meer dan 15 min.","minimumDurationInMinutes":15},"alternativeTransport":{"label":"er rijden stopbussen","shortLabel":"er rijden stopbussen"},"advices":["Maak gebruik van de omgeleide IC tussen Den Haag C en Utrecht C via Leiden C en Woerden.","Tussen Den Haag C. en Den Haag HS/Rotterdam C. reis via Laan v NOI.","Tussen Den Haag C. en Woerden/Utrecht C. reis via Leiden C."]}],"alternativeTransportTimespans":[{"start":"2025-11-15T04:00:00+0100","end":"2025-11-17T02:00:00+0100","alternativeTransport":{"location":[{"station":{"coordinate":{"lat":52.0802764892578,"lng":4.32499980926514},"countryCode":"NL","name":"Den Haag Centraal","stationCode":"GVC","uicCode":"8400282"},"description":"vanaf het busplatform"},{"station":{"coordinate":{"lat":52.0666656494141,"lng":4.3594446182251},"countryCode":"NL","name":"Voorburg","stationCode":"VB","uicCode":"8400658"},"description":"onder het spoorviaduct"},{"station":{"coordinate":{"lat":52.0552787780762,"lng":4.39222240447998},"countryCode":"NL","name":"Den Haag Ypenburg","stationCode":"YPB","uicCode":"8400379"},"description":"vanaf de voorzijde van het station"}],"label":"Er rijden stopbussen tussen Den Haag Centraal, Voorburg en Den Haag Ypenburg.","shortLabel":"Er rijden stopbussen Den Haag C. - Voorburg - Ypenburg."}}]},{"type":"MAINTENANCE","id":"7007026","title":"Amsterdam - Brussel - Paris.","isActive":false,"local":false,"titleSections":[[{"type":"STATION","value":"Amsterdam C."},{"type":"STATION","value":"Lombardijen"},{"type":"ICON","value":"MAINTENANCE"},{"type":"STATION","value":"Brussel-Zuid"},{"type":"STATION","value":"Paris-Nord"}]],"registrationTime":"2025-11-11T18:59:39+0100","start":"2025-11-15T06:00:00+0100","releaseTime":"2025-11-11T18:59:39+0100","end":"2025-11-16T22:00:00+0100","period":"Zaterdag 15 november 6:00 uur t/m zondag 16 november 22:00 uur.","impact":{"value":2},"publicationSections":[{"section":{"stations":[{"coordinate":{"lat":52.3788871765137,"lng":4.90027761459351},"countryCode":"NL","name":"Amsterdam Centraal","stationCode":"ASD","uicCode":"8400058"},{"coordinate":{"lat":52.3888893127441,"lng":4.83777761459351},"countryCode":"NL","name":"Amsterdam Sloterdijk","stationCode":"ASS","uicCode":"8400059"},{"coordinate":{"lat":52.3577766418457,"lng":4.83388900756836},"countryCode":"NL","name":"Amsterdam Lelylaan","stationCode":"ASDL","uicCode":"8400079"},{"coordinate":{"lat":52.3094444274902,"lng":4.76194429397583},"countryCode":"NL","name":"Schiphol Airport","stationCode":"SHL","uicCode":"8400561"},{"coordinate":{"lat":52.2933349609375,"lng":4.70055532455444},"countryCode":"NL","name":"Hoofddorp","stationCode":"HFD","uicCode":"8400332"},{"coordinate":{"lat":51.9249992370605,"lng":4.46888875961304},"countryCode":"NL","name":"Rotterdam Centraal","stationCode":"RTD","uicCode":"8400530"},{"coordinate":{"lat":51.9202766418457,"lng":4.48888874053955},"countryCode":"NL","name":"Rotterdam Blaak","stationCode":"RTB","uicCode":"8400529"},{"coordinate":{"lat":51.9044456481934,"lng":4.51027774810791},"countryCode":"NL","name":"Rotterdam Zuid","stationCode":"RTZ","uicCode":"8400533"},{"coordinate":{"lat":51.8800010681152,"lng":4.53138875961304},"countryCode":"NL","name":"Rotterdam Lombardijen","stationCode":"RLB","uicCode":"8400542"},{"coordinate":{"lat":51.358088,"lng":4.633977},"countryCode":"B","name":"Noorderkempen","stationCode":"NDKP","uicCode":"8821105"},{"coordinate":{"lat":51.2449375,"lng":4.4251543},"countryCode":"B","name":"Antwerpen-Luchtbal","stationCode":"ATWLB","uicCode":"8821063"},{"coordinate":{"lat":51.21686,"lng":4.421242},"countryCode":"B","name":"Antwerpen-Centraal","stationCode":"ATW","uicCode":"8821006"},{"coordinate":{"lat":51.198914,"lng":4.4332},"countryCode":"B","name":"Antwerpen-Berchem","stationCode":"BERCH","uicCode":"8821121"},{"coordinate":{"lat":51.01758,"lng":4.48313},"countryCode":"B","name":"Mechelen","stationCode":"MECH","uicCode":"8822004"},{"coordinate":{"lat":50.859658,"lng":4.360854},"countryCode":"B","name":"Brussel-Noord","stationCode":"BRUSN","uicCode":"8812005"},{"coordinate":{"lat":50.845175,"lng":4.357131},"countryCode":"B","name":"Brussel-Centraal","stationCode":"BRUSC","uicCode":"8813003"},{"coordinate":{"lat":50.836782,"lng":4.336922},"countryCode":"B","name":"Brussel-Zuid","stationCode":"BRUSZ","uicCode":"8814001"},{"coordinate":{"lat":48.87977,"lng":2.35575},"countryCode":"F","name":"Paris-Nord","stationCode":"PARIS","uicCode":"8727100"}],"direction":"BOTH","operators":["NS Int"]},"consequence":{"section":{"stations":[{"coordinate":{"lat":51.8800010681152,"lng":4.53138875961304},"countryCode":"NL","name":"Rotterdam Lombardijen","stationCode":"RLB","uicCode":"8400542"},{"coordinate":{"lat":51.358088,"lng":4.633977},"countryCode":"B","name":"Noorderkempen","stationCode":"NDKP","uicCode":"8821105"},{"coordinate":{"lat":51.2449375,"lng":4.4251543},"countryCode":"B","name":"Antwerpen-Luchtbal","stationCode":"ATWLB","uicCode":"8821063"},{"coordinate":{"lat":51.21686,"lng":4.421242},"countryCode":"B","name":"Antwerpen-Centraal","stationCode":"ATW","uicCode":"8821006"},{"coordinate":{"lat":51.198914,"lng":4.4332},"countryCode":"B","name":"Antwerpen-Berchem","stationCode":"BERCH","uicCode":"8821121"},{"coordinate":{"lat":51.01758,"lng":4.48313},"countryCode":"B","name":"Mechelen","stationCode":"MECH","uicCode":"8822004"},{"coordinate":{"lat":50.859658,"lng":4.360854},"countryCode":"B","name":"Brussel-Noord","stationCode":"BRUSN","uicCode":"8812005"},{"coordinate":{"lat":50.845175,"lng":4.357131},"countryCode":"B","name":"Brussel-Centraal","stationCode":"BRUSC","uicCode":"8813003"},{"coordinate":{"lat":50.836782,"lng":4.336922},"countryCode":"B","name":"Brussel-Zuid","stationCode":"BRUSZ","uicCode":"8814001"}],"direction":"BOTH","operators":["NS Int"]},"description":"aangepaste internationale dienstregeling","level":"LESS_TRAINS"},"sectionType":"HSL"}],"timespans":[{"start":"2025-11-15T06:00:00+0100","end":"2025-11-16T22:00:00+0100","period":"Zaterdag 15 november 6:00 uur t/m zondag 16 november 22:00 uur.","situation":{"label":"Door werkzaamheden: tussen Rotterdam Lombardijen en Brussel-Zuid is de internationale dienstregeling aangepast."},"cause":{"label":"werkzaamheden","type":"OTHER"},"advices":["Geen rechtstreekse Eurostar naar Parijs, rijdt minder vaak tussen Amsterdam en Brussel en vertrekt eerder vanuit Nederland. Plan uw reis in de app."]}],"alternativeTransportTimespans":[]},{"type":"MAINTENANCE","id":"7007063","title":"Breda - Antwerpen - Brussel; Rotterdam - Breda - Brussel.","isActive":false,"local":false,"titleSections":[[{"type":"STATION","value":"Rotterdam C."},{"type":"ICON","value":"MAINTENANCE"},{"type":"STATION","value":"Brussel-Zuid"}],[{"type":"STATION","value":"Breda"},{"type":"ICON","value":"MAINTENANCE"},{"type":"STATION","value":"Noorderkempen"},{"type":"STATION","value":"Brussel-Zuid"}]],"registrationTime":"2025-11-11T19:09:03+0100","start":"2025-11-15T06:00:00+0100","releaseTime":"2025-11-11T19:09:03+0100","end":"2025-11-17T02:00:00+0100","period":"Zaterdag 15 november 6:00 uur t/m maandag 17 november 2:00 uur.","impact":{"value":2},"publicationSections":[{"section":{"stations":[{"coordinate":{"lat":51.9249992370605,"lng":4.46888875961304},"countryCode":"NL","name":"Rotterdam Centraal","stationCode":"RTD","uicCode":"8400530"},{"coordinate":{"lat":51.9202766418457,"lng":4.48888874053955},"countryCode":"NL","name":"Rotterdam Blaak","stationCode":"RTB","uicCode":"8400529"},{"coordinate":{"lat":51.9044456481934,"lng":4.51027774810791},"countryCode":"NL","name":"Rotterdam Zuid","stationCode":"RTZ","uicCode":"8400533"},{"coordinate":{"lat":51.8800010681152,"lng":4.53138875961304},"countryCode":"NL","name":"Rotterdam Lombardijen","stationCode":"RLB","uicCode":"8400542"},{"coordinate":{"lat":51.606388092041,"lng":4.72083330154419},"countryCode":"NL","name":"Breda-Prinsenbeek","stationCode":"BDPB","uicCode":"8400132"},{"coordinate":{"lat":51.5955543518066,"lng":4.78000020980835},"countryCode":"NL","name":"Breda","stationCode":"BD","uicCode":"8400131"},{"coordinate":{"lat":51.358088,"lng":4.633977},"countryCode":"B","name":"Noorderkempen","stationCode":"NDKP","uicCode":"8821105"},{"coordinate":{"lat":51.2449375,"lng":4.4251543},"countryCode":"B","name":"Antwerpen-Luchtbal","stationCode":"ATWLB","uicCode":"8821063"},{"coordinate":{"lat":51.21686,"lng":4.421242},"countryCode":"B","name":"Antwerpen-Centraal","stationCode":"ATW","uicCode":"8821006"},{"coordinate":{"lat":51.198914,"lng":4.4332},"countryCode":"B","name":"Antwerpen-Berchem","stationCode":"BERCH","uicCode":"8821121"},{"coordinate":{"lat":51.01758,"lng":4.48313},"countryCode":"B","name":"Mechelen","stationCode":"MECH","uicCode":"8822004"},{"coordinate":{"lat":50.859658,"lng":4.360854},"countryCode":"B","name":"Brussel-Noord","stationCode":"BRUSN","uicCode":"8812005"},{"coordinate":{"lat":50.845175,"lng":4.357131},"countryCode":"B","name":"Brussel-Centraal","stationCode":"BRUSC","uicCode":"8813003"},{"coordinate":{"lat":50.836782,"lng":4.336922},"countryCode":"B","name":"Brussel-Zuid","stationCode":"BRUSZ","uicCode":"8814001"}],"direction":"BOTH","operators":["NS Int"]},"consequence":{"section":{"stations":[{"coordinate":{"lat":51.9249992370605,"lng":4.46888875961304},"countryCode":"NL","name":"Rotterdam Centraal","stationCode":"RTD","uicCode":"8400530"},{"coordinate":{"lat":51.9202766418457,"lng":4.48888874053955},