[{"type":"MAINTENANCE","id":"7004492","title":"Groningen - Leer.","isActive":true,"local":false,"titleSections":[[{"type":"STATION","value":"Groningen"},{"type":"STATION","value":"Bad Nieuweschans"},{"type":"ICON","value":"MAINTENANCE"},{"type":"STATION","value":"Weener"},{"type":"STATION","value":"Leer (Ostfr.)"}]],"registrationTime":"2024-05-24T11:02:19+0200","start":"2024-02-01T04:00:00+0100","releaseTime":"2024-05-24T11:02:19+0200","end":"2024-12-14T23:59:00+0100","period":"Donderdag 1 februari 4:00 uur t/m zaterdag 14 december 23:59 uur.","impact":{"value":3},"publicationSections":[{"section":{"stations":[{"coordinate":{"lat":53.2105560302734,"lng":6.56472206115723},"countryCode":"NL","name":"Groningen","stationCode":"GN","uicCode":"8400263"},{"coordinate":{"lat":53.20480027,"lng":6.5854178},"countryCode":"NL","name":"Groningen Europapark","stationCode":"GERP","uicCode":"8400238"},{"coordinate":{"lat":53.1617362,"lng":6.7220882},"countryCode":"NL","name":"Kropswolde","stationCode":"KW","uicCode":"8400369"},{"coordinate":{"lat":53.1607232,"lng":6.7402989},"countryCode":"NL","name":"Martenshoek","stationCode":"MTH","uicCode":"8400430"},{"coordinate":{"lat":53.1598181316756,"lng":6.77075386047363},"countryCode":"NL","name":"Hoogezand-Sappemeer","stationCode":"HGZ","uicCode":"8400331"},{"coordinate":{"lat":53.1596122800056,"lng":6.8679141998291},"countryCode":"NL","name":"Zuidbroek","stationCode":"ZB","uicCode":"8400742"},{"coordinate":{"lat":53.1655362,"lng":6.9777775},"countryCode":"NL","name":"Scheemda","stationCode":"SDA","uicCode":"8400551"},{"coordinate":{"lat":53.1392377,"lng":7.035101},"countryCode":"NL","name":"Winschoten","stationCode":"WS","uicCode":"8400696"},{"coordinate":{"lat":53.1844,"lng":7.19937},"countryCode":"NL","name":"Bad Nieuweschans","stationCode":"NSCH","uicCode":"8400457"},{"coordinate":{"lat":53.16311,"lng":7.3442},"countryCode":"D","name":"Weener","stationCode":"WR","uicCode":"8021239"},{"coordinate":{"lat":53.23165,"lng":7.465283},"countryCode":"D","name":"Leer (Ostfriesl)","stationCode":"LEER","uicCode":"8021091"}],"direction":"BOTH"},"consequence":{"section":{"stations":[{"coordinate":{"lat":53.1844,"lng":7.19937},"countryCode":"NL","name":"Bad Nieuweschans","stationCode":"NSCH","uicCode":"8400457"},{"coordinate":{"lat":53.16311,"lng":7.3442},"countryCode":"D","name":"Weener","stationCode":"WR","uicCode":"8021239"}],"direction":"ONE_WAY"},"description":"rijden bussen","level":"LESS_TRAINS"},"sectionType":"NEIGHBORING_COUNTRY"}],"summaryAdditionalTravelTime":{"label":"De extra reistijd kan oplopen tot 30 minuten.","shortLabel":"extra reistijd tot 30 min.","maximumDurationInMinutes":30},"timespans":[{"start":"2024-02-01T04:00:00+0100","end":"2024-12-14T23:59:00+0100","period":"Donderdag 1 februari 4:00 uur t/m zaterdag 14 december 23:59 uur.","situation":{"label":"Door werkzaamheden: tussen Bad Nieuweschans en Weener rijden er bussen."},"cause":{"label":"werkzaamheden"},"additionalTravelTime":{"label":"De extra reistijd kan oplopen tot 30 minuten.","shortLabel":"extra reistijd tot 30 min.","maximumDurationInMinutes":30},"alternativeTransport":{"label":"er rijden stopbussen","shortLabel":"er rijden stopbussen"},"advices":["Op dit moment is er nog geen exacte einddatum bekend."]}],"alternativeTransportTimespans":[{"start":"2024-02-01T04:00:00+0100","end":"2024-12-14T23:59:00+0100","alternativeTransport":{"location":[{"station":{"coordinate":{"lat":53.1844,"lng":7.19937},"countryCode":"NL","name":"Bad Nieuweschans","stationCode":"NSCH","uicCode":"8400457"},"description":"vanaf de voorzijde van het station"},{"station":{"coordinate":{"lat":53.16311,"lng":7.3442},"countryCode":"D","name":"Weener","stationCode":"WR","uicCode":"8021239"},"description":"vanaf de voorzijde van het station"},{"station":{"coordinate":{"lat":53.23165,"lng":7.465283},"countryCode":"D","name":"Leer (Ostfriesl)","stationCode":"LEER","uicCode":"8021091"},"description":"vanaf het busstation"}],"label":"Er rijden stopbussen tussen Bad Nieuweschans, Weener en Leer (Ostfriesl).","shortLabel":"er rijden stopbussen Bad Nieuweschans - Weener - Leer (Ostfr.)"}}]},{"type":"MAINTENANCE","id":"7004725","title":"Amersfoort Centraal.; Hilversum - Amersfoort.; Utrecht - Amersfoort; Amersfoort - Ede-Wageningen.","isActive":true,"local":false,"titleSections":[[{"type":"STATION","value":"Amersfoort C."}],[{"type":"STATION","value":"Hilversum"},{"type":"STATION","value":"Baarn"},{"type":"ICON","value":"MAINTENANCE"},{"type":"STATION","value":"Amersfoort C."}],[{"type":"STATION","value":"Utrecht C."},{"type":"STATION","value":"Den Dolder"},{"type":"ICON","value":"MAINTENANCE"},{"type":"STATION","value":"Amersfoort C."}],[{"type":"STATION","value":"Amersfoort C."},{"type":"ICON","value":"MAINTENANCE"},{"type":"STATION","value":"Ede-Wageningen"}]],"registrationTime":"2024-07-16T10:00:40+0200","start":"2024-07-06T00:00:00+0200","releaseTime":"2024-07-16T10:00:40+0200","end":"2024-08-19T02:00:00+0200","period":"Zaterdag 6 juli 0:00 uur t/m maandag 19 augustus 2:00 uur.","impact":{"value":5},"publicationSections":[{"section":{"stations":[{"coordinate":{"lat":52.1538887023926,"lng":5.37055540084839},"countryCode":"NL","name":"Amersfoort Centraal","stationCode":"AMF","uicCode":"8400055"},{"coordinate":{"lat":52.16652,"lng":5.45718},"countryCode":"NL","name":"Hoevelaken","stationCode":"HVL","uicCode":"8400490"},{"coordinate":{"lat":52.1613883972168,"lng":5.59805536270142},"countryCode":"NL","name":"Barneveld Noord","stationCode":"BNN","uicCode":"8400092"},{"coordinate":{"lat":52.1399993896484,"lng":5.59027767181396},"countryCode":"NL","name":"Barneveld Centrum","stationCode":"BNC","uicCode":"8400091"},{"coordinate":{"lat":52.128853,"lng":5.60246},"countryCode":"NL","name":"Barneveld Zuid","stationCode":"BNZ","uicCode":"8400115"},{"coordinate":{"lat":52.085277557373,"lng":5.62444448471069},"countryCode":"NL","name":"Lunteren","stationCode":"LTN","uicCode":"8400405"},{"coordinate":{"lat":52.0436096191406,"lng":5.66833353042603},"countryCode":"NL","name":"Ede Centrum","stationCode":"EDC","uicCode":"8400201"},{"coordinate":{"lat":52.0277786254883,"lng":5.67305564880371},"countryCode":"NL","name":"Ede-Wageningen","stationCode":"ED","uicCode":"8400200"}],"direction":"BOTH"},"consequence":{"section":{"stations":[{"coordinate":{"lat":52.1538887023926,"lng":5.37055540084839},"countryCode":"NL","name":"Amersfoort Centraal","stationCode":"AMF","uicCode":"8400055"}],"direction":"ONE_WAY"},"description":"aangep. dienstregeling en businzet","level":"LESS_TRAINS"},"sectionType":"NL"},{"section":{"stations":[{"coordinate":{"lat":52.1538887023926,"lng":5.37055540084839},"countryCode":"NL","name":"Amersfoort Centraal","stationCode":"AMF","uicCode":"8400055"},{"coordinate":{"lat":52.16652,"lng":5.45718},"countryCode":"NL","name":"Hoevelaken","stationCode":"HVL","uicCode":"8400490"},{"coordinate":{"lat":52.2091674804687,"lng":5.97027778625488},"countryCode":"NL","name":"Apeldoorn","stationCode":"APD","uicCode":"8400066"},{"coordinate":{"lat":52.2152786254883,"lng":6.00444459915161},"countryCode":"NL","name":"Apeldoorn Osseveld","stationCode":"APDO","uicCode":"8400229"},{"coordinate":{"lat":52.2377777099609,"lng":6.09861087799072},"countryCode":"NL","name":"Twello","stationCode":"TWL","uicCode":"8400599"},{"coordinate":{"lat":52.2574996948242,"lng":6.16055536270142},"countryCode":"NL","name":"Deventer","stationCode":"DV","uicCode":"8400173"}],"direction":"BOTH"},"consequence":{"section":{"stations":[{"coordinate":{"lat":52.1538887023926,"lng":5.37055540084839},"countryCode":"NL","name":"Amersfoort Centraal","stationCode":"AMF","uicCode":"8400055"}],"direction":"ONE_WAY"},"description":"aangep. dienstregeling en businzet","level":"LESS_TRAINS"},"sectionType":"NL"},{"section":{"stations":[{"coordinate":{"lat":52.0888900756836,"lng":5.11027765274048},"countryCode":"NL","name":"Utrecht Centraal","stationCode":"UT","uicCode":"8400621"},{"coordinate":{"lat":52.1100006103516,"lng":5.12472200393677},"countryCode":"NL","name":"Utrecht Overvecht","stationCode":"UTO","uicCode":"8400620"},{"coordinate":{"lat":52.1300010681152,"lng":5.20388889312744},"countryCode":"NL","name":"Bilthoven","stationCode":"BHV","uicCode":"8400114"},{"coordinate":{"lat":52.1402778625488,"lng":5.24277782440186},"countryCode":"NL","name":"Den Dolder","stationCode":"DLD","uicCode":"8400179"},{"coordinate":{"lat":52.1538887023926,"lng":5.37055540084839},"countryCode":"NL","name":"Amersfoort Centraal","stationCode":"AMF","uicCode":"8400055"}],"direction":"BOTH"},"consequence":{"section":{"stations":[{"coordinate":{"lat":52.1538887023926,"lng":5.37055540084839},"countryCode":"NL","name":"Amersfoort Centraal","stationCode":"AMF","uicCode":"8400055"}],"direction":"ONE_WAY"},"description":"aangep. dienstregeling en businzet","level":"LESS_TRAINS"},"sectionType":"NL"},{"section":{"stations":[{"coordinate":{"lat":52.2258338928223,"lng":5.18194437026978},"countryCode":"NL","name":"Hilversum","stationCode":"HVS","uicCode":"8400322"},{"coordinate":{"lat":52.2083320617676,"lng":5.28083324432373},"countryCode":"NL","name":"Baarn","stationCode":"BRN","uicCode":"8400086"},{"coordinate":{"lat":52.1538887023926,"lng":5.37055540084839},"countryCode":"NL","name":"Amersfoort Centraal","stationCode":"AMF","uicCode":"8400055"}],"direction":"BOTH"},"consequence":{"section":{"stations":[{"coordinate":{"lat":52.1538887023926,"lng":5.37055540084839},"countryCode":"NL","name":"Amersfoort Centraal","stationCode":"AMF","uicCode":"8400055"}],"direction":"ONE_WAY"},"description":"aangep. dienstregeling en businzet","level":"LESS_TRAINS"},"sectionType":"NL"},{"section":{"stations":[{"coordinate":{"lat":52.0888900756836,"lng":5.11027765274048},"countryCode":"NL","name":"Utrecht Centraal","stationCode":"UT","uicCode":"8400621"},{"coordinate":{"lat":52.1100006103516,"lng":5.12472200393677},"countryCode":"NL","name":"Utrecht Overvecht","stationCode":"UTO","uicCode":"8400620"},{"coordinate":{"lat":52.1300010681152,"lng":5.20388889312744},"countryCode":"NL","name":"Bilthoven","stationCode":"BHV","uicCode":"8400114"},{"coordinate":{"lat":52.1402778625488,"lng":5.24277782440186},"countryCode":"NL","name":"Den Dolder","stationCode":"DLD","uicCode":"8400179"},{"coordinate":{"lat":52.1538887023926,"lng":5.37055540084839},"countryCode":"NL","name":"Amersfoort Centraal","stationCode":"AMF","uicCode":"8400055"},{"coordinate":{"lat":52.1748221374512,"lng":5.40388870239258},"countryCode":"NL","name":"Amersfoort Schothorst","stationCode":"AMFS","uicCode":"8400054"},{"coordinate":{"lat":52.1927795410156,"lng":5.43388891220093},"countryCode":"NL","name":"Amersfoort Vathorst","stationCode":"AVAT","uicCode":"8400228"},{"coordinate":{"lat":52.2222213745117,"lng":5.49388885498047},"countryCode":"NL","name":"Nijkerk","stationCode":"NKK","uicCode":"8400469"},{"coordinate":{"lat":52.2649993896484,"lng":5.57527780532837},"countryCode":"NL","name":"Putten","stationCode":"PT","uicCode":"8400509"},{"coordinate":{"lat":52.3016662597656,"lng":5.61472225189209},"countryCode":"NL","name":"Ermelo","stationCode":"EML","uicCode":"8400216"},{"coordinate":{"lat":52.3375015258789,"lng":5.61972236633301},"countryCode":"NL","name":"Harderwijk","stationCode":"HD","uicCode":"8400294"},{"coordinate":{"lat":52.3708343505859,"lng":5.78527784347534},"countryCode":"NL","name":"Nunspeet","stationCode":"NS","uicCode":"8400466"},{"coordinate":{"lat":52.4091682,"lng":5.893611},"countryCode":"NL","name":"'t Harde","stationCode":"HDE","uicCode":"8400388"},{"coordinate":{"lat":52.4541664123535,"lng":6.00250005722046},"countryCode":"NL","name":"Wezep","stationCode":"WZ","uicCode":"8400690"},{"coordinate":{"lat":52.5047225952148,"lng":6.09194421768188},"countryCode":"NL","name":"Zwolle","stationCode":"ZL","uicCode":"8400747"}],"direction":"BOTH"},"consequence":{"section":{"stations":[{"coordinate":{"lat":52.1538887023926,"lng":5.37055540084839},"countryCode":"NL","name":"Amersfoort Centraal","stationCode":"AMF","uicCode":"8400055"}],"direction":"ONE_WAY"},"description":"aangep. dienstregeling en businzet","level":"LESS_TRAINS"},"sectionType":"NL"},{"section":{"stations":[{"coordinate":{"lat":52.2258338928223,"lng":5.18194437026978},"countryCode":"NL","name":"Hilversum","stationCode":"HVS","uicCode":"8400322"},{"coordinate":{"lat":52.2083320617676,"lng":5.28083324432373},"countryCode":"NL","name":"Baarn","stationCode":"BRN","uicCode":"8400086"},{"coordinate":{"lat":52.1538887023926,"lng":5.37055540084839},"countryCode":"NL","name":"Amersfoort Centraal","stationCode":"AMF","uicCode":"8400055"}],"direction":"BOTH"},"consequence":{"section":{"stations":[{"coordinate":{"lat":52.2083320617676,"lng":5.28083324432373},"countryCode":"NL","name":"Baarn","stationCode":"BRN","uicCode":"8400086"},{"coordinate":{"lat":52.1538887023926,"lng":5.37055540084839},"countryCode":"NL","name":"Amersfoort Centraal","stationCode":"AMF","uicCode":"8400055"}],"direction":"ONE_WAY"},"description":"rijden bussen","level":"LESS_TRAINS"},"sectionType":"NL"},{"section":{"stations":[{"coordinate":{"lat":52.1538887023926,"lng":5.37055540084839},"countryCode":"NL","name":"Amersfoort Centraal","stationCode":"AMF","uicCode":"8400055"},{"coordinate":{"lat":52.16652,"lng":5.45718},"countryCode":"NL","name":"Hoevelaken","stationCode":"HVL","uicCode":"8400490"},{"coordinate":{"lat":52.1613883972168,"lng":5.59805536270142},"countryCode":"NL","name":"Barneveld Noord","stationCode":"BNN","uicCode":"8400092"},{"coordinate":{"lat":52.1399993896484,"lng":5.59027767181396},"countryCode":"NL","name":"Barneveld Centrum","stationCode":"BNC","uicCode":"8400091"},{"coordinate":{"lat":52.128853,"lng":5.60246},"countryCode":"NL","name":"Barneveld Zuid","stationCode":"BNZ","uicCode":"8400115"},{"coordinate":{"lat":52.085277557373,"lng":5.62444448471069},"countryCode":"NL","name":"Lunteren","stationCode":"LTN","uicCode":"8400405"},{"coordinate":{"lat":52.0436096191406,"lng":5.66833353042603},"countryCode":"NL","name":"Ede Centrum","stationCode":"EDC","uicCode":"8400201"},{"coordinate":{"lat":52.0277786254883,"lng":5.67305564880371},"countryCode":"NL","name":"Ede-Wageningen","stationCode":"ED","uicCode":"8400200"}],"direction":"BOTH"},"consequence":{"section":{"stations":[{"coordinate":{"lat":52.1538887023926,"lng":5.37055540084839},"countryCode":"NL","name":"Amersfoort Centraal","stationCode":"AMF","uicCode":"8400055"}],"direction":"ONE_WAY"},"description":"rijden bussen","level":"LESS_TRAINS"},"sectionType":"NL"},{"section":{"stations":[{"coordinate":{"lat":52.1538887023926,"lng":5.37055540084839},"countryCode":"NL","name":"Amersfoort Centraal","stationCode":"AMF","uicCode":"8400055"},{"coordinate":{"lat":52.16652,"lng":5.45718},"countryCode":"NL","name":"Hoevelaken","stationCode":"HVL","uicCode":"8400490"},{"coordinate":{"lat":52.2091674804687,"lng":5.97027778625488},"countryCode":"NL","name":"Apeldoorn","stationCode":"APD","uicCode":"8400066"},{"coordinate":{"lat":52.2152786254883,"lng":6.00444459915161},"countryCode":"NL","name":"Apeldoorn Osseveld","stationCode":"APDO","uicCode":"8400229"},{"coordinate":{"lat":52.2377777099609,"lng":6.09861087799072},"countryCode":"NL","name":"Twello","stationCode":"TWL","uicCode":"8400599"},{"coordinate":{"lat":52.2574996948242,"lng":6.16055536270142},"countryCode":"NL","name":"Deventer","stationCode":"DV","uicCode":"8400173"}],"direction":"BOTH"},"consequence":{"section":{"stations":[{"coordinate":{"lat":52.1538887023926,"lng":5.37055540084839},"countryCode":"NL","name":"Amersfoort Centraal","stationCode":"AMF","uicCode":"8400055"}],"direction":"ONE_WAY"},"description":"rijden bussen","level":"LESS_TRAINS"},"sectionType":"NL"},{"section":{"stations":[{"coordinate":{"lat":52.0888900756836,"lng":5.11027765274048},"countryCode":"NL","name":"Utrecht Centraal","stationCode":"UT","uicCode":"8400621"},{"coordinate":{"lat":52.1100006103516,"lng":5.12472200393677},"countryCode":"NL","name":"Utrecht Overvecht","stationCode":"UTO","uicCode":"8400620"},{"coordinate":{"lat":52.1300010681152,"lng":5.20388889312744},"countryCode":"NL","name":"Bilthoven","stationCode":"BHV","uicCode":"8400114"},{"coordinate":{"lat":52.1402778625488,"lng":5.24277782440186},"countryCode":"NL","name":"Den Dolder","stationCode":"DLD","uicCode":"8400179"},{"coordinate":{"lat":52.1538887023926,"lng":5.37055540084839},"countryCode":"NL","name":"Amersfoort Centraal","stationCode":"AMF","uicCode":"8400055"}],"direction":"BOTH"},"consequence":{"section":{"stations":[{"coordinate":{"lat":52.1538887023926,"lng":5.37055540084839},"countryCode":"NL","name":"Amersfoort Centraal","stationCode":"AMF","uicCode":"8400055"}],"direction":"ONE_WAY"},"description":"rijden bussen","level":"LESS_TRAINS"},"sectionType":"NL"},{"section":{"stations":[{"coordinate":{"lat":52.1538887023926,"lng":5.37055540084839},"countryCode":"NL","name":"Amersfoort Centraal","stationCode":"AMF","uicCode":"8400055"},{"coordinate":{"lat":52.1748221374512,"lng":5.40388870239258},"countryCode":"NL","name":"Amersfoort Schothorst","stationCode":"AMFS","uicCode":"8400054"},{"coordinate":{"lat":52.1927795410156,"lng":5.43388891220093},"countryCode":"NL","name":"Amersfoort Vathorst","stationCode":"AVAT","uicCode":"8400228"},{"coordinate":{"lat":52.2222213745117,"lng":5.49388885498047},"countryCode":"NL","name":"Nijkerk","stationCode":"NKK","uicCode":"8400469"},{"coordinate":{"lat":52.2649993896484,"lng":5.57527780532837},"countryCode":"NL","name":"Putten","stationCode":"PT","uicCode":"8400509"},{"coordinate":{"lat":52.3016662597656,"lng":5.61472225189209},"countryCode":"NL","name":"Ermelo","stationCode":"EML","uicCode":"8400216"},{"coordinate":{"lat":52.3375015258789,"lng":5.61972236633301},"countryCode":"NL","name":"Harderwijk","stationCode":"HD","uicCode":"8400294"},{"coordinate":{"lat":52.3708343505859,"lng":5.78527784347534},"countryCode":"NL","name":"Nunspeet","stationCode":"NS","uicCode":"8400466"},{"coordinate":{"lat":52.4091682,"lng":5.893611},"countryCode":"NL","name":"'t Harde","stationCode":"HDE","uicCode":"8400388"},{"coordinate":{"lat":52.4541664123535,"lng":6.00250005722046},"countryCode":"NL","name":"Wezep","stationCode":"WZ","uicCode":"8400690"},{"coordinate":{"lat":52.5047225952148,"lng":6.09194421768188},"countryCode":"NL","name":"Zwolle","stationCode":"ZL","uicCode":"8400747"}],"direction":"BOTH"},"consequence":{"section":{"stations":[{"coordinate":{"lat":52.1538887023926,"lng":5.37055540084839},"countryCode":"NL","name":"Amersfoort Centraal","stationCode":"AMF","uicCode":"8400055"}],"direction":"ONE_WAY"},"description":"rijden bussen","level":"LESS_TRAINS"},"sectionType":"NL"},{"section":{"stations":[{"coordinate":{"lat":52.2258338928223,"lng":5.18194437026978},"countryCode":"NL","name":"Hilversum","stationCode":"HVS","uicCode":"8400322"},{"coordinate":{"lat":52.2083320617676,"lng":5.28083324432373},"countryCode":"NL","name":"Baarn","stationCode":"BRN","uicCode":"8400086"},{"coordinate":{"lat":52.1538887023926,"lng":5.37055540084839},"countryCode":"NL","name":"Amersfoort Centraal","stationCode":"AMF","uicCode":"8400055"}],"direction":"BOTH"},"consequence":{"section":{"stations":[{"coordinate":{"lat":52.1538887023926,"lng":5.37055540084839},"countryCode":"NL","name":"Amersfoort Centraal","stationCode":"AMF","uicCode":"8400055"}],"direction":"ONE_WAY"},"description":"rijden bussen","level":"LESS_TRAINS"},"sectionType":"NL"},{"section":{"stations":[{"coordinate":{"lat":52.0888900756836,"lng":5.11027765274048},"countryCode":"NL","name":"Utrecht Centraal","stationCode":"UT","uicCode":"8400621"},{"coordinate":{"lat":52.1100006103516,"lng":5.12472200393677},"countryCode":"NL","name":"Utrecht Overvecht","stationCode":"UTO","uicCode":"8400620"},{"coordinate":{"lat":52.1300010681152,"lng":5.20388889312744},"countryCode":"NL","name":"Bilthoven","stationCode":"BHV","uicCode":"8400114"},{"coordinate":{"lat":52.1402778625488,"lng":5.24277782440186},"countryCode":"NL","name":"Den Dolder","stationCode":"DLD","uicCode":"8400179"},{"coordinate":{"lat":52.1538887023926,"lng":5.37055540084839},"countryCode":"NL","name":"Amersfoort Centraal","stationCode":"AMF","uicCode":"8400055"}],"direction":"BOTH"},"consequence":{"section":{"stations":[{"coordinate":{"lat":52.1402778625488,"lng":5.24277782440186},"countryCode":"NL","name":"Den Dolder","stationCode":"DLD","uicCode":"8400179"},{"coordinate":{"lat":52.1538887023926,"lng":5.37055540084839},"countryCode":"NL","name":"Amersfoort Centraal","stationCode":"AMF","uicCode":"8400055"}],"direction":"ONE_WAY"},"description":"geen treinen","level":"LESS_TRAINS"},"sectionType":"NL"},{"section":{"stations":[{"coordinate":{"lat":52.1538887023926,"lng":5.37055540084839},"countryCode":"NL","name":"Amersfoort Centraal","stationCode":"AMF","uicCode":"8400055"},{"coordinate":{"lat":52.16652,"lng":5.45718},"countryCode":"NL","name":"Hoevelaken","stationCode":"HVL","uicCode":"8400490"},{"coordinate":{"lat":52.1613883972168,"lng":5.59805536270142},"countryCode":"NL","name":"Barneveld Noord","stationCode":"BNN","uicCode":"8400092"},{"coordinate":{"lat":52.1399993896484,"lng":5.59027767181396},"countryCode":"NL","name":"Barneveld Centrum","stationCode":"BNC","uicCode":"8400091"},{"coordinate":{"lat":52.128853,"lng":5.60246},"countryCode":"NL","name":"Barneveld Zuid","stationCode":"BNZ","uicCode":"8400115"},{"coordinate":{"lat":52.085277557373,"lng":5.62444448471069},"countryCode":"NL","name":"Lunteren","stationCode":"LTN","uicCode":"8400405"},{"coordinate":{"lat":52.0436096191406,"lng":5.66833353042603},"countryCode":"NL","name":"Ede Centrum","stationCode":"EDC","uicCode":"8400201"},{"coordinate":{"lat":52.0277786254883,"lng":5.67305564880371},"countryCode":"NL","name":"Ede-Wageningen","stationCode":"ED","uicCode":"8400200"}],"direction":"BOTH"},"consequence":{"section":{"stations":[{"coordinate":{"lat":52.1538887023926,"lng":5.37055540084839},"countryCode":"NL","name":"Amersfoort Centraal","stationCode":"AMF","uicCode":"8400055"},{"coordinate":{"lat":52.16652,"lng":5.45718},"countryCode":"NL","name":"Hoevelaken","stationCode":"HVL","uicCode":"8400490"},{"coordinate":{"lat":52.1613883972168,"lng":5.59805536270142},"countryCode":"NL","name":"Barneveld Noord","stationCode":"BNN","uicCode":"8400092"},{"coordinate":{"lat":52.1399993896484,"lng":5.59027767181396},"countryCode":"NL","name":"Barneveld Centrum","stationCode":"BNC","uicCode":"8400091"},{"coordinate":{"lat":52.128853,"lng":5.60246},"countryCode":"NL","name":"Barneveld Zuid","stationCode":"BNZ","uicCode":"8400115"},{"coordinate":{"lat":52.085277557373,"lng":5.62444448471069},"countryCode":"NL","name":"Lunteren","stationCode":"LTN","uicCode":"8400405"},{"coordinate":{"lat":52.0436096191406,"lng":5.66833353042603},"countryCode":"NL","name":"Ede Centrum","stationCode":"EDC","uicCode":"8400201"},{"coordinate":{"lat":52.0277786254883,"lng":5.67305564880371},"countryCode":"NL","name":"Ede-Wageningen","stationCode":"ED","uicCode":"8400200"}],"direction":"ONE_WAY"},"description":"rijden bussen","level":"LESS_TRAINS"},"sectionType":"NL"}],"summaryAdditionalTravelTime":{"label":"De extra reistijd kan oplopen tot 60 minuten.","shortLabel":"extra reistijd tot 60 min.","maximumDurationInMinutes":60},"timespans":[{"start":"2024-07-13T04:00:00+0200","end":"2024-07-29T02:00:00+0200","period":"Zaterdag 13 juli 4:00 uur t/m maandag 29 juli 2:00 uur.","situation":{"label":"Door werkzaamheden: van, via en naar Amersfoort Centraal rijden er bussen."},"cause":{"label":"werkzaamheden"},"additionalTravelTime":{"label":"De extra reistijd kan oplopen tot 60 minuten.","shortLabel":"extra reistijd tot 60 min.","maximumDurationInMinutes":60},"alternativeTransport":{"label":"er rijden stop- en snelbussen","shortLabel":"er rijden stop- en snelbussen"},"advices":["Gedurende deze periode geen treinverkeer maar businzet van, naar en via Amersfoort Centraal.","tussen Utrecht C. en Deventer reis via Arnhem C.","tussen Utrecht C. en Zwolle reis via Almere C."]},{"start":"2024-07-29T04:00:00+0200","end":"2024-08-15T02:00:00+0200","period":"Maandag 29 juli 4:00 uur t/m donderdag 15 augustus 2:00 uur.","situation":{"label":"Door werkzaamheden: tussen Den Dolder en Amersfoort Centraal rijden er geen treinen en tussen Amersfoort Centraal en Ede-Wageningen rijden er bussen."},"cause":{"label":"werkzaamheden"},"additionalTravelTime":{"label":"De extra reistijd ligt tussen 15 en 30 minuten.","shortLabel":"extra reistijd: 15 - 30 min.","minimumDurationInMinutes":15,"maximumDurationInMinutes":30},"alternativeTransport":{"label":"er rijden stopbussen","shortLabel":"er rijden stopbussen"},"advices":["Sprinters tussen Utrecht C en Zwolle zijn omgeleid tussen Overvecht en Amersfoort C via Hilversum en Baarn.","tussen Utrecht C. en Amersfoort C. reis via Hilversum"]},{"start":"2024-08-15T04:00:00+0200","end":"2024-08-19T02:00:00+0200","period":"Donderdag 15 augustus 4:00 uur t/m maandag 19 augustus 2:00 uur.","situation":{"label":"Door werkzaamheden: van, via en naar Amersfoort Centraal rijden er bussen."},"cause":{"label":"werkzaamheden"},"additionalTravelTime":{"label":"De extra reistijd kan oplopen tot 60 minuten.","shortLabel":"extra reistijd tot 60 min.","maximumDurationInMinutes":60},"alternativeTransport":{"label":"er rijden stop- en snelbussen","shortLabel":"er rijden stop- en snelbussen"},"advices":["Gedurende deze periode geen treinverkeer maar businzet van, naar en via Amersfoort Centraal.","tussen Utrecht C. en Deventer reis via Arnhem C.","tussen Utrecht C. en Zwolle reis via Almere C."]}],"alternativeTransportTimespans":[{"start":"2024-07-06T04:00:00+0200","end":"2024-07-08T02:00:00+0200","alternativeTransport":{"location":[{"station":{"coordinate":{"lat":52.2083320617676,"lng":5.28083324432373},"countryCode":"NL","name":"Baarn","stationCode":"BRN","uicCode":"8400086"},"description":"vanaf het Stationsplein"},{"station":{"coordinate":{"lat":52.1538887023926,"lng":5.37055540084839},"countryCode":"NL","name":"Amersfoort Centraal","stationCode":"AMF","uicCode":"8400055"},"description":"vanaf het busstation, centrumzijde"}],"label":"Er rijden stopbussen tussen Baarn en Amersfoort Centraal.","shortLabel":"er rijden stopbussen Baarn - Amersfoort C."}},{"start":"2024-07-08T04:00:00+0200","end":"2024-07-13T02:00:00+0200","alternativeTransport":{"location":[{"station":{"coordinate":{"lat":52.2083320617676,"lng":5.28083324432373},"countryCode":"NL","name":"Baarn","stationCode":"BRN","uicCode":"8400086"},"description":"vanaf het Stationsplein"},{"station":{"coordinate":{"lat":52.1538887023926,"lng":5.37055540084839},"countryCode":"NL","name":"Amersfoort Centraal","stationCode":"AMF","uicCode":"8400055"},"description":"vanaf het busstation, centrumzijde"}],"label":"Er rijden stopbussen tussen Baarn en Amersfoort Centraal.","shortLabel":"er rijden stopbussen Baarn - Amersfoort C."}},{"start":"2024-07-13T04:00:00+0200","end":"2024-07-29T02:00:00+0200","alternativeTransport":{"location":[{"station":{"coordinate":{"lat":52.0652770996094,"lng":5.25861120223999},"countryCode":"NL","name":"Driebergen-Zeist","stationCode":"DB","uicCode":"8400182"},"description":"vanaf het busstation"},{"station":{"coordinate":{"lat":52.1538887023926,"lng":5.37055540084839},"countryCode":"NL","name":"Amersfoort Centraal","stationCode":"AMF","uicCode":"8400055"},"description":"vanaf het busstation, centrumzijde"}],"label":"Er rijden snelbussen tussen Driebergen-Zeist en Amersfoort Centraal.","shortLabel":"er rijden snelbussen Driebergen-Zeist - Amersfoort C."}},{"start":"2024-07-13T04:00:00+0200","end":"2024-07-29T02:00:00+0200","alternativeTransport":{"location":[{"station":{"coordinate":{"lat":52.1538887023926,"lng":5.37055540084839},"countryCode":"NL","name":"Amersfoort Centraal","stationCode":"AMF","uicCode":"8400055"},"description":"volg de aanwijzingen op het station"},{"station":{"coordinate":{"lat":52.2091674804687,"lng":5.97027778625488},"countryCode":"NL","name":"Apeldoorn","stationCode":"APD","uicCode":"8400066"},"description":"vanaf de voorzijde van het station"}],"label":"Er rijden snelbussen tussen Amersfoort Centraal en Apeldoorn.","shortLabel":"er rijden snelbussen Amersfoort C. - Apeldoorn"}},{"start":"2024-07-13T04:00:00+0200","end":"2024-07-29T02:00:00+0200","alternativeTransport":{"location":[{"station":{"coordinate":{"lat":52.1538887023926,"lng":5.37055540084839},"countryCode":"NL","name":"Amersfoort Centraal","stationCode":"AMF","uicCode":"8400055"},"description":"volg de aanwijzingen op het station"},{"station":{"coordinate":{"lat":52.2649993896484,"lng":5.57527780532837},"countryCode":"NL","name":"Putten","stationCode":"PT","uicCode":"8400509"},"description":"vanaf de bushalte"}],"label":"Er rijden snelbussen tussen Amersfoort Centraal en Putten.","shortLabel":"er rijden snelbussen Amersfoort C. - Putten"}},{"start":"2024-07-13T04:00:00+0200","end":"2024-07-29T02:00:00+0200","alternativeTransport":{"location":[{"station":{"coordinate":{"lat":52.1538887023926,"lng":5.37055540084839},"countryCode":"NL","name":"Amersfoort Centraal","stationCode":"AMF","uicCode":"8400055"},"description":"volg de aanwijzingen op het station"},{"station":{"coordinate":{"lat":52.1748221374512,"lng":5.40388870239258},"countryCode":"NL","name":"Amersfoort Schothorst","stationCode":"AMFS","uicCode":"8400054"},"description":"vanaf het busstation"},{"station":{"coordinate":{"lat":52.1927795410156,"lng":5.43388891220093},"countryCode":"NL","name":"Amersfoort Vathorst","stationCode":"AVAT","uicCode":"8400228"},"description":"vanaf de voorzijde van het station"},{"station":{"coordinate":{"lat":52.2222213745117,"lng":5.49388885498047},"countryCode":"NL","name":"Nijkerk","stationCode":"NKK","uicCode":"8400469"},"description":"vanaf de voorzijde van het station"},{"station":{"coordinate":{"lat":52.2649993896484,"lng":5.57527780532837},"countryCode":"NL","name":"Putten","stationCode":"PT","uicCode":"8400509"},"description":"vanaf de bushalte"}],"label":"Er rijden stopbussen tussen Amersfoort Centraal, Amersfoort Schothorst, Amersfoort Vathorst, Nijkerk en Putten.","shortLabel":"er rijden stopbussen Amersfoort C. - Schothorst - Vathorst - Nijkerk - Putten"}},{"start":"2024-07-13T04:00:00+0200","end":"2024-07-29T02:00:00+0200","alternativeTransport":{"location":[{"station":{"coordinate":{"lat":52.2083320617676,"lng":5.28083324432373},"countryCode":"NL","name":"Baarn","stationCode":"BRN","uicCode":"8400086"},"description":"vanaf het Stationsplein"},{"station":{"coordinate":{"lat":52.1538887023926,"lng":5.37055540084839},"countryCode":"NL","name":"Amersfoort Centraal","stationCode":"AMF","uicCode":"8400055"},"description":"volg de aanwijzingen op het station"}],"label":"Er rijden stopbussen tussen Baarn en Amersfoort Centraal.","shortLabel":"er rijden stopbussen Baarn - Amersfoort C."}},{"start":"2024-07-13T04:00:00+0200","end":"2024-07-29T02:00:00+0200","alternativeTransport":{"location":[{"station":{"coordinate":{"lat":52.1402778625488,"lng":5.24277782440186},"countryCode":"NL","name":"Den Dolder","stationCode":"DLD","uicCode":"8400179"},"description":"vanaf de bushalte"},{"station":{"coordinate":{"lat":52.1538887023926,"lng":5.37055540084839},"countryCode":"NL","name":"Amersfoort Centraal","stationCode":"AMF","uicCode":"8400055"},"description":"vanaf het busstation, centrumzijde"}],"label":"Er rijden stopbussen tussen Den Dolder en Amersfoort Centraal.","shortLabel":"er rijden stopbussen Den Dolder - Amersfoort C."}},{"start":"2024-07-13T04:00:00+0200","end":"2024-07-29T02:00:00+0200","alternativeTransport":{"location":[{"station":{"coordinate":{"lat":52.1538887023926,"lng":5.37055540084839},"countryCode":"NL","name":"Amersfoort Centraal","stationCode":"AMF","uicCode":"8400055"},"description":"vanaf het busstation, centrumzijde"},{"station":{"coordinate":{"lat":52.16652,"lng":5.45718},"countryCode":"NL","name":"Hoevelaken","stationCode":"HVL","uicCode":"8400490"},"description":"vanaf de voorzijde van het station"},{"station":{"coordinate":{"lat":52.1613883972168,"lng":5.59805536270142},"countryCode":"NL","name":"Barneveld Noord","stationCode":"BNN","uicCode":"8400092"},"description":"vanaf het P+R terrein aan de andere zijde van het spoor"},{"station":{"coordinate":{"lat":52.1399993896484,"lng":5.59027767181396},"countryCode":"NL","name":"Barneveld Centrum","stationCode":"BNC","uicCode":"8400091"},"description":"vanaf de voorzijde van het station"},{"station":{"coordinate":{"lat":52.128853,"lng":5.60246},"countryCode":"NL","name":"Barneveld Zuid","stationCode":"BNZ","uicCode":"8400115"},"description":"vanaf de voorzijde van het station"},{"station":{"coordinate":{"lat":52.085277557373,"lng":5.62444448471069},"countryCode":"NL","name":"Lunteren","stationCode":"LTN","uicCode":"8400405"},"description":"vanaf de voorzijde van het station"},{"station":{"coordinate":{"lat":52.0436096191406,"lng":5.66833353042603},"countryCode":"NL","name":"Ede Centrum","stationCode":"EDC","uicCode":"8400201"},"description":"vanaf de bushalte aan de Telefoonweg"},{"station":{"coordinate":{"lat":52.0277786254883,"lng":5.67305564880371},"countryCode":"NL","name":"Ede-Wageningen","stationCode":"ED","uicCode":"8400200"},"description":"vanaf het busstation"}],"label":"Er rijden stopbussen tussen Amersfoort Centraal, Hoevelaken, Barneveld Noord, Barneveld Centrum, Barneveld Zuid, Lunteren, Ede Centrum en Ede-Wageningen.","shortLabel":"er rijden stopbussen Amersfoort C. - Hoevelaken - Barneveld Noord - Barneveld C. - Barneveld Zuid - Lunteren - Ede C. - Ede-Wageningen"}},{"start":"2024-07-29T04:00:00+0200","end":"2024-08-15T02:00:00+0200","alternativeTransport":{"location":[{"station":{"coordinate":{"lat":52.1538887023926,"lng":5.37055540084839},"countryCode":"NL","name":"Amersfoort Centraal","stationCode":"AMF","uicCode":"8400055"},"description":"vanaf het busstation, centrumzijde"},{"station":{"coordinate":{"lat":52.16652,"lng":5.45718},"countryCode":"NL","name":"Hoevelaken","stationCode":"HVL","uicCode":"8400490"},"description":"vanaf de voorzijde van het station"},{"station":{"coordinate":{"lat":52.1613883972168,"lng":5.59805536270142},"countryCode":"NL","name":"Barneveld Noord","stationCode":"BNN","uicCode":"8400092"},"description":"vanaf het P+R terrein aan de andere zijde van het spoor"},{"station":{"coordinate":{"lat":52.1399993896484,"lng":5.59027767181396},"countryCode":"NL","name":"Barneveld Centrum","stationCode":"BNC","uicCode":"8400091"},"description":"vanaf de voorzijde van het station"},{"station":{"coordinate":{"lat":52.128853,"lng":5.60246},"countryCode":"NL","name":"Barneveld Zuid","stationCode":"BNZ","uicCode":"8400115"},"description":"vanaf de voorzijde van het station"},{"station":{"coordinate":{"lat":52.085277557373,"lng":5.62444448471069},"countryCode":"NL","name":"Lunteren","stationCode":"LTN","uicCode":"8400405"},"description":"vanaf de voorzijde van het station"},{"station":{"coordinate":{"lat":52.0436096191406,"lng":5.66833353042603},"countryCode":"NL","name":"Ede Centrum","stationCode":"EDC","uicCode":"8400201"},"description":"vanaf de bushalte aan de Telefoonweg"},{"station":{"coordinate":{"lat":52.0277786254883,"lng":5.67305564880371},"countryCode":"NL","name":"Ede-Wageningen","stationCode":"ED","uicCode":"8400200"},"description":"vanaf het busstation"}],"label":"Er rijden stopbussen tussen Amersfoort Centraal, Hoevelaken, Barneveld Noord, Barneveld Centrum, Barneveld Zuid, Lunteren, Ede Centrum en Ede-Wageningen.","shortLabel":"er rijden stopbussen Amersfoort C. - Hoevelaken - Barneveld Noord - Barneveld C. - Barneveld Zuid - Lunteren - Ede C. - Ede-Wageningen"}},{"start":"2024-08-15T04:00:00+0200","end":"2024-08-19T02:00:00+0200","alternativeTransport":{"location":[{"station":{"coordinate":{"lat":52.0652770996094,"lng":5.25861120223999},"countryCode":"NL","name":"Driebergen-Zeist","stationCode":"DB","uicCode":"8400182"},"description":"vanaf het busstation"},{"station":{"coordinate":{"lat":52.1538887023926,"lng":5.37055540084839},"countryCode":"NL","name":"Amersfoort Centraal","stationCode":"AMF","uicCode":"8400055"},"description":"vanaf het busstation, centrumzijde"}],"label":"Er rijden snelbussen tussen Driebergen-Zeist en Amersfoort Centraal.","shortLabel":"er rijden snelbussen Driebergen-Zeist - Amersfoort C."}},{"start":"2024-08-15T04:00:00+0200","end":"2024-08-19T02:00:00+0200","alternativeTransport":{"location":[{"station":{"coordinate":{"lat":52.1538887023926,"lng":5.37055540084839},"countryCode":"NL","name":"Amersfoort Centraal","stationCode":"AMF","uicCode":"8400055"},"description":"volg de aanwijzingen op het station"},{"station":{"coordinate":{"lat":52.2091674804687,"lng":5.97027778625488},"countryCode":"NL","name":"Apeldoorn","stationCode":"APD","uicCode":"8400066"},"description":"vanaf de voorzijde van het station"}],"label":"Er rijden snelbussen tussen Amersfoort Centraal en Apeldoorn.","shortLabel":"er rijden snelbussen Amersfoort C. - Apeldoorn"}},{"start":"2024-08-15T04:00:00+0200","end":"2024-08-19T02:00:00+0200","alternativeTransport":{"location":[{"station":{"coordinate":{"lat":52.1538887023926,"lng":5.37055540084839},"countryCode":"NL","name":"Amersfoort Centraal","stationCode":"AMF","uicCode":"8400055"},"description":"volg de aanwijzingen op het station"},{"station":{"coordinate":{"lat":52.2649993896484,"lng":5.57527780532837},"countryCode":"NL","name":"Putten","stationCode":"PT","uicCode":"8400509"},"description":"vanaf de bushalte"}],"label":"Er rijden snelbussen tussen Amersfoort Centraal en Putten.","shortLabel":"er rijden snelbussen Amersfoort C. - Putten"}},{"start":"2024-08-15T04:00:00+0200","end":"2024-08-19T02:00:00+0200","alternativeTransport":{"location":[{"station":{"coordinate":{"lat":52.1538887023926,"lng":5.37055540084839},"countryCode":"NL","name":"Amersfoort Centraal","stationCode":"AMF","uicCode":"8400055"},"description":"volg de aanwijzingen op het station"},{"station":{"coordinate":{"lat":52.1748221374512,"lng":5.40388870239258},"countryCode":"NL","name":"Amersfoort Schothorst","stationCode":"AMFS","uicCode":"8400054"},"description":"vanaf het busstation"},{"station":{"coordinate":{"lat":52.1927795410156,"lng":5.43388891220093},"countryCode":"NL","name":"Amersfoort Vathorst","stationCode":"AVAT","uicCode":"8400228"},"description":"vanaf de voorzijde van het station"},{"station":{"coordinate":{"lat":52.2222213745117,"lng":5.49388885498047},"countryCode":"NL","name":"Nijkerk","stationCode":"NKK","uicCode":"8400469"},"description":"vanaf de voorzijde van het station"},{"station":{"coordinate":{"lat":52.2649993896484,"lng":5.57527780532837},"countryCode":"NL","name":"Putten","stationCode":"PT","uicCode":"8400509"},"description":"vanaf de bushalte"}],"label":"Er rijden stopbussen tussen Amersfoort Centraal, Amersfoort Schothorst, Amersfoort Vathorst, Nijkerk en Putten.","shortLabel":"er rijden stopbussen Amersfoort C. - Schothorst - Vathorst - Nijkerk - Putten"}},{"start":"2024-08-15T04:00:00+0200","end":"2024-08-19T02:00:00+0200","alternativeTransport":{"location":[{"station":{"coordinate":{"lat":52.2083320617676,"lng":5.28083324432373},"countryCode":"NL","name":"Baarn","stationCode":"BRN","uicCode":"8400086"},"description":"vanaf het Stationsplein"},{"station":{"coordinate":{"lat":52.1538887023926,"lng":5.37055540084839},"countryCode":"NL","name":"Amersfoort Centraal","stationCode":"AMF","uicCode":"8400055"},"description":"volg de aanwijzingen op het station"}],"label":"Er rijden stopbussen tussen Baarn en Amersfoort Centraal.","shortLabel":"er rijden stopbussen Baarn - Amersfoort C."}},{"start":"2024-08-15T04:00:00+0200","end":"2024-08-19T02:00:00+0200","alternativeTransport":{"location":[{"station":{"coordinate":{"lat":52.1402778625488,"lng":5.24277782440186},"countryCode":"NL","name":"Den Dolder","stationCode":"DLD","uicCode":"8400179"},"description":"vanaf de bushalte"},{"station":{"coordinate":{"lat":52.1538887023926,"lng":5.37055540084839},"countryCode":"NL","name":"Amersfoort Centraal","stationCode":"AMF","uicCode":"8400055"},"description":"vanaf het busstation, centrumzijde"}],"label":"Er rijden stopbussen tussen Den Dolder en Amersfoort Centraal.","shortLabel":"er rijden stopbussen Den Dolder - Amersfoort C."}},{"start":"2024-08-15T04:00:00+0200","end":"2024-08-19T02:00:00+0200","alternativeTransport":{"location":[{"station":{"coordinate":{"lat":52.1538887023926,"lng":5.37055540084839},"countryCode":"NL","name":"Amersfoort Centraal","stationCode":"AMF","uicCode":"8400055"},"description":"vanaf het busstation, centrumzijde"},{"station":{"coordinate":{"lat":52.16652,"lng":5.45718},"countryCode":"NL","name":"Hoevelaken","stationCode":"HVL","uicCode":"8400490"},"description":"vanaf de voorzijde van het station"},{"station":{"coordinate":{"lat":52.1613883972168,"lng":5.59805536270142},"countryCode":"NL","name":"Barneveld Noord","stationCode":"BNN","uicCode":"8400092"},"description":"vanaf het P+R terrein aan de andere zijde van het spoor"},{"station":{"coordinate":{"lat":52.1399993896484,"lng":5.59027767181396},"countryCode":"NL","name":"Barneveld Centrum","stationCode":"BNC","uicCode":"8400091"},"description":"vanaf de voorzijde van het station"},{"station":{"coordinate":{"lat":52.128853,"lng":5.60246},"countryCode":"NL","name":"Barneveld Zuid","stationCode":"BNZ","uicCode":"8400115"},"description":"vanaf de voorzijde van het station"},{"station":{"coordinate":{"lat":52.085277557373,"lng":5.62444448471069},"countryCode":"NL","name":"Lunteren","stationCode":"LTN","uicCode":"8400405"},"description":"vanaf de voorzijde van het station"},{"station":{"coordinate":{"lat":52.0436096191406,"lng":5.66833353042603},"countryCode":"NL","name":"Ede Centrum","stationCode":"EDC","uicCode":"8400201"},"description":"vanaf de bushalte aan de Telefoonweg"},{"station":{"coordinate":{"lat":52.0277786254883,"lng":5.67305564880371},"countryCode":"NL","name":"Ede-Wageningen","stationCode":"ED","uicCode":"8400200"},"description":"vanaf het busstation"}],"label":"Er rijden stopbussen tussen Amersfoort Centraal, Hoevelaken, Barneveld Noord, Barneveld Centrum, Barneveld Zuid, Lunteren, Ede Centrum en Ede-Wageningen.","shortLabel":"er rijden stopbussen Amersfoort C. - Hoevelaken - Barneveld Noord - Barneveld C. - Barneveld Zuid - Lunteren - Ede C. - Ede-Wageningen"}}]},{"type":"MAINTENANCE","id":"7005089","title":"Amsterdam - Hannover - Berlin.","isActive":true,"local":false,"titleSections":[[{"type":"STATION","value":"Amsterdam C."},{"type":"ICON","value":"MAINTENANCE"},{"type":"STATION","value":"Bad Bentheim"},{"type":"STATION","value":"Berlin Hbf"}]],"registrationTime":"2024-07-16T16:16:19+0200","start":"2024-07-08T04:00:00+0200","releaseTime":"2024-07-16T16:16:19+0200","end":"2024-08-01T02:00:00+0200","period":"Maandag 8 juli 4:00 uur t/m donderdag 1 augustus 2:00 uur.","impact":{"value":2},"publicationSections":[{"section":{"stations":[{"coordinate":{"lat":52.3788871765137,"lng":4.90027761459351},"countryCode":"NL","name":"Amsterdam Centraal","stationCode":"ASD","uicCode":"8400058"},{"coordinate":{"lat":52.3605537414551,"lng":4.93111133575439},"countryCode":"NL","name":"Amsterdam Muiderpoort","stationCode":"ASDM","uicCode":"8400060"},{"coordinate":{"lat":52.35526,"lng":4.94651},"countryCode":"NL","name":"Amsterdam Science Park","stationCode":"ASSP","uicCode":"8400235"},{"coordinate":{"lat":52.34515,"lng":4.967566},"countryCode":"NL","name":"Diemen","stationCode":"DMN","uicCode":"8400165"},{"coordinate":{"lat":52.3127784729004,"lng":5.04305553436279},"countryCode":"NL","name":"Weesp","stationCode":"WP","uicCode":"8400685"},{"coordinate":{"lat":52.2802772521973,"lng":5.15694427490234},"countryCode":"NL","name":"Naarden-Bussum","stationCode":"NDB","uicCode":"8400452"},{"coordinate":{"lat":52.2658348083496,"lng":5.16305541992188},"countryCode":"NL","name":"Bussum Zuid","stationCode":"BSMZ","uicCode":"8400145"},{"coordinate":{"lat":52.2380561828613,"lng":5.17388868331909},"countryCode":"NL","name":"Hilversum Media Park","stationCode":"HVSM","uicCode":"8400324"},{"coordinate":{"lat":52.2258338928223,"lng":5.18194437026978},"countryCode":"NL","name":"Hilversum","stationCode":"HVS","uicCode":"8400322"},{"coordinate":{"lat":52.2083320617676,"lng":5.28083324432373},"countryCode":"NL","name":"Baarn","stationCode":"BRN","uicCode":"8400086"},{"coordinate":{"lat":52.1538887023926,"lng":5.37055540084839},"countryCode":"NL","name":"Amersfoort Centraal","stationCode":"AMF","uicCode":"8400055"},{"coordinate":{"lat":52.16652,"lng":5.45718},"countryCode":"NL","name":"Hoevelaken","stationCode":"HVL","uicCode":"8400490"},{"coordinate":{"lat":52.2091674804687,"lng":5.97027778625488},"countryCode":"NL","name":"Apeldoorn","stationCode":"APD","uicCode":"8400066"},{"coordinate":{"lat":52.2152786254883,"lng":6.00444459915161},"countryCode":"NL","name":"Apeldoorn Osseveld","stationCode":"APDO","uicCode":"8400229"},{"coordinate":{"lat":52.2377777099609,"lng":6.09861087799072},"countryCode":"NL","name":"Twello","stationCode":"TWL","uicCode":"8400599"},{"coordinate":{"lat":52.2574996948242,"lng":6.16055536270142},"countryCode":"NL","name":"Deventer","stationCode":"DV","uicCode":"8400173"},{"coordinate":{"lat":52.2502784729004,"lng":6.21444463729858},"countryCode":"NL","name":"Deventer Colmschate","stationCode":"DVC","uicCode":"8400185"},{"coordinate":{"lat":52.2838897705078,"lng":6.42027759552002},"countryCode":"NL","name":"Holten","stationCode":"HON","uicCode":"8400328"},{"coordinate":{"lat":52.3122215270996,"lng":6.52027797698975},"countryCode":"NL","name":"Rijssen","stationCode":"RSN","uicCode":"8400538"},{"coordinate":{"lat":52.3613891601562,"lng":6.59166669845581},"countryCode":"NL","name":"Wierden","stationCode":"WDN","uicCode":"8400691"},{"coordinate":{"lat":52.3580551147461,"lng":6.65388870239258},"countryCode":"NL","name":"Almelo","stationCode":"AML","uicCode":"8400051"},{"coordinate":{"lat":52.3419456481934,"lng":6.66666650772095},"countryCode":"NL","name":"Almelo de Riet","stationCode":"AMRI","uicCode":"8400520"},{"coordinate":{"lat":52.2988891601562,"lng":6.74805545806885},"countryCode":"NL","name":"Borne","stationCode":"BN","uicCode":"8400124"},{"coordinate":{"lat":52.2616653442383,"lng":6.79388904571533},"countryCode":"NL","name":"Hengelo","stationCode":"HGL","uicCode":"8400316"},{"coordinate":{"lat":52.2688903808594,"lng":6.81944465637207},"countryCode":"NL","name":"Hengelo Oost","stationCode":"HGLO","uicCode":"8400312"},{"coordinate":{"lat":52.3063888549805,"lng":6.93472242355347},"countryCode":"NL","name":"Oldenzaal","stationCode":"ODZ","uicCode":"8400483"},{"coordinate":{"lat":52.309685595156,"lng":7.15853691101074},"countryCode":"D","name":"Bad Bentheim","stationCode":"BH","uicCode":"8021156"},{"coordinate":{"lat":52.276299,"lng":7.434255},"countryCode":"D","name":"Rheine","stationCode":"RHEINE","uicCode":"8021067"},{"coordinate":{"lat":52.272851,"lng":8.061781},"countryCode":"D","name":"Osnabr√ºck Hbf","stationCode":"OSNH","uicCode":"8021025"},{"coordinate":{"lat":52.3770401,"lng":9.7416759},"countryCode":"D","name":"Hannover Hbf","stationCode":"HANN","uicCode":"8013552"},{"coordinate":{"lat":52.52503,"lng":13.36946},"countryCode":"D","name":"Berlin Hbf","stationCode":"BERHBL","uicCode":"8065969"}],"direction":"BOTH"},"consequence":{"section":{"stations":[{"coordinate":{"lat":52.3788871765137,"lng":4.90027761459351},"countryCode":"NL","name":"Amsterdam Centraal","stationCode":"ASD","uicCode":"8400058"},{"coordinate":{"lat":52.3605537414551,"lng":4.93111133575439},"countryCode":"NL","name":"Amsterdam Muiderpoort","stationCode":"ASDM","uicCode":"8400060"},{"coordinate":{"lat":52.35526,"lng":4.94651},"countryCode":"NL","name":"Amsterdam Science Park","stationCode":"ASSP","uicCode":"8400235"},{"coordinate":{"lat":52.34515,"lng":4.967566},"countryCode":"NL","name":"Diemen","stationCode":"DMN","uicCode":"8400165"},{"coordinate":{"lat":52.3127784729004,"lng":5.04305553436279},"countryCode":"NL","name":"Weesp","stationCode":"WP","uicCode":"8400685"},{"coordinate":{"lat":52.2802772521973,"lng":5.15694427490234},"countryCode":"NL","name":"Naarden-Bussum","stationCode":"NDB","uicCode":"8400452"},{"coordinate":{"lat":52.2658348083496,"lng":5.16305541992188},"countryCode":"NL","name":"Bussum Zuid","stationCode":"BSMZ","uicCode":"8400145"},{"coordinate":{"lat":52.2380561828613,"lng":5.17388868331909},"countryCode":"NL","name":"Hilversum Media Park","stationCode":"HVSM","uicCode":"8400324"},{"coordinate":{"lat":52.2258338928223,"lng":5.18194437026978},"countryCode":"NL","name":"Hilversum","stationCode":"HVS","uicCode":"8400322"},{"coordinate":{"lat":52.2083320617676,"lng":5.28083324432373},"countryCode":"NL","name":"Baarn","stationCode":"BRN","uicCode":"8400086"},{"coordinate":{"lat":52.1538887023926,"lng":5.37055540084839},"countryCode":"NL","name":"Amersfoort Centraal","stationCode":"AMF","uicCode":"8400055"},{"coordinate":{"lat":52.16652,"lng":5.45718},"countryCode":"NL","name":"Hoevelaken","stationCode":"HVL","uicCode":"8400490"},{"coordinate":{"lat":52.2091674804687,"lng":5.97027778625488},"countryCode":"NL","name":"Apeldoorn","stationCode":"APD","uicCode":"8400066"},{"coordinate":{"lat":52.2152786254883,"lng":6.00444459915161},"countryCode":"NL","name":"Apeldoorn Osseveld","stationCode":"APDO","uicCode":"8400229"},{"coordinate":{"lat":52.2377777099609,"lng":6.09861087799072},"countryCode":"NL","name":"Twello","stationCode":"TWL","uicCode":"8400599"},{"coordinate":{"lat":52.2574996948242,"lng":6.16055536270142},"countryCode":"NL","name":"Deventer","stationCode":"DV","uicCode":"8400173"},{"coordinate":{"lat":52.2502784729004,"lng":6.21444463729858},"countryCode":"NL","name":"Deventer Colmschate","stationCode":"DVC","uicCode":"8400185"},{"coordinate":{"lat":52.2838897705078,"lng":6.42027759552002},"countryCode":"NL","name":"Holten","stationCode":"HON","uicCode":"8400328"},{"coordinate":{"lat":52.3122215270996,"lng":6.52027797698975},"countryCode":"NL","name":"Rijssen","stationCode":"RSN","uicCode":"8400538"},{"coordinate":{"lat":52.3613891601562,"lng":6.59166669845581},"countryCode":"NL","name":"Wierden","stationCode":"WDN","uicCode":"8400691"},{"coordinate":{"lat":52.3580551147461,"lng":6.65388870239258},"countryCode":"NL","name":"Almelo","stationCode":"AML","uicCode":"8400051"},{"coordinate":{"lat":52.3419456481934,"lng":6.66666650772095},"countryCode":"NL","name":"Almelo de Riet","stationCode":"AMRI","uicCode":"8400520"},{"coordinate":{"lat":52.2988891601562,"lng":6.74805545806885},"countryCode":"NL","name":"Borne","stationCode":"BN","uicCode":"8400124"},{"coordinate":{"lat":52.2616653442383,"lng":6.79388904571533},"countryCode":"NL","name":"Hengelo","stationCode":"HGL","uicCode":"8400316"},{"coordinate":{"lat":52.2688903808594,"lng":6.81944465637207},"countryCode":"NL","name":"Hengelo Oost","stationCode":"HGLO","uicCode":"8400312"},{"coordinate":{"lat":52.3063888549805,"lng":6.93472242355347},"countryCode":"NL","name":"Oldenzaal","stationCode":"ODZ","uicCode":"8400483"},{"coordinate":{"lat":52.309685595156,"lng":7.15853691101074},"countryCode":"D","name":"Bad Bentheim","stationCode":"BH","uicCode":"8021156"}],"direction":"ONE_WAY"},"description":"int. treinen via andere route","level":"LESS_TRAINS"},"sectionType":"NEIGHBORING_COUNTRY"}],"summaryAdditionalTravelTime":{"label":"U heeft geen langere reistijd.","shortLabel":"Geen extra reistijd"},"timespans":[{"start":"2024-07-08T04:00:00+0200","end":"2024-08-01T02:00:00+0200","period":"Maandag 8 juli 4:00 uur t/m donderdag 1 augustus 2:00 uur.","situation":{"label":"Door werkzaamheden: tussen Amsterdam Centraal en Bad Bentheim rijden de internationale treinen een andere route."},"cause":{"label":"werkzaamheden"},"additionalTravelTime":{"label":"U heeft geen langere reistijd.","shortLabel":"Geen extra reistijd"},"advices":["Dit kan gevolgen hebben voor uw reis. Plan uw reis in de app."]}],"alternativeTransportTimespans":[]},{"type":"MAINTENANCE","id":"7005022","title":"Den Haag - Rotterdam.","isActive":true,"local":false,"titleSections":[[{"type":"STATION","value":"Den Haag HS"},{"type":"ICON","value":"MAINTENANCE"},{"type":"STATION","value":"Rotterdam C."}],[{"type":"STATION","value":"Den Haag C."},{"type":"ICON","value":"MAINTENANCE"},{"type":"STATION","value":"Schiedam C."},{"type":"STATION","value":"Rotterdam C."}]],"registrationTime":"2024-07-14T11:57:21+0200","start":"2024-07-13T00:45:00+0200","releaseTime":"2024-07-14T11:57:21+0200","end":"2024-07-27T06:15:00+0200","period":"Zaterdag 13 juli 0:45 uur t/m zaterdag 27 juli 6:15 uur.","impact":{"value":5},"publicationSections":[{"section":{"stations":[{"coordinate":{"lat":52.0697212219238,"lng":4.32250022888184},"countryCode":"NL","name":"Den Haag HS","stationCode":"GV","uicCode":"8400280"},{"coordinate":{"lat":52.0538902282715,"lng":4.3086109161377},"countryCode":"NL","name":"Den Haag Moerwijk","stationCode":"GVMW","uicCode":"8400279"},{"coordinate":{"lat":52.039722442627,"lng":4.31916666030884},"countryCode":"NL","name":"Rijswijk","stationCode":"RSW","uicCode":"8400505"},{"coordinate":{"lat":52.0066680908203,"lng":4.35638904571533},"countryCode":"NL","name":"Delft","stationCode":"DT","uicCode":"8400170"},{"coordinate":{"lat":51.9908332824707,"lng":4.36472225189209},"countryCode":"NL","name":"Delft Campus","stationCode":"DTCP","uicCode":"8400166"},{"coordinate":{"lat":51.9212438128032,"lng":4.4089937210083},"countryCode":"NL","name":"Schiedam Centrum","stationCode":"SDM","uicCode":"8400553"},{"coordinate":{"lat":51.9249992370605,"lng":4.46888875961304},"countryCode":"NL","name":"Rotterdam Centraal","stationCode":"RTD","uicCode":"8400530"}],"direction":"BOTH"},"consequence":{"section":{"stations":[{"coordinate":{"lat":52.0697212219238,"lng":4.32250022888184},"countryCode":"NL","name":"Den Haag HS","stationCode":"GV","uicCode":"8400280"},{"coordinate":{"lat":52.0538902282715,"lng":4.3086109161377},"countryCode":"NL","name":"Den Haag Moerwijk","stationCode":"GVMW","uicCode":"8400279"},{"coordinate":{"lat":52.039722442627,"lng":4.31916666030884},"countryCode":"NL","name":"Rijswijk","stationCode":"RSW","uicCode":"8400505"},{"coordinate":{"lat":52.0066680908203,"lng":4.35638904571533},"countryCode":"NL","name":"Delft","stationCode":"DT","uicCode":"8400170"},{"coordinate":{"lat":51.9908332824707,"lng":4.36472225189209},"countryCode":"NL","name":"Delft Campus","stationCode":"DTCP","uicCode":"8400166"},{"coordinate":{"lat":51.9212438128032,"lng":4.4089937210083},"countryCode":"NL","name":"Schiedam Centrum","stationCode":"SDM","uicCode":"8400553"},{"coordinate":{"lat":51.9249992370605,"lng":4.46888875961304},"countryCode":"NL","name":"Rotterdam Centraal","stationCode":"RTD","uicCode":"8400530"}],"direction":"ONE_WAY"},"description":"rijden bussen","level":"LESS_TRAINS"},"sectionType":"NL"},{"section":{"stations":[{"coordinate":{"lat":52.0802764892578,"lng":4.32499980926514},"countryCode":"NL","name":"Den Haag Centraal","stationCode":"GVC","uicCode":"8400282"},{"coordinate":{"lat":52.0697212219238,"lng":4.32250022888184},"countryCode":"NL","name":"Den Haag HS","stationCode":"GV","uicCode":"8400280"},{"coordinate":{"lat":52.0538902282715,"lng":4.3086109161377},"countryCode":"NL","name":"Den Haag Moerwijk","stationCode":"GVMW","uicCode":"8400279"},{"coordinate":{"lat":52.039722442627,"lng":4.31916666030884},"countryCode":"NL","name":"Rijswijk","stationCode":"RSW","uicCode":"8400505"},{"coordinate":{"lat":52.0066680908203,"lng":4.35638904571533},"countryCode":"NL","name":"Delft","stationCode":"DT","uicCode":"8400170"},{"coordinate":{"lat":51.9908332824707,"lng":4.36472225189209},"countryCode":"NL","name":"Delft Campus","stationCode":"DTCP","uicCode":"8400166"},{"coordinate":{"lat":51.9212438128032,"lng":4.4089937210083},"countryCode":"NL","name":"Schiedam Centrum","stationCode":"SDM","uicCode":"8400553"},{"coordinate":{"lat":51.9249992370605,"lng":4.46888875961304},"countryCode":"NL","name":"Rotterdam Centraal","stationCode":"RTD","uicCode":"8400530"}],"direction":"BOTH"},"consequence":{"section":{"stations":[{"coordinate":{"lat":52.0802764892578,"lng":4.32499980926514},"countryCode":"NL","name":"Den Haag Centraal","stationCode":"GVC","uicCode":"8400282"},{"coordinate":{"lat":52.0697212219238,"lng":4.32250022888184},"countryCode":"NL","name":"Den Haag HS","stationCode":"GV","uicCode":"8400280"},{"coordinate":{"lat":52.0538902282715,"lng":4.3086109161377},"countryCode":"NL","name":"Den Haag Moerwijk","stationCode":"GVMW","uicCode":"8400279"},{"coordinate":{"lat":52.039722442627,"lng":4.31916666030884},"countryCode":"NL","name":"Rijswijk","stationCode":"RSW","uicCode":"8400505"},{"coordinate":{"lat":52.0066680908203,"lng":4.35638904571533},"countryCode":"NL","name":"Delft","stationCode":"DT","uicCode":"8400170"},{"coordinate":{"lat":51.9908332824707,"lng":4.36472225189209},"countryCode":"NL","name":"Delft Campus","stationCode":"DTCP","uicCode":"8400166"},{"coordinate":{"lat":51.9212438128032,"lng":4.4089937210083},"countryCode":"NL","name":"Schiedam Centrum","stationCode":"SDM","uicCode":"8400553"}],"direction":"ONE_WAY"},"description":"rijden bussen","level":"LESS_TRAINS"},"sectionType":"NL"}],"summaryAdditionalTravelTime":{"label":"De extra reistijd kan oplopen tot 30 minuten.","shortLabel":"Extra reistijd tot 30 min.","minimumDurationInMinutes":30,"maximumDurationInMinutes":30},"timespans":[{"start":"2024-07-13T00:45:00+0200","end":"2024-07-25T04:00:00+0200","period":"Zaterdag 13 juli 0:45 uur t/m donderdag 25 juli 4:00 uur.","situation":{"label":"Door werkzaamheden: tussen Den Haag HS en Rotterdam Centraal rijden er bussen."},"cause":{"label":"werkzaamheden"},"additionalTravelTime":{"label":"De extra reistijd is ongeveer 30 minuten.","shortLabel":"extra reistijd 30 min.","minimumDurationInMinutes":30,"maximumDurationInMinutes":30},"alternativeTransport":{"label":"maak gebruik van het vervangende vervoer","shortLabel":"gebruik het vervangende vervoer"},"advices":["Mijd de spits! We verwachten grote drukte bij de bussen. Mijd ook RET metrolijn E tussen Rotterdam C en Den Haag C door beperkte capaciteit.","tussen Den Haag C. en Rotterdam C. reis via Gouda"]},{"start":"2024-07-25T04:00:00+0200","end":"2024-07-27T06:15:00+0200","period":"Donderdag 25 juli 4:00 uur t/m zaterdag 27 juli 6:15 uur.","situation":{"label":"Door werkzaamheden: tussen Den Haag Centraal en Schiedam Centrum rijden er bussen."},"cause":{"label":"werkzaamheden"},"additionalTravelTime":{"label":"De extra reistijd is ongeveer 30 minuten.","shortLabel":"extra reistijd 30 min.","minimumDurationInMinutes":30,"maximumDurationInMinutes":30},"alternativeTransport":{"label":"maak gebruik van het vervangende vervoer","shortLabel":"gebruik het vervangende vervoer"},"advices":["Mijd de spits! We verwachten grote drukte bij de bussen. Mijd ook RET metrolijn E tussen Rotterdam C en Den Haag C door beperkte capaciteit.","tussen Den Haag C. en Rotterdam C. reis via Gouda"]}],"alternativeTransportTimespans":[{"start":"2024-07-13T00:45:00+0200","end":"2024-07-13T05:20:00+0200","alternativeTransport":{"location":[{"station":{"coordinate":{"lat":52.0697212219238,"lng":4.32250022888184},"countryCode":"NL","name":"Den Haag HS","stationCode":"GV","uicCode":"8400280"},"description":"vanaf de achterzijde van het station"},{"station":{"coordinate":{"lat":52.0066680908203,"lng":4.35638904571533},"countryCode":"NL","name":"Delft","stationCode":"DT","uicCode":"8400170"},"description":"vanaf de voorzijde van het station, aan de Coenderstraat"}],"label":"Er rijden snelbussen tussen Den Haag HS en Delft.","shortLabel":"er rijden snelbussen Den Haag HS - Delft"}},{"start":"2024-07-13T00:45:00+0200","end":"2024-07-13T05:20:00+0200","alternativeTransport":{"location":[{"station":{"coordinate":{"lat":52.0066680908203,"lng":4.35638904571533},"countryCode":"NL","name":"Delft","stationCode":"DT","uicCode":"8400170"},"description":"vanaf de voorzijde van het station, aan de Coenderstraat"},{"station":{"coordinate":{"lat":51.9249992370605,"lng":4.46888875961304},"countryCode":"NL","name":"Rotterdam Centraal","stationCode":"RTD","uicCode":"8400530"},"description":"vanaf de Conradstraat aan de centrumzijde"}],"label":"Er rijden snelbussen tussen Delft en Rotterdam Centraal.","shortLabel":"er rijden snelbussen Delft - Rotterdam C."}},{"start":"2024-07-13T06:00:00+0200","end":"2024-07-14T01:00:00+0200","alternativeTransport":{"location":[{"station":{"coordinate":{"lat":52.0697212219238,"lng":4.32250022888184},"countryCode":"NL","name":"Den Haag HS","stationCode":"GV","uicCode":"8400280"},"description":"vanaf de achterzijde van het station"},{"station":{"coordinate":{"lat":52.0066680908203,"lng":4.35638904571533},"countryCode":"NL","name":"Delft","stationCode":"DT","uicCode":"8400170"},"description":"vanaf de voorzijde van het station, aan de Coenderstraat"}],"label":"Er rijden snelbussen tussen Den Haag HS en Delft.","shortLabel":"er rijden snelbussen Den Haag HS - Delft"}},{"start":"2024-07-13T06:00:00+0200","end":"2024-07-14T01:00:00+0200","alternativeTransport":{"location":[{"station":{"coordinate":{"lat":52.0066680908203,"lng":4.35638904571533},"countryCode":"NL","name":"Delft","stationCode":"DT","uicCode":"8400170"},"description":"vanaf de voorzijde van het station, aan de Coenderstraat"},{"station":{"coordinate":{"lat":51.9249992370605,"lng":4.46888875961304},"countryCode":"NL","name":"Rotterdam Centraal","stationCode":"RTD","uicCode":"8400530"},"description":"vanaf de Conradstraat aan de centrumzijde"}],"label":"Er rijden snelbussen tussen Delft en Rotterdam Centraal.","shortLabel":"er rijden snelbussen Delft - Rotterdam C."}},{"start":"2024-07-13T06:00:00+0200","end":"2024-07-14T01:00:00+0200","alternativeTransport":{"location":[{"station":{"coordinate":{"lat":52.0697212219238,"lng":4.32250022888184},"countryCode":"NL","name":"Den Haag HS","stationCode":"GV","uicCode":"8400280"},"description":"vanaf de achterzijde van het station"},{"station":{"coordinate":{"lat":52.0538902282715,"lng":4.3086109161377},"countryCode":"NL","name":"Den Haag Moerwijk","stationCode":"GVMW","uicCode":"8400279"},"description":"vanaf de bushalte"},{"station":{"coordinate":{"lat":52.039722442627,"lng":4.31916666030884},"countryCode":"NL","name":"Rijswijk","stationCode":"RSW","uicCode":"8400505"},"description":"vanaf de Sir Winston Churchilllaan"},{"station":{"coordinate":{"lat":52.0066680908203,"lng":4.35638904571533},"countryCode":"NL","name":"Delft","stationCode":"DT","uicCode":"8400170"},"description":"vanaf de voorzijde van het station, aan de Coenderstraat"},{"station":{"coordinate":{"lat":51.9212438128032,"lng":4.4089937210083},"countryCode":"NL","name":"Schiedam Centrum","stationCode":"SDM","uicCode":"8400553"},"description":"vanaf de Horvathweg"},{"station":{"coordinate":{"lat":51.9249992370605,"lng":4.46888875961304},"countryCode":"NL","name":"Rotterdam Centraal","stationCode":"RTD","uicCode":"8400530"},"description":"vanaf de Conradstraat aan de centrumzijde"}],"label":"Er rijden stopbussen tussen Den Haag HS, Den Haag Moerwijk, Rijswijk, Delft, Schiedam Centrum en Rotterdam Centraal.","shortLabel":"er rijden stopbussen Den Haag HS - Moerwijk - Rijswijk - Delft - Schiedam C. - Rotterdam C."}},{"start":"2024-07-13T06:00:00+0200","end":"2024-07-14T01:00:00+0200","alternativeTransport":{"location":[{"station":{"coordinate":{"lat":52.0066680908203,"lng":4.35638904571533},"countryCode":"NL","name":"Delft","stationCode":"DT","uicCode":"8400170"},"description":"vanaf de voorzijde van het station, aan de Coenderstraat"},{"station":{"coordinate":{"lat":51.9908332824707,"lng":4.36472225189209},"countryCode":"NL","name":"Delft Campus","stationCode":"DTCP","uicCode":"8400166"},"description":"vanaf het Stationsplein"}],"label":"Er rijden taxibusjes tussen Delft en Delft Campus.","shortLabel":"er rijden taxibusjes Delft - Delft Campus"}},{"start":"2024-07-14T00:50:00+0200","end":"2024-07-14T05:15:00+0200","alternativeTransport":{"location":[{"station":{"coordinate":{"lat":52.0697212219238,"lng":4.32250022888184},"countryCode":"NL","name":"Den Haag HS","stationCode":"GV","uicCode":"8400280"},"description":"vanaf de achterzijde van het station"},{"station":{"coordinate":{"lat":52.0066680908203,"lng":4.35638904571533},"countryCode":"NL","name":"Delft","stationCode":"DT","uicCode":"8400170"},"description":"vanaf het busplatform"},{"station":{"coordinate":{"lat":51.9249992370605,"lng":4.46888875961304},"countryCode":"NL","name":"Rotterdam Centraal","stationCode":"RTD","uicCode":"8400530"},"description":"vanaf de Conradstraat aan de centrumzijde"}],"label":"Er rijden snelbussen tussen Den Haag HS, Delft en Rotterdam Centraal.","shortLabel":"er rijden snelbussen Den Haag HS - Delft - Rotterdam C."}},{"start":"2024-07-14T06:00:00+0200","end":"2024-07-15T01:00:00+0200","alternativeTransport":{"location":[{"station":{"coordinate":{"lat":52.0697212219238,"lng":4.32250022888184},"countryCode":"NL","name":"Den Haag HS","stationCode":"GV","uicCode":"8400280"},"description":"vanaf de achterzijde van het station"},{"station":{"coordinate":{"lat":52.0066680908203,"lng":4.35638904571533},"countryCode":"NL","name":"Delft","stationCode":"DT","uicCode":"8400170"},"description":"vanaf de voorzijde van het station, aan de Coenderstraat"}],"label":"Er rijden snelbussen tussen Den Haag HS en Delft.","shortLabel":"er rijden snelbussen Den Haag HS - Delft"}},{"start":"2024-07-14T06:00:00+0200","end":"2024-07-15T01:00:00+0200","alternativeTransport":{"location":[{"station":{"coordinate":{"lat":52.0066680908203,"lng":4.35638904571533},"countryCode":"NL","name":"Delft","stationCode":"DT","uicCode":"8400170"},"description":"vanaf de voorzijde van het station, aan de Coenderstraat"},{"station":{"coordinate":{"lat":51.9249992370605,"lng":4.46888875961304},"countryCode":"NL","name":"Rotterdam Centraal","stationCode":"RTD","uicCode":"8400530"},"description":"vanaf de Conradstraat aan de centrumzijde"}],"label":"Er rijden snelbussen tussen Delft en Rotterdam Centraal.","shortLabel":"er rijden snelbussen Delft - Rotterdam C."}},{"start":"2024-07-14T06:00:00+0200","end":"2024-07-15T01:00:00+0200","alternativeTransport":{"location":[{"station":{"coordinate":{"lat":52.0697212219238,"lng":4.32250022888184},"countryCode":"NL","name":"Den Haag HS","stationCode":"GV","uicCode":"8400280"},"description":"vanaf de achterzijde van het station"},{"station":{"coordinate":{"lat":52.0538902282715,"lng":4.3086109161377},"countryCode":"NL","name":"Den Haag Moerwijk","stationCode":"GVMW","uicCode":"8400279"},"description":"vanaf de bushalte"},{"station":{"coordinate":{"lat":52.039722442627,"lng":4.31916666030884},"countryCode":"NL","name":"Rijswijk","stationCode":"RSW","uicCode":"8400505"},"description":"vanaf de Sir Winston Churchilllaan"},{"station":{"coordinate":{"lat":52.0066680908203,"lng":4.35638904571533},"countryCode":"NL","name":"Delft","stationCode":"DT","uicCode":"8400170"},"description":"vanaf de voorzijde van het station, aan de Coenderstraat"},{"station":{"coordinate":{"lat":51.9212438128032,"lng":4.4089937210083},"countryCode":"NL","name":"Schiedam Centrum","stationCode":"SDM","uicCode":"8400553"},"description":"vanaf de Horvathweg"},{"station":{"coordinate":{"lat":51.9249992370605,"lng":4.46888875961304},"countryCode":"NL","name":"Rotterdam Centraal","stationCode":"RTD","uicCode":"8400530"},"description":"vanaf de Conradstraat aan de centrumzijde"}],"label":"Er rijden stopbussen tussen Den Haag HS, Den Haag Moerwijk, Rijswijk, Delft, Schiedam Centrum en Rotterdam Centraal.","shortLabel":"er rijden stopbussen Den Haag HS - Moerwijk - Rijswijk - Delft - Schiedam C. - Rotterdam C."}},{"start":"2024-07-14T06:00:00+0200","end":"2024-07-15T01:00:00+0200","alternativeTransport":{"location":[{"station":{"coordinate":{"lat":52.0066680908203,"lng":4.35638904571533},"countryCode":"NL","name":"Delft","stationCode":"DT","uicCode":"8400170"},"description":"vanaf de voorzijde van het station, aan de Coenderstraat"},{"station":{"coordinate":{"lat":51.9908332824707,"lng":4.36472225189209},"countryCode":"NL","name":"Delft Campus","stationCode":"DTCP","uicCode":"8400166"},"description":"vanaf het Stationsplein"}],"label":"Er rijden taxibusjes tussen Delft en Delft Campus.","shortLabel":"er rijden taxibusjes Delft - Delft Campus"}},{"start":"2024-07-15T01:10:00+0200","end":"2024-07-15T05:00:00+0200","alternativeTransport":{"location":[{"station":{"coordinate":{"lat":52.0697212219238,"lng":4.32250022888184},"countryCode":"NL","name":"Den Haag HS","stationCode":"GV","uicCode":"8400280"},"description":"vanaf de achterzijde van het station"},{"station":{"coordinate":{"lat":52.0066680908203,"lng":4.35638904571533},"countryCode":"NL","name":"Delft","stationCode":"DT","uicCode":"8400170"},"description":"vanaf de voorzijde van het station, aan de Coenderstraat"}],"label":"Er rijden snelbussen tussen Den Haag HS en Delft.","shortLabel":"er rijden snelbussen Den Haag HS - Delft"}},{"start":"2024-07-15T01:10:00+0200","end":"2024-07-15T05:00:00+0200","alternativeTransport":{"location":[{"station":{"coordinate":{"lat":52.0066680908203,"lng":4.35638904571533},"countryCode":"NL","name":"Delft","stationCode":"DT","uicCode":"8400170"},"description":"vanaf de voorzijde van het station, aan de Coenderstraat"},{"station":{"coordinate":{"lat":51.9249992370605,"lng":4.46888875961304},"countryCode":"NL","name":"Rotterdam Centraal","stationCode":"RTD","uicCode":"8400530"},"description":"vanaf de Conradstraat aan de centrumzijde"}],"label":"Er rijden snelbussen tussen Delft en Rotterdam Centraal.","shortLabel":"er rijden snelbussen Delft - Rotterdam C."}},{"start":"2024-07-15T05:00:00+0200","end":"2024-07-16T01:00:00+0200","alternativeTransport":{"location":[{"station":{"coordinate":{"lat":52.0697212219238,"lng":4.32250022888184},"countryCode":"NL","name":"Den Haag HS","stationCode":"GV","uicCode":"8400280"},"description":"vanaf de achterzijde van het station"},{"station":{"coordinate":{"lat":52.0066680908203,"lng":4.35638904571533},"countryCode":"NL","name":"Delft","stationCode":"DT","uicCode":"8400170"},"description":"vanaf de voorzijde van het station, aan de Coenderstraat"}],"label":"Er rijden snelbussen tussen Den Haag HS en Delft.","shortLabel":"er rijden snelbussen Den Haag HS - Delft"}},{"start":"2024-07-15T05:00:00+0200","end":"2024-07-16T01:00:00+0200","alternativeTransport":{"location":[{"station":{"coordinate":{"lat":52.0066680908203,"lng":4.35638904571533},"countryCode":"NL","name":"Delft","stationCode":"DT","uicCode":"8400170"},"description":"vanaf de voorzijde van het station, aan de Coenderstraat"},{"station":{"coordinate":{"lat":51.9249992370605,"lng":4.46888875961304},"countryCode":"NL","name":"Rotterdam Centraal","stationCode":"RTD","uicCode":"8400530"},"description":"vanaf de Conradstraat aan de centrumzijde"}],"label":"Er rijden snelbussen tussen Delft en Rotterdam Centraal.","shortLabel":"er rijden snelbussen Delft - Rotterdam C."}},{"start":"2024-07-15T05:00:00+0200","end":"2024-07-16T01:00:00+0200","alternativeTransport":{"location":[{"station":{"coordinate":{"lat":52.0697212219238,"lng":4.32250022888184},"countryCode":"NL","name":"Den Haag HS","stationCode":"GV","uicCode":"8400280"},"description":"vanaf de achterzijde van het station"},{"station":{"coordinate":{"lat":52.0538902282715,"lng":4.3086109161377},"countryCode":"NL","name":"Den Haag Moerwijk","stationCode":"GVMW","uicCode":"8400279"},"description":"vanaf de bushalte"},{"station":{"coordinate":{"lat":52.039722442627,"lng":4.31916666030884},"countryCode":"NL","name":"Rijswijk","stationCode":"RSW","uicCode":"8400505"},"description":"vanaf de Sir Winston Churchilllaan"},{"station":{"coordinate":{"lat":52.0066680908203,"lng":4.35638904571533},"countryCode":"NL","name":"Delft","stationCode":"DT","uicCode":"8400170"},"description":"vanaf de voorzijde van het station, aan de Coenderstraat"},{"station":{"coordinate":{"lat":51.9212438128032,"lng":4.4089937210083},"countryCode":"NL","name":"Schiedam Centrum","stationCode":"SDM","uicCode":"8400553"},"description":"vanaf de Horvathweg"},{"station":{"coordinate":{"lat":51.9249992370605,"lng":4.46888875961304},"countryCode":"NL","name":"Rotterdam Centraal","stationCode":"RTD","uicCode":"8400530"},"description":"vanaf de Conradstraat aan de centrumzijde"}],"label":"Er rijden stopbussen tussen Den Haag HS, Den Haag Moerwijk, Rijswijk, Delft, Schiedam Centrum en Rotterdam Centraal.","shortLabel":"er rijden stopbussen Den Haag HS - Moerwijk - Rijswijk - Delft - Schiedam C. - Rotterdam C."}},{"start":"2024-07-15T05:00:00+0200","end":"2024-07-16T01:00:00+0200","alternativeTransport":{"location":[{"station":{"coordinate":{"lat":52.0066680908203,"lng":4.35638904571533},"countryCode":"NL","name":"Delft","stationCode":"DT","uicCode":"8400170"},"description":"vanaf de voorzijde van het station, aan de Coenderstraat"},{"station":{"coordinate":{"lat":51.9908332824707,"lng":4.36472225189209},"countryCode":"NL","name":"Delft Campus","stationCode":"DTCP","uicCode":"8400166"},"description":"vanaf het Stationsplein"}],"label":"Er rijden taxibusjes tussen Delft en Delft Campus.","shortLabel":"er rijden taxibusjes Delft - Delft Campus"}},{"start":"2024-07-16T01:10:00+0200","end":"2024-07-16T05:00:00+0200","alternativeTransport":{"location":[{"station":{"coordinate":{"lat":52.0697212219238,"lng":4.32250022888184},"countryCode":"NL","name":"Den Haag HS","stationCode":"GV","uicCode":"8400280"},"description":"vanaf de achterzijde van het station"},{"station":{"coordinate":{"lat":52.0066680908203,"lng":4.35638904571533},"countryCode":"NL","name":"Delft","stationCode":"DT","uicCode":"8400170"},"description":"vanaf de voorzijde van het station, aan de Coenderstraat"}],"label":"Er rijden snelbussen tussen Den Haag HS en Delft.","shortLabel":"er rijden snelbussen Den Haag HS - Delft"}},{"start":"2024-07-16T01:10:00+0200","end":"2024-07-16T05:00:00+0200","alternativeTransport":{"location":[{"station":{"coordinate":{"lat":52.0066680908203,"lng":4.35638904571533},"countryCode":"NL","name":"Delft","stationCode":"DT","uicCode":"8400170"},"description":"vanaf de voorzijde van het station, aan de Coenderstraat"},{"station":{"coordinate":{"lat":51.9249992370605,"lng":4.46888875961304},"countryCode":"NL","name":"Rotterdam Centraal","stationCode":"RTD","uicCode":"8400530"},"description":"vanaf de Conradstraat aan de centrumzijde"}],"label":"Er rijden snelbussen tussen Delft en Rotterdam Centraal.","shortLabel":"er rijden snelbussen Delft - Rotterdam C."}},{"start":"2024-07-16T05:00:00+0200","end":"2024-07-17T01:00:00+0200","alternativeTransport":{"location":[{"station":{"coordinate":{"lat":52.0697212219238,"lng":4.32250022888184},"countryCode":"NL","name":"Den Haag HS","stationCode":"GV","uicCode":"8400280"},"description":"vanaf de achterzijde van het station"},{"station":{"coordinate":{"lat":52.0066680908203,"lng":4.35638904571533},"countryCode":"NL","name":"Delft","stationCode":"DT","uicCode":"8400170"},"description":"vanaf de voorzijde van het station, aan de Coenderstraat"}],"label":"Er rijden snelbussen tussen Den Haag HS en Delft.","shortLabel":"er rijden snelbussen Den Haag HS - Delft"}},{"start":"2024-07-16T05:00:00+0200","end":"2024-07-17T01:00:00+0200","alternativeTransport":{"location":[{"station":{"coordinate":{"lat":52.0066680908203,"lng":4.35638904571533},"countryCode":"NL","name":"Delft","stationCode":"DT","uicCode":"8400170"},"description":"vanaf de voorzijde van het station, aan de Coenderstraat"},{"station":{"coordinate":{"lat":51.9249992370605,"lng":4.46888875961304},"countryCode":"NL","name":"Rotterdam Centraal","stationCode":"RTD","uicCode":"8400530"},"description":"vanaf de Conradstraat aan de centrumzijde"}],"label":"Er rijden snelbussen tussen Delft en Rotterdam Centraal.","shortLabel":"er rijden snelbussen Delft - Rotterdam C."}},{"start":"2024-07-16T05:00:00+0200","end":"2024-07-17T01:00:00+0200","alternativeTransport":{"location":[{"station":{"coordinate":{"lat":52.0697212219238,"lng":4.32250022888184},"countryCode":"NL","name":"Den Haag HS","stationCode":"GV","uicCode":"8400280"},"description":"vanaf de achterzijde van het station"},{"station":{"coordinate":{"lat":52.0538902282715,"lng":4.3086109161377},"countryCode":"NL","name":"Den Haag Moerwijk","stationCode":"GVMW","uicCode":"8400279"},"description":"vanaf de bushalte"},{"station":{"coordinate":{"lat":52.039722442627,"lng":4.31916666030884},"countryCode":"NL","name":"Rijswijk","stationCode":"RSW","uicCode":"8400505"},"description":"vanaf de Sir Winston Churchilllaan"},{"station":{"coordinate":{"lat":52.0066680908203,"lng":4.35638904571533},"countryCode":"NL","name":"Delft","stationCode":"DT","uicCode":"8400170"},"description":"vanaf de voorzijde van het station, aan de Coenderstraat"},{"station":{"coordinate":{"lat":51.9212438128032,"lng":4.4089937210083},"countryCode":"NL","name":"Schiedam Centrum","stationCode":"SDM","uicCode":"8400553"},"description":"vanaf de Horvathweg"},{"station":{"coordinate":{"lat":51.9249992370605,"lng":4.46888875961304},"countryCode":"NL","name":"Rotterdam Centraal","stationCode":"RTD","uicCode":"8400530"},"description":"vanaf de Conradstraat aan de centrumzijde"}],"label":"Er rijden stopbussen tussen Den Haag HS, Den Haag Moerwijk, Rijswijk, Delft, Schiedam Centrum en Rotterdam Centraal.","shortLabel":"er rijden stopbussen Den Haag HS - Moerwijk - Rijswijk - Delft - Schiedam C. - Rotterdam C."}},{"start":"2024-07-16T05:00:00+0200","end":"2024-07-17T01:00:00+0200","alternativeTransport":{"location":[{"station":{"coordinate":{"lat":52.0066680908203,"lng":4.35638904571533},"countryCode":"NL","name":"Delft","stationCode":"DT","uicCode":"8400170"},"description":"vanaf de voorzijde van het station, aan de Coenderstraat"},{"station":{"coordinate":{"lat":51.9908332824707,"lng":4.36472225189209},"countryCode":"NL","name":"Delft Campus","stationCode":"DTCP","uicCode":"8400166"},"description":"vanaf het Stationsplein"}],"label":"Er rijden taxibusjes tussen Delft en Delft Campus.","shortLabel":"er rijden taxibusjes Delft - Delft Campus"}},{"start":"2024-07-17T01:10:00+0200","end":"2024-07-17T05:00:00+0200","alternativeTransport":{"location":[{"station":{"coordinate":{"lat":52.0697212219238,"lng":4.32250022888184},"countryCode":"NL","name":"Den Haag HS","stationCode":"GV","uicCode":"8400280"},"description":"vanaf de achterzijde van het station"},{"station":{"coordinate":{"lat":52.0066680908203,"lng":4.35638904571533},"countryCode":"NL","name":"Delft","stationCode":"DT","uicCode":"8400170"},"description":"vanaf de voorzijde van het station, aan de Coenderstraat"}],"label":"Er rijden snelbussen tussen Den Haag HS en Delft.","shortLabel":"er rijden snelbussen Den Haag HS - Delft"}},{"start":"2024-07-17T01:10:00+0200","end":"2024-07-17T05:00:00+0200","alternativeTransport":{"location":[{"station":{"coordinate":{"lat":52.0066680908203,"lng":4.35638904571533},"countryCode":"NL","name":"Delft","stationCode":"DT","uicCode":"8400170"},"description":"vanaf de voorzijde van het station, aan de Coenderstraat"},{"station":{"coordinate":{"lat":51.9249992370605,"lng":4.46888875961304},"countryCode":"NL","name":"Rotterdam Centraal","stationCode":"RTD","uicCode":"8400530"},"description":"vanaf de Conradstraat aan de centrumzijde"}],"label":"Er rijden snelbussen tussen Delft en Rotterdam Centraal.","shortLabel":"er rijden snelbussen Delft - Rotterdam C."}},{"start":"2024-07-17T05:00:00+0200","end":"2024-07-18T01:00:00+0200","alternativeTransport":{"location":[{"station":{"coordinate":{"lat":52.0697212219238,"lng":4.32250022888184},"countryCode":"NL","name":"Den Haag HS","stationCode":"GV","uicCode":"8400280"},"description":"vanaf de achterzijde van het station"},{"station":{"coordinate":{"lat":52.0066680908203,"lng":4.35638904571533},"countryCode":"NL","name":"Delft","stationCode":"DT","uicCode":"8400170"},"description":"vanaf de voorzijde van het station, aan de Coenderstraat"}],"label":"Er rijden snelbussen tussen Den Haag HS en Delft.","shortLabel":"er rijden snelbussen Den Haag HS - Delft"}},{"start":"2024-07-17T05:00:00+0200","end":"2024-07-18T01:00:00+0200","alternativeTransport":{"location":[{"station":{"coordinate":{"lat":52.0066680908203,"lng":4.35638904571533},"countryCode":"NL","name":"Delft","stationCode":"DT","uicCode":"8400170"},"description":"vanaf de voorzijde van het station, aan de Coenderstraat"},{"station":{"coordinate":{"lat":51.9249992370605,"lng":4.46888875961304},"countryCode":"NL","name":"Rotterdam Centraal","stationCode":"RTD","uicCode":"8400530"},"description":"vanaf de Conradstraat aan de centrumzijde"}],"label":"Er rijden snelbussen tussen Delft en Rotterdam Centraal.","shortLabel":"er rijden snelbussen Delft - Rotterdam C."}},{"start":"2024-07-17T05:00:00+0200","end":"2024-07-18T01:00:00+0200","alternativeTransport":{"location":[{"station":{"coordinate":{"lat":52.0697212219238,"lng":4.32250022888184},"countryCode":"NL","name":"Den Haag HS","stationCode":"GV","uicCode":"8400280"},"description":"vanaf de achterzijde van het station"},{"station":{"coordinate":{"lat":52.0538902282715,"lng":4.3086109161377},"countryCode":"NL","name":"Den Haag Moerwijk","stationCode":"GVMW","uicCode":"8400279"},"description":"vanaf de bushalte"},{"station":{"coordinate":{"lat":52.039722442627,"lng":4.31916666030884},"countryCode":"NL","name":"Rijswijk","stationCode":"RSW","uicCode":"8400505"},"description":"vanaf de Sir Winston Churchilllaan"},{"station":{"coordinate":{"lat":52.0066680908203,"lng":4.35638904571533},"countryCode":"NL","name":"Delft","stationCode":"DT","uicCode":"8400170"},"description":"vanaf de voorzijde van het station, aan de Coenderstraat"},{"station":{"coordinate":{"lat":51.9212438128032,"lng":4.4089937210083},"countryCode":"NL","name":"Schiedam Centrum","stationCode":"SDM","uicCode":"8400553"},"description":"vanaf de Horvathweg"},{"station":{"coordinate":{"lat":51.9249992370605,"lng":4.46888875961304},"countryCode":"NL","name":"Rotterdam Centraal","stationCode":"RTD","uicCode":"8400530"},"description":"vanaf de Conradstraat aan de centrumzijde"}],"label":"Er rijden stopbussen tussen Den Haag HS, Den Haag Moerwijk, Rijswijk, Delft, Schiedam Centrum en Rotterdam Centraal.","shortLabel":"er rijden stopbussen Den Haag HS - Moerwijk - Rijswijk - Delft - Schiedam C. - Rotterdam C."}},{"start":"2024-07-17T05:00:00+0200","end":"2024-07-18T01:00:00+0200","alternativeTransport":{"location":[{"station":{"coordinate":{"lat":52.0066680908203,"lng":4.35638904571533},"countryCode":"NL","name":"Delft","stationCode":"DT","uicCode":"8400170"},"description":"vanaf de voorzijde van het station, aan de Coenderstraat"},{"station":{"coordinate":{"lat":51.9908332824707,"lng":4.36472225189209},"countryCode":"NL","name":"Delft Campus","stationCode":"DTCP","uicCode":"8400166"},"description":"vanaf het Stationsplein"}],"label":"Er rijden taxibusjes tussen Delft en Delft Campus.","shortLabel":"er rijden taxibusjes Delft - Delft Campus"}},{"start":"2024-07-18T01:10:00+0200","end":"2024-07-18T05:00:00+0200","alternativeTransport":{"location":[{"station":{"coordinate":{"lat":52.0697212219238,"lng":4.32250022888184},"countryCode":"NL","name":"Den Haag HS","stationCode":"GV","uicCode":"8400280"},"description":"vanaf de achterzijde van het station"},{"station":{"coordinate":{"lat":52.0066680908203,"lng":4.35638904571533},"countryCode":"NL","name":"Delft","stationCode":"DT","uicCode":"8400170"},"description":"vanaf de voorzijde van het station, aan de Coenderstraat"}],"label":"Er rijden snelbussen tussen Den Haag HS en Delft.","shortLabel":"er rijden snelbussen Den Haag HS - Delft"}},{"start":"2024-07-18T01:10:00+0200","end":"2024-07-18T05:00:00+0200","alternativeTransport":{"location":[{"station":{"coordinate":{"lat":52.0066680908203,"lng":4.35638904571533},"countryCode":"NL","name":"Delft","stationCode":"DT","uicCode":"8400170"},"description":"vanaf de voorzijde van het station, aan de Coenderstraat"},{"station":{"coordinate":{"lat":51.9249992370605,"lng":4.46888875961304},"countryCode":"NL","name":"Rotterdam Centraal","stationCode":"RTD","uicCode":"8400530"},"description":"vanaf de Conradstraat aan de centrumzijde"}],"label":"Er rijden snelbussen tussen Delft en Rotterdam Centraal.","shortLabel":"er rijden snelbussen Delft - Rotterdam C."}},{"start":"2024-07-18T05:00:00+0200","end":"2024-07-19T01:00:00+0200","alternativeTransport":{"location":[{"station":{"coordinate":{"lat":52.0697212219238,"lng":4.32250022888184},"countryCode":"NL","name":"Den Haag HS","stationCode":"GV","uicCode":"8400280"},"description":"vanaf de achterzijde van het station"},{"station":{"coordinate":{"lat":52.0066680908203,"lng":4.35638904571533},"countryCode":"NL","name":"Delft","stationCode":"DT","uicCode":"8400170"},"description":"vanaf de voorzijde van het station, aan de Coenderstraat"}],"label":"Er rijden snelbussen tussen Den Haag HS en Delft.","shortLabel":"er rijden snelbussen Den Haag HS - Delft"}},{"start":"2024-07-18T05:00:00+0200","end":"2024-07-19T01:00:00+0200","alternativeTransport":{"location":[{"station":{"coordinate":{"lat":52.0066680908203,"lng":4.35638904571533},"countryCode":"NL","name":"Delft","stationCode":"DT","uicCode":"8400170"},"description":"vanaf de voorzijde van het station, aan de Coenderstraat"},{"station":{"coordinate":{"lat":51.9249992370605,"lng":4.46888875961304},"countryCode":"NL","name":"Rotterdam Centraal","stationCode":"RTD","uicCode":"8400530"},"description":"vanaf de Conradstraat aan de centrumzijde"}],"label":"Er rijden snelbussen tussen Delft en Rotterdam Centraal.","shortLabel":"er rijden snelbussen Delft - Rotterdam C."}},{"start":"2024-07-18T05:00:00+0200","end":"2024-07-19T01:00:00+0200","alternativeTransport":{"location":[{"station":{"coordinate":{"lat":52.0697212219238,"lng":4.32250022888184},"countryCode":"NL","name":"Den Haag HS","stationCode":"GV","uicCode":"8400280"},"description":"vanaf de achterzijde van het station"},{"station":{"coordinate":{"lat":52.0538902282715,"lng":4.3086109161377},"countryCode":"NL","name":"Den Haag Moerwijk","stationCode":"GVMW","uicCode":"8400279"},"description":"vanaf de bushalte"},{"station":{"coordinate":{"lat":52.039722442627,"lng":4.31916666030884},"countryCode":"NL","name":"Rijswijk","stationCode":"RSW","uicCode":"8400505"},"description":"vanaf de Sir Winston Churchilllaan"},{"station":{"coordinate":{"lat":52.0066680908203,"lng":4.35638904571533},"countryCode":"NL","name":"Delft","stationCode":"DT","uicCode":"8400170"},"description":"vanaf de voorzijde van het station, aan de Coenderstraat"},{"station":{"coordinate":{"lat":51.9212438128032,"lng":4.4089937210083},"countryCode":"NL","name":"Schiedam Centrum","stationCode":"SDM","uicCode":"8400553"},"description":"vanaf de Horvathweg"},{"station":{"coordinate":{"lat":51.9249992370605,"lng":4.46888875961304},"countryCode":"NL","name":"Rotterdam Centraal","stationCode":"RTD","uicCode":"8400530"},"description":"vanaf de Conradstraat aan de centrumzijde"}],"label":"Er rijden stopbussen tussen Den Haag HS, Den Haag Moerwijk, Rijswijk, Delft, Schiedam Centrum en Rotterdam Centraal.","shortLabel":"er rijden stopbussen Den Haag HS - Moerwijk - Rijswijk - Delft - Schiedam C. - Rotterdam C."}},{"start":"2024-07-18T05:00:00+0200","end":"2024-07-19T01:00:00+0200","alternativeTransport":{"location":[{"station":{"coordinate":{"lat":52.0066680908203,"lng":4.35638904571533},"countryCode":"NL","name":"Delft","stationCode":"DT","uicCode":"8400170"},"description":"vanaf de voorzijde van het station, aan de Coenderstraat"},{"station":{"coordinate":{"lat":51.9908332824707,"lng":4.36472225189209},"countryCode":"NL","name":"Delft Campus","stationCode":"DTCP","uicCode":"8400166"},"description":"vanaf het Stationsplein"}],"label":"Er rijden taxibusjes tussen Delft en Delft Campus.","shortLabel":"er rijden taxibusjes Delft - Delft Campus"}},{"start":"2024-07-19T01:10:00+0200","end":"2024-07-19T05:00:00+0200","alternativeTransport":{"location":[{"station":{"coordinate":{"lat":52.0697212219238,"lng":4.32250022888184},"countryCode":"NL","name":"Den Haag HS","stationCode":"GV","uicCode":"8400280"},"description":"vanaf de achterzijde van het station"},{"station":{"coordinate":{"lat":52.0066680908203,"lng":4.35638904571533},"countryCode":"NL","name":"Delft","stationCode":"DT","uicCode":"8400170"},"description":"vanaf de voorzijde van het station, aan de Coenderstraat"}],"label":"Er rijden snelbussen tussen Den Haag HS en Delft.","shortLabel":"er rijden snelbussen Den Haag HS - Delft"}},{"start":"2024-07-19T01:10:00+0200","end":"2024-07-19T05:00:00+0200","alternativeTransport":{"location":[{"station":{"coordinate":{"lat":52.0066680908203,"lng":4.35638904571533},"countryCode":"NL","name":"Delft","stationCode":"DT","uicCode":"8400170"},"description":"vanaf de voorzijde van het station, aan de Coenderstraat"},{"station":{"coordinate":{"lat":51.9249992370605,"lng":4.46888875961304},"countryCode":"NL","name":"Rotterdam Centraal","stationCode":"RTD","uicCode":"8400530"},"description":"vanaf de Conradstraat aan de centrumzijde"}],"label":"Er rijden snelbussen tussen Delft en Rotterdam Centraal.","shortLabel":"er rijden snelbussen Delft - Rotterdam C."}},{"start":"2024-07-19T05:00:00+0200","end":"2024-07-20T01:00:00+0200","alternativeTransport":{"location":[{"station":{"coordinate":{"lat":52.0697212219238,"lng":4.32250022888184},"countryCode":"NL","name":"Den Haag HS","stationCode":"GV","uicCode":"8400280"},"description":"vanaf de achterzijde van het station"},{"station":{"coordinate":{"lat":52.0066680908203,"lng":4.35638904571533},"countryCode":"NL","name":"Delft","stationCode":"DT","uicCode":"8400170"},"description":"vanaf de voorzijde van het station, aan de Coenderstraat"}],"label":"Er rijden snelbussen tussen Den Haag HS en Delft.","shortLabel":"er rijden snelbussen Den Haag HS - Delft"}},{"start":"2024-07-19T05:00:00+0200","end":"2024-07-20T01:00:00+0200","alternativeTransport":{"location":[{"station":{"coordinate":{"lat":52.0066680908203,"lng":4.35638904571533},"countryCode":"NL","name":"Delft","stationCode":"DT","uicCode":"8400170"},"description":"vanaf de voorzijde van het station, aan de Coenderstraat"},{"station":{"coordinate":{"lat":51.9249992370605,"lng":4.46888875961304},"countryCode":"NL","name":"Rotterdam Centraal","stationCode":"RTD","uicCode":"8400530"},"description":"vanaf de Conradstraat aan de centrumzijde"}],"label":"Er rijden snelbussen tussen Delft en Rotterdam Centraal.","shortLabel":"er rijden snelbussen Delft - Rotterdam C."}},{"start":"2024-07-19T05:00:00+0200","end":"2024-07-20T01:00:00+0200","alternativeTransport":{"location":[{"station":{"coordinate":{"lat":52.0697212219238,"lng":4.32250022888184},"countryCode":"NL","name":"Den Haag HS","stationCode":"GV","uicCode":"8400280"},"description":"vanaf de achterzijde van het station"},{"station":{"coordinate":{"lat":52.0538902282715,"lng":4.3086109161377},"countryCode":"NL","name":"Den Haag Moerwijk","stationCode":"GVMW","uicCode":"8400279"},"description":"vanaf de bushalte"},{"station":{"coordinate":{"lat":52.039722442627,"lng":4.31916666030884},"countryCode":"NL","name":"Rijswijk","stationCode":"RSW","uicCode":"8400505"},"description":"vanaf de Sir Winston Churchilllaan"},{"station":{"coordinate":{"lat":52.0066680908203,"lng":4.35638904571533},"countryCode":"NL","name":"Delft","stationCode":"DT","uicCode":"8400170"},"description":"vanaf de voorzijde van het station, aan de Coenderstraat"},{"station":{"coordinate":{"lat":51.9212438128032,"lng":4.4089937210083},"countryCode":"NL","name":"Schiedam Centrum","stationCode":"SDM","uicCode":"8400553"},"description":"vanaf de Horvathweg"},{"station":{"coordinate":{"lat":51.9249992370605,"lng":4.46888875961304},"countryCode":"NL","name":"Rotterdam Centraal","stationCode":"RTD","uicCode":"8400530"},"description":"vanaf de Conradstraat aan de centrumzijde"}],"label":"Er rijden stopbussen tussen Den Haag HS, Den Haag Moerwijk, Rijswijk, Delft, Schiedam Centrum en Rotterdam Centraal.","shortLabel":"er rijden stopbussen Den Haag HS - Moerwijk - Rijswijk - Delft - Schiedam C. - Rotterdam C."}},{"start":"2024-07-19T05:00:00+0200","end":"2024-07-20T01:00:00+0200","alternativeTransport":{"location":[{"station":{"coordinate":{"lat":52.0066680908203,"lng":4.35638904571533},"countryCode":"NL","name":"Delft","stationCode":"DT","uicCode":"8400170"},"description":"vanaf de voorzijde van het station, aan de Coenderstraat"},{"station":{"coordinate":{"lat":51.9908332824707,"lng":4.36472225189209},"countryCode":"NL","name":"Delft Campus","stationCode":"DTCP","uicCode":"8400166"},"description":"vanaf het Stationsplein"}],"label":"Er rijden taxibusjes tussen Delft en Delft Campus.","shortLabel":"er rijden taxibusjes Delft - Delft Campus"}},{"start":"2024-07-20T01:10:00+0200","end":"2024-07-20T05:00:00+0200","alternativeTransport":{"location":[{"station":{"coordinate":{"lat":52.0697212219238,"lng":4.32250022888184},"countryCode":"NL","name":"Den Haag HS","stationCode":"GV","uicCode":"8400280"},"description":"vanaf de achterzijde van het station"},{"station":{"coordinate":{"lat":52.0066680908203,"lng":4.35638904571533},"countryCode":"NL","name":"Delft","stationCode":"DT","uicCode":"8400170"},"description":"vanaf de voorzijde van het station, aan de Coenderstraat"}],"label":"Er rijden snelbussen tussen Den Haag HS en Delft.","shortLabel":"er rijden snelbussen Den Haag HS - Delft"}},{"start":"2024-07-20T01:10:00+0200","end":"2024-07-20T05:00:00+0200","alternativeTransport":{"location":[{"station":{"coordinate":{"lat":52.0066680908203,"lng":4.35638904571533},"countryCode":"NL","name":"Delft","stationCode":"DT","uicCode":"8400170"},"description":"vanaf de voorzijde van het station, aan de Coenderstraat"},{"station":{"coordinate":{"lat":51.9249992370605,"lng":4.46888875961304},"countryCode":"NL","name":"Rotterdam Centraal","stationCode":"RTD","uicCode":"8400530"},"description":"vanaf de Conradstraat aan de centrumzijde"}],"label":"Er rijden snelbussen tussen Delft en Rotterdam Centraal.","shortLabel":"er rijden snelbussen Delft - Rotterdam C."}},{"start":"2024-07-20T05:00:00+0200","end":"2024-07-21T01:00:00+0200","alternativeTransport":{"location":[{"station":{"coordinate":{"lat":52.0697212219238,"lng":4.32250022888184},"countryCode":"NL","name":"Den Haag HS","stationCode":"GV","uicCode":"8400280"},"description":"vanaf de achterzijde van het station"},{"station":{"coordinate":{"lat":52.0066680908203,"lng":4.35638904571533},"countryCode":"NL","name":"Delft","stationCode":"DT","uicCode":"8400170"},"description":"vanaf de voorzijde van het station, aan de Coenderstraat"}],"label":"Er rijden snelbussen tussen Den Haag HS en Delft.","shortLabel":"er rijden snelbussen Den Haag HS - Delft"}},{"start":"2024-07-20T05:00:00+0200","end":"2024-07-21T01:00:00+0200","alternativeTransport":{"location":[{"station":{"coordinate":{"lat":52.0066680908203,"lng":4.35638904571533},"countryCode":"NL","name":"Delft","stationCode":"DT","uicCode":"8400170"},"description":"vanaf de voorzijde van het station, aan de Coenderstraat"},{"station":{"coordinate":{"lat":51.9249992370605,"lng":4.46888875961304},"countryCode":"NL","name":"Rotterdam Centraal","stationCode":"RTD","uicCode":"8400530"},"description":"vanaf de Conradstraat aan de centrumzijde"}],"label":"Er rijden snelbussen tussen Delft en Rotterdam Centraal.","shortLabel":"er rijden snelbussen Delft - Rotterdam C."}},{"start":"2024-07-20T05:00:00+0200","end":"2024-07-21T01:00:00+0200","alternativeTransport":{"location":[{"station":{"coordinate":{"lat":52.0697212219238,"lng":4.32250022888184},"countryCode":"NL","name":"Den Haag HS","stationCode":"GV","uicCode":"8400280"},"description":"vanaf de achterzijde van het station"},{"station":{"coordinate":{"lat":52.0538902282715,"lng":4.3086109161377},"countryCode":"NL","name":"Den Haag Moerwijk","stationCode":"GVMW","uicCode":"8400279"},"description":"vanaf de bushalte"},{"station":{"coordinate":{"lat":52.039722442627,"lng":4.31916666030884},"countryCode":"NL","name":"Rijswijk","stationCode":"RSW","uicCode":"8400505"},"description":"vanaf de Sir Winston Churchilllaan"},{"station":{"coordinate":{"lat":52.0066680908203,"lng":4.35638904571533},"countryCode":"NL","name":"Delft","stationCode":"DT","uicCode":"8400170"},"description":"vanaf de voorzijde van het station, aan de Coenderstraat"},{"station":{"coordinate":{"lat":51.9212438128032,"lng":4.4089937210083},"countryCode":"NL","name":"Schiedam Centrum","stationCode":"SDM","uicCode":"8400553"},"description":"vanaf de Horvathweg"},{"station":{"coordinate":{"lat":51.9249992370605,"lng":4.46888875961304},"countryCode":"NL","name":"Rotterdam Centraal","stationCode":"RTD","uicCode":"8400530"},"description":"vanaf de Conradstraat aan de centrumzijde"}],"label":"Er rijden stopbussen tussen Den Haag HS, Den Haag Moerwijk, Rijswijk, Delft, Schiedam Centrum en Rotterdam Centraal.","shortLabel":"er rijden stopbussen Den Haag HS - Moerwijk - Rijswijk - Delft - Schiedam C. - Rotterdam C."}},{"start":"2024-07-20T05:00:00+0200","end":"2024-07-21T01:00:00+0200","alternativeTransport":{"location":[{"station":{"coordinate":{"lat":52.0066680908203,"lng":4.35638904571533},"countryCode":"NL","name":"Delft","stationCode":"DT","uicCode":"8400170"},"description":"vanaf de voorzijde van het station, aan de Coenderstraat"},{"station":{"coordinate":{"lat":51.9908332824707,"lng":4.36472225189209},"countryCode":"NL","name":"Delft Campus","stationCode":"DTCP","uicCode":"8400166"},"description":"vanaf het Stationsplein"}],"label":"Er rijden taxibusjes tussen Delft en Delft Campus.","shortLabel":"er rijden taxibusjes Delft - Delft Campus"}},{"start":"2024-07-21T01:10:00+0200","end":"2024-07-21T06:00:00+0200","alternativeTransport":{"location":[{"station":{"coordinate":{"lat":52.0697212219238,"lng":4.32250022888184},"countryCode":"NL","name":"Den Haag HS","stationCode":"GV","uicCode":"8400280"},"description":"vanaf de achterzijde van het station"},{"station":{"coordinate":{"lat":52.0066680908203,"lng":4.35638904571533},"countryCode":"NL","name":"Delft","stationCode":"DT","uicCode":"8400170"},"description":"vanaf de voorzijde van het station, aan de Coenderstraat"}],"label":"Er rijden snelbussen tussen Den Haag HS en Delft.","shortLabel":"er rijden snelbussen Den Haag HS - Delft"}},{"start":"2024-07-21T01:10:00+0200","end":"2024-07-21T06:00:00+0200","alternativeTransport":{"location":[{"station":{"coordinate":{"lat":52.0066680908203,"lng":4.35638904571533},"countryCode":"NL","name":"Delft","stationCode":"DT","uicCode":"8400170"},"description":"vanaf de voorzijde van het station, aan de Coenderstraat"},{"station":{"coordinate":{"lat":51.9249992370605,"lng":4.46888875961304},"countryCode":"NL","name":"Rotterdam Centraal","stationCode":"RTD","uicCode":"8400530"},"description":"vanaf de Conradstraat aan de centrumzijde"}],"label":"Er rijden snelbussen tussen Delft en Rotterdam Centraal.","shortLabel":"er rijden snelbussen Delft - Rotterdam C."}},{"start":"2024-07-21T06:00:00+0200","end":"2024-07-22T01:00:00+0200","alternativeTransport":{"location":[{"station":{"coordinate":{"lat":52.0697212219238,"lng":4.32250022888184},"countryCode":"NL","name":"Den Haag HS","stationCode":"GV","uicCode":"8400280"},"description":"vanaf de achterzijde van het station"},{"station":{"coordinate":{"lat":52.0066680908203,"lng":4.35638904571533},"countryCode":"NL","name":"Delft","stationCode":"DT","uicCode":"8400170"},"description":"vanaf de voorzijde van het station, aan de Coenderstraat"}],"label":"Er rijden snelbussen tussen Den Haag HS en Delft.","shortLabel":"er rijden snelbussen Den Haag HS - Delft"}},{"start":"2024-07-21T06:00:00+0200","end":"2024-07-22T01:00:00+0200","alternativeTransport":{"location":[{"station":{"coordinate":{"lat":52.0066680908203,"lng":4.35638904571533},"countryCode":"NL","name":"Delft","stationCode":"DT","uicCode":"8400170"},"description":"vanaf de voorzijde van het station, aan de Coenderstraat"},{"station":{"coordinate":{"lat":51.9249992370605,"lng":4.46888875961304},"countryCode":"NL","name":"Rotterdam Centraal","stationCode":"RTD","uicCode":"8400530"},"description":"vanaf de Conradstraat aan de centrumzijde"}],"label":"Er rijden snelbussen tussen Delft en Rotterdam Centraal.","shortLabel":"er rijden snelbussen Delft - Rotterdam C."}},