[{"id":"6027258","isActive":true,"topic":"disruption_6027258_nl","title":"Roosendaal-Vlissingen","type":"DISRUPTION","registrationTime":"2023-11-29T14:30:23+0100","releaseTime":"2023-11-29T14:30:23+0100","local":false,"titleSections":[[{"type":"STATION","value":"Roosendaal"},{"type":"ICON","value":"DISRUPTION"},{"type":"STATION","value":"Vlissingen"}]],"start":"2023-11-28T14:34:01+0100","end":"2023-12-01T05:00:00+0100","phase":{"id":"2","label":"Impact bekend"},"impact":{"value":2},"expectedDuration":{"description":"Dit duurt ten minste tot vrijdag 1 december 05:00 uur.","endTime":"2023-12-01T05:00:00+0100"},"publicationSections":[{"section":{"stations":[{"coordinate":{"lat":51.5402793884277,"lng":4.45833349227905},"countryCode":"NL","name":"Roosendaal","stationCode":"RSD","uicCode":"8400526"},{"coordinate":{"lat":51.4938888549805,"lng":4.29611110687256},"countryCode":"NL","name":"Bergen op Zoom","stationCode":"BGN","uicCode":"8400108"},{"coordinate":{"lat":51.422779083252,"lng":4.16111087799072},"countryCode":"NL","name":"Rilland-Bath","stationCode":"RB","uicCode":"8400521"},{"coordinate":{"lat":51.4333343505859,"lng":4.11694431304932},"countryCode":"NL","name":"Krabbendijke","stationCode":"KBD","uicCode":"8400367"},{"coordinate":{"lat":51.4650001525879,"lng":4.03722238540649},"countryCode":"NL","name":"Kruiningen-Yerseke","stationCode":"KRG","uicCode":"8400370"},{"coordinate":{"lat":51.4808349609375,"lng":3.95611119270325},"countryCode":"NL","name":"Kapelle-Biezelinge","stationCode":"BZL","uicCode":"8400354"},{"coordinate":{"lat":51.4980545043945,"lng":3.89055562019348},"countryCode":"NL","name":"Goes","stationCode":"GS","uicCode":"8400253"},{"coordinate":{"lat":51.5016670227051,"lng":3.66916656494141},"countryCode":"NL","name":"Arnemuiden","stationCode":"ARN","uicCode":"8400069"},{"coordinate":{"lat":51.4947204589844,"lng":3.61722230911255},"countryCode":"NL","name":"Middelburg","stationCode":"MDB","uicCode":"8400436"},{"coordinate":{"lat":51.4647216796875,"lng":3.59527778625488},"countryCode":"NL","name":"Vlissingen Souburg","stationCode":"VSS","uicCode":"8400653"},{"coordinate":{"lat":51.4458351135254,"lng":3.59527778625488},"countryCode":"NL","name":"Vlissingen","stationCode":"VS","uicCode":"8400652"}],"direction":"BOTH"},"consequence":{"section":{"stations":[{"coordinate":{"lat":51.5402793884277,"lng":4.45833349227905},"countryCode":"NL","name":"Roosendaal","stationCode":"RSD","uicCode":"8400526"},{"coordinate":{"lat":51.4938888549805,"lng":4.29611110687256},"countryCode":"NL","name":"Bergen op Zoom","stationCode":"BGN","uicCode":"8400108"},{"coordinate":{"lat":51.422779083252,"lng":4.16111087799072},"countryCode":"NL","name":"Rilland-Bath","stationCode":"RB","uicCode":"8400521"},{"coordinate":{"lat":51.4333343505859,"lng":4.11694431304932},"countryCode":"NL","name":"Krabbendijke","stationCode":"KBD","uicCode":"8400367"},{"coordinate":{"lat":51.4650001525879,"lng":4.03722238540649},"countryCode":"NL","name":"Kruiningen-Yerseke","stationCode":"KRG","uicCode":"8400370"},{"coordinate":{"lat":51.4808349609375,"lng":3.95611119270325},"countryCode":"NL","name":"Kapelle-Biezelinge","stationCode":"BZL","uicCode":"8400354"},{"coordinate":{"lat":51.4980545043945,"lng":3.89055562019348},"countryCode":"NL","name":"Goes","stationCode":"GS","uicCode":"8400253"},{"coordinate":{"lat":51.5016670227051,"lng":3.66916656494141},"countryCode":"NL","name":"Arnemuiden","stationCode":"ARN","uicCode":"8400069"},{"coordinate":{"lat":51.4947204589844,"lng":3.61722230911255},"countryCode":"NL","name":"Middelburg","stationCode":"MDB","uicCode":"8400436"},{"coordinate":{"lat":51.4647216796875,"lng":3.59527778625488},"countryCode":"NL","name":"Vlissingen Souburg","stationCode":"VSS","uicCode":"8400653"},{"coordinate":{"lat":51.4458351135254,"lng":3.59527778625488},"countryCode":"NL","name":"Vlissingen","stationCode":"VS","uicCode":"8400652"}],"direction":"ONE_WAY"},"description":"veel minder treinen","level":"LESS_TRAINS"},"sectionType":"NL"}],"timespans":[{"start":"2023-11-28T14:34:01+0100","end":"2023-12-01T05:00:00+0100","situation":{"label":"Tussen Roosendaal en Vlissingen rijden er veel minder treinen door een defect spoor."},"cause":{"label":"Defect spoor"},"additionalTravelTime":{"label":"De extra reistijd kan oplopen tot 60 minuten.","shortLabel":"Extra reistijd tot 60 min.","maximumDurationInMinutes":60},"advices":[]}],"alternativeTransportTimespans":[],"summaryAdditionalTravelTime":{"label":"De extra reistijd kan oplopen tot 60 minuten.","shortLabel":"Extra reistijd tot 60 min.","maximumDurationInMinutes":60}},{"id":"6027295","isActive":true,"topic":"disruption_6027295_nl","title":"Eindhoven-Deurne","type":"DISRUPTION","registrationTime":"2023-11-29T14:46:31+0100","releaseTime":"2023-11-29T14:46:31+0100","local":false,"titleSections":[[{"type":"STATION","value":"Eindhoven C."},{"type":"STATION","value":"Helmond"},{"type":"ICON","value":"DISRUPTION"},{"type":"STATION","value":"Deurne"}]],"start":"2023-11-29T14:42:29+0100","end":"2023-11-29T15:45:00+0100","phase":{"id":"1b","label":"Gevolgen bekend"},"impact":{"value":2},"expectedDuration":{"description":"Dit duurt tot ongeveer 15:45 uur.","endTime":"2023-11-29T15:45:00+0100"},"publicationSections":[{"section":{"stations":[{"coordinate":{"lat":51.4433326721191,"lng":5.48138904571533},"countryCode":"NL","name":"Eindhoven Centraal","stationCode":"EHV","uicCode":"8400206"},{"coordinate":{"lat":51.4622230529785,"lng":5.60722208023071},"countryCode":"NL","name":"Helmond Brandevoort","stationCode":"HMBV","uicCode":"8400242"},{"coordinate":{"lat":51.46794,"lng":5.63085},"countryCode":"NL","name":"Helmond 't Hout","stationCode":"HMH","uicCode":"8400300"},{"coordinate":{"lat":51.4755554199219,"lng":5.66194438934326},"countryCode":"NL","name":"Helmond","stationCode":"HM","uicCode":"8400313"},{"coordinate":{"lat":51.47068,"lng":5.70177},"countryCode":"NL","name":"Helmond Brouwhuis","stationCode":"HMBH","uicCode":"8400299"},{"coordinate":{"lat":51.4558334350586,"lng":5.78888893127441},"countryCode":"NL","name":"Deurne","stationCode":"DN","uicCode":"8400172"}],"direction":"BOTH"},"consequence":{"section":{"stations":[{"coordinate":{"lat":51.4755554199219,"lng":5.66194438934326},"countryCode":"NL","name":"Helmond","stationCode":"HM","uicCode":"8400313"},{"coordinate":{"lat":51.47068,"lng":5.70177},"countryCode":"NL","name":"Helmond Brouwhuis","stationCode":"HMBH","uicCode":"8400299"},{"coordinate":{"lat":51.4558334350586,"lng":5.78888893127441},"countryCode":"NL","name":"Deurne","stationCode":"DN","uicCode":"8400172"}],"direction":"ONE_WAY"},"description":"verstoring treindienst","level":"LESS_TRAINS"},"sectionType":"NL"}],"timespans":[{"start":"2023-11-29T14:42:29+0100","end":"2023-11-29T15:45:00+0100","situation":{"label":"Tussen Helmond en Deurne is er een verstoring in de treindienst door een defecte trein."},"cause":{"label":"Defecte trein"},"advices":[]}],"alternativeTransportTimespans":[]},{"id":"5a0f8847-9a30-4c69-8a9e-63a4804985ce","isActive":true,"title":"van/naar/via Rotterdam Centraal","topic":"disruption_5a0f8847-9a30-4c69-8a9e-63a4804985ce_nl","type":"CALAMITY","description":"Door werkzaamheden rijden op zaterdag 2 en zondag 3 december geen treinen van, naar en via Rotterdam Centraal.","priority":"PRIO_3","lastUpdated":"2023-11-29T02:04:00+0100","bodyItems":[{"type":"TEXT","content":{"text":"<p>Er rijden bussen tussen Schiedam C. en Rotterdam Lombardijen en tussen metrostation Capelsebrug en Rotterdam Lombardijen. In Rotterdam kan de metro worden gebruikt met uw NS-vervoerbewijs. Plan je reis vooraf</p>"}}],"buttons":{"position":["BOTTOM"],"items":[{"label":"Plan je reis","accessibilityLabel":"Plan je reis","url":"https://www.ns.nl/reisplanner","type":"PLANNER"}]},"url":"https://www.ns.nl/reisinformatie/calamiteiten/wahs-rtd.html"},{"id":"7004120","isActive":true,"title":"Schiphol Airport.","type":"MAINTENANCE","registrationTime":"2023-11-27T14:29:23+0100","releaseTime":"2023-11-27T14:29:23+0100","local":false,"titleSections":[[{"type":"STATION","value":"Schiphol Airport"}]],"start":"2023-11-12T04:00:00+0100","end":"2023-12-04T02:00:00+0100","period":"Zondag 12-11-2023 04:00 uur t/m maandag 04-12-2023 02:00 uur.","impact":{"value":2},"publicationSections":[{"section":{"stations":[{"coordinate":{"lat":52.3788871765137,"lng":4.90027761459351},"countryCode":"NL","name":"Amsterdam Centraal","stationCode":"ASD","uicCode":"8400058"},{"coordinate":{"lat":52.3888893127441,"lng":4.83777761459351},"countryCode":"NL","name":"Amsterdam Sloterdijk","stationCode":"ASS","uicCode":"8400059"},{"coordinate":{"lat":52.3577766418457,"lng":4.83388900756836},"countryCode":"NL","name":"Amsterdam Lelylaan","stationCode":"ASDL","uicCode":"8400079"},{"coordinate":{"lat":52.3094444274902,"lng":4.76194429397583},"countryCode":"NL","name":"Schiphol Airport","stationCode":"SHL","uicCode":"8400561"},{"coordinate":{"lat":52.2933349609375,"lng":4.70055532455444},"countryCode":"NL","name":"Hoofddorp","stationCode":"HFD","uicCode":"8400332"},{"coordinate":{"lat":52.2588882446289,"lng":4.64555549621582},"countryCode":"NL","name":"Nieuw Vennep","stationCode":"NVP","uicCode":"8400460"},{"coordinate":{"lat":52.215278,"lng":4.517222},"countryCode":"NL","name":"Sassenheim","stationCode":"SSH","uicCode":"8400603"},{"coordinate":{"lat":52.1661109924316,"lng":4.48166656494141},"countryCode":"NL","name":"Leiden Centraal","stationCode":"LEDN","uicCode":"8400390"}],"direction":"BOTH"},"consequence":{"section":{"stations":[{"coordinate":{"lat":52.3094444274902,"lng":4.76194429397583},"countryCode":"NL","name":"Schiphol Airport","stationCode":"SHL","uicCode":"8400561"}],"direction":"ONE_WAY"},"description":"dienstregeling aangepast","level":"LESS_TRAINS"},"sectionType":"NL"},{"section":{"stations":[{"coordinate":{"lat":52.2933349609375,"lng":4.70055532455444},"countryCode":"NL","name":"Hoofddorp","stationCode":"HFD","uicCode":"8400332"},{"coordinate":{"lat":52.3094444274902,"lng":4.76194429397583},"countryCode":"NL","name":"Schiphol Airport","stationCode":"SHL","uicCode":"8400561"},{"coordinate":{"lat":52.338889,"lng":4.872356},"countryCode":"NL","name":"Amsterdam Zuid","stationCode":"ASDZ","uicCode":"8400061"},{"coordinate":{"lat":52.3372230529785,"lng":4.89027786254883},"countryCode":"NL","name":"Amsterdam RAI","stationCode":"RAI","uicCode":"8400056"},{"coordinate":{"lat":52.3233337402344,"lng":4.93638896942139},"countryCode":"NL","name":"Duivendrecht","stationCode":"DVD","uicCode":"8400194"},{"coordinate":{"lat":52.3302764892578,"lng":4.95583343505859},"countryCode":"NL","name":"Diemen Zuid","stationCode":"DMNZ","uicCode":"8400163"},{"coordinate":{"lat":52.3127784729004,"lng":5.04305553436279},"countryCode":"NL","name":"Weesp","stationCode":"WP","uicCode":"8400685"},{"coordinate":{"lat":52.342778,"lng":5.151944},"countryCode":"NL","name":"Almere Poort","stationCode":"AMPO","uicCode":"8400450"},{"coordinate":{"lat":52.3675003051758,"lng":5.19027757644653},"countryCode":"NL","name":"Almere Muziekwijk","stationCode":"ALMM","uicCode":"8400082"},{"coordinate":{"lat":52.37503,"lng":5.21764},"countryCode":"NL","name":"Almere Centrum","stationCode":"ALM","uicCode":"8400080"},{"coordinate":{"lat":52.3766670227051,"lng":5.24472236633301},"countryCode":"NL","name":"Almere Parkwijk","stationCode":"ALMP","uicCode":"8400104"},{"coordinate":{"lat":52.3941650390625,"lng":5.2780556678772},"countryCode":"NL","name":"Almere Buiten","stationCode":"ALMB","uicCode":"8400081"},{"coordinate":{"lat":52.4033317565918,"lng":5.30055570602417},"countryCode":"NL","name":"Almere Oostvaarders","stationCode":"ALMO","uicCode":"8400226"}],"direction":"BOTH"},"consequence":{"section":{"stations":[{"coordinate":{"lat":52.3094444274902,"lng":4.76194429397583},"countryCode":"NL","name":"Schiphol Airport","stationCode":"SHL","uicCode":"8400561"}],"direction":"ONE_WAY"},"description":"dienstregeling aangepast","level":"LESS_TRAINS"},"sectionType":"NL"}],"timespans":[{"start":"2023-11-12T04:00:00+0100","end":"2023-12-03T04:00:00+0100","period":"Zondag 12-11-2023 04:00 uur t/m zondag 03-12-2023 04:00 uur.","situation":{"label":"Door werkzaamheden: van, via en naar Schiphol Airport is de dienstregeling aangepast."},"cause":{"label":"werkzaamheden"},"additionalTravelTime":{"label":"De extra reistijd is ongeveer 15 minuten.","shortLabel":"extra reistijd 15 min.","minimumDurationInMinutes":15,"maximumDurationInMinutes":15},"advices":["De aanpassingen in de dienstregeling kunnen per dag verschillen. Plan elke reis opnieuw."]},{"start":"2023-12-03T04:00:00+0100","end":"2023-12-04T02:00:00+0100","period":"Zondag 03-12-2023 04:00 uur t/m maandag 04-12-2023 02:00 uur.","situation":{"label":"Door werkzaamheden: van, via en naar Schiphol Airport is de dienstregeling aangepast."},"cause":{"label":"werkzaamheden"},"additionalTravelTime":{"label":"De extra reistijd is ongeveer 15 minuten.","shortLabel":"extra reistijd 15 min.","minimumDurationInMinutes":15,"maximumDurationInMinutes":15},"advices":["NS adviseert tussen Schiphol Airport en Rotterdam Centraal om te kijken naar alternatief vervoer."]}],"alternativeTransportTimespans":[],"summaryAdditionalTravelTime":{"label":"De extra reistijd kan oplopen tot 15 minuten.","shortLabel":"Extra reistijd tot 15 min.","minimumDurationInMinutes":15,"maximumDurationInMinutes":15}},{"id":"7004222","isActive":true,"title":"Utrecht - Spoorwegmuseum.","type":"MAINTENANCE","registrationTime":"2023-11-17T20:59:20+0100","releaseTime":"2023-11-17T20:59:20+0100","local":false,"titleSections":[[{"type":"STATION","value":"Utrecht C."},{"type":"ICON","value":"MAINTENANCE"},{"type":"STATION","value":"Maliebaan"}]],"start":"2023-11-18T08:00:00+0100","end":"2023-12-09T18:00:00+0100","period":"Zaterdag 18-11-2023 08:00 uur t/m zaterdag 09-12-2023 18:00 uur.","impact":{"value":3},"publicationSections":[{"section":{"stations":[{"coordinate":{"lat":52.0888900756836,"lng":5.11027765274048},"countryCode":"NL","name":"Utrecht Centraal","stationCode":"UT","uicCode":"8400621"},{"coordinate":{"lat":52.1100006103516,"lng":5.12472200393677},"countryCode":"NL","name":"Utrecht Overvecht","stationCode":"UTO","uicCode":"8400620"},{"coordinate":{"lat":52.1300010681152,"lng":5.20388889312744},"countryCode":"NL","name":"Bilthoven","stationCode":"BHV","uicCode":"8400114"},{"coordinate":{"lat":52.087776184082,"lng":5.13138866424561},"countryCode":"NL","name":"Utrecht Maliebaan","stationCode":"UTM","uicCode":"8400624"}],"direction":"BOTH"},"consequence":{"section":{"stations":[{"coordinate":{"lat":52.0888900756836,"lng":5.11027765274048},"countryCode":"NL","name":"Utrecht Centraal","stationCode":"UT","uicCode":"8400621"},{"coordinate":{"lat":52.1100006103516,"lng":5.12472200393677},"countryCode":"NL","name":"Utrecht Overvecht","stationCode":"UTO","uicCode":"8400620"},{"coordinate":{"lat":52.1300010681152,"lng":5.20388889312744},"countryCode":"NL","name":"Bilthoven","stationCode":"BHV","uicCode":"8400114"},{"coordinate":{"lat":52.087776184082,"lng":5.13138866424561},"countryCode":"NL","name":"Utrecht Maliebaan","stationCode":"UTM","uicCode":"8400624"}],"direction":"ONE_WAY"},"description":"geen treinen","level":"LESS_TRAINS"},"sectionType":"NL"}],"timespans":[{"start":"2023-11-18T08:00:00+0100","end":"2023-12-09T18:00:00+0100","period":"Zaterdag 18-11-2023 08:00 uur t/m zaterdag 09-12-2023 18:00 uur.","situation":{"label":"Door een defect spoor: tussen Utrecht Centraal en Utrecht Maliebaan rijden er geen treinen."},"cause":{"label":"defect spoor"},"advices":["U kunt gebruik maken van U-OV buslijn 8."]}],"alternativeTransportTimespans":[]},{"id":"7004221","isActive":true,"title":"Deventer - Almelo.","type":"MAINTENANCE","registrationTime":"2023-11-27T15:56:50+0100","releaseTime":"2023-11-27T15:56:50+0100","local":false,"titleSections":[[{"type":"STATION","value":"Deventer"},{"type":"STATION","value":"Wierden"},{"type":"ICON","value":"MAINTENANCE"},{"type":"STATION","value":"Almelo"}]],"start":"2023-11-22T08:30:00+0100","end":"2023-12-08T17:00:00+0100","period":"Woensdag 22-11-2023 08:30 uur t/m vrijdag 08-12-2023 17:00 uur.","impact":{"value":2},"publicationSections":[{"section":{"stations":[{"coordinate":{"lat":52.2574996948242,"lng":6.16055536270142},"countryCode":"NL","name":"Deventer","stationCode":"DV","uicCode":"8400173"},{"coordinate":{"lat":52.2502784729004,"lng":6.21444463729858},"countryCode":"NL","name":"Deventer Colmschate","stationCode":"DVC","uicCode":"8400185"},{"coordinate":{"lat":52.2838897705078,"lng":6.42027759552002},"countryCode":"NL","name":"Holten","stationCode":"HON","uicCode":"8400328"},{"coordinate":{"lat":52.3122215270996,"lng":6.52027797698975},"countryCode":"NL","name":"Rijssen","stationCode":"RSN","uicCode":"8400538"},{"coordinate":{"lat":52.3613891601562,"lng":6.59166669845581},"countryCode":"NL","name":"Wierden","stationCode":"WDN","uicCode":"8400691"},{"coordinate":{"lat":52.3580551147461,"lng":6.65388870239258},"countryCode":"NL","name":"Almelo","stationCode":"AML","uicCode":"8400051"}],"direction":"ONE_WAY"},"consequence":{"section":{"stations":[{"coordinate":{"lat":52.3613891601562,"lng":6.59166669845581},"countryCode":"NL","name":"Wierden","stationCode":"WDN","uicCode":"8400691"},{"coordinate":{"lat":52.3580551147461,"lng":6.65388870239258},"countryCode":"NL","name":"Almelo","stationCode":"AML","uicCode":"8400051"}],"direction":"ONE_WAY"},"description":"dienstregeling aangepast","level":"LESS_TRAINS"},"sectionType":"NL"}],"timespans":[{"start":"2023-11-22T08:30:00+0100","end":"2023-12-08T17:00:00+0100","period":"Woensdag 22-11-2023 08:30 uur t/m vrijdag 08-12-2023 17:00 uur.","situation":{"label":"Door gepland onderhoud: van Almelo naar Wierden is de dienstregeling aangepast."},"cause":{"label":"gepland onderhoud"},"additionalTravelTime":{"label":"U heeft geen langere reistijd.","shortLabel":"Geen extra reistijd"},"advices":["Van maandag t/m vrijdag vertrekken Sprinters van Almelo, vertrek 08.53 en 16.53 uur naar Apeldoorn, 8 minuten eerder uit Almelo."]}],"alternativeTransportTimespans":[],"summaryAdditionalTravelTime":{"label":"U heeft geen langere reistijd.","shortLabel":"Geen extra reistijd"}},{"id":"7004109","isActive":true,"title":"Arnhem - Duisburg - Düsseldorf.","type":"MAINTENANCE","registrationTime":"2023-11-27T07:17:30+0100","releaseTime":"2023-11-27T07:17:30+0100","local":false,"titleSections":[[{"type":"STATION","value":"Arnhem C."},{"type":"ICON","value":"MAINTENANCE"},{"type":"STATION","value":"Emmerich"},{"type":"STATION","value":"Düsseldorf Hbf"}]],"start":"2023-11-24T21:00:00+0100","end":"2023-12-03T23:59:00+0100","period":"Vrijdag 24-11-2023 21:00 uur t/m zondag 03-12-2023 23:59 uur.","impact":{"value":4},"publicationSections":[{"section":{"stations":[{"coordinate":{"lat":51.9850006103516,"lng":5.89916658401489},"countryCode":"NL","name":"Arnhem Centraal","stationCode":"AH","uicCode":"8400071"},{"coordinate":{"lat":51.985279083252,"lng":5.91944456100464},"countryCode":"NL","name":"Arnhem Velperpoort","stationCode":"AHP","uicCode":"8400072"},{"coordinate":{"lat":51.96286,"lng":5.9695},"countryCode":"NL","name":"Westervoort","stationCode":"WTV","uicCode":"8400688"},{"coordinate":{"lat":51.9433326721191,"lng":6.01472234725952},"countryCode":"NL","name":"Duiven","stationCode":"DVN","uicCode":"8400193"},{"coordinate":{"lat":51.9230537414551,"lng":6.07194423675537},"countryCode":"NL","name":"Zevenaar","stationCode":"ZV","uicCode":"8400735"},{"coordinate":{"lat":51.8743,"lng":6.15417},"countryCode":"D","name":"Emmerich-Elten","stationCode":"EL","uicCode":"8033415"},{"coordinate":{"lat":51.834283,"lng":6.255718},"countryCode":"D","name":"Emmerich","stationCode":"EM","uicCode":"8010288"},{"coordinate":{"lat":51.655833,"lng":6.627222},"countryCode":"D","name":"Wesel","stationCode":"WESEL","uicCode":"8010275"},{"coordinate":{"lat":51.47512,"lng":6.852038},"countryCode":"D","name":"Oberhausen Hbf","stationCode":"OBERH","uicCode":"8010263"},{"coordinate":{"lat":51.4297785713316,"lng":6.77590370178222},"countryCode":"D","name":"Duisburg Hbf","stationCode":"DUISB","uicCode":"8010316"},{"coordinate":{"lat":51.292009,"lng":6.786836},"countryCode":"D","name":"Düsseldorf Flughafen","stationCode":"KDFFH","uicCode":"8039904"},{"coordinate":{"lat":51.220146,"lng":6.793137},"countryCode":"D","name":"Düsseldorf Hbf","stationCode":"DUSSEL","uicCode":"8008094"}],"direction":"BOTH"},"consequence":{"section":{"stations":[{"coordinate":{"lat":51.9850006103516,"lng":5.89916658401489},"countryCode":"NL","name":"Arnhem Centraal","stationCode":"AH","uicCode":"8400071"},{"coordinate":{"lat":51.985279083252,"lng":5.91944456100464},"countryCode":"NL","name":"Arnhem Velperpoort","stationCode":"AHP","uicCode":"8400072"},{"coordinate":{"lat":51.96286,"lng":5.9695},"countryCode":"NL","name":"Westervoort","stationCode":"WTV","uicCode":"8400688"},{"coordinate":{"lat":51.9433326721191,"lng":6.01472234725952},"countryCode":"NL","name":"Duiven","stationCode":"DVN","uicCode":"8400193"},{"coordinate":{"lat":51.9230537414551,"lng":6.07194423675537},"countryCode":"NL","name":"Zevenaar","stationCode":"ZV","uicCode":"8400735"},{"coordinate":{"lat":51.8743,"lng":6.15417},"countryCode":"D","name":"Emmerich-Elten","stationCode":"EL","uicCode":"8033415"},{"coordinate":{"lat":51.834283,"lng":6.255718},"countryCode":"D","name":"Emmerich","stationCode":"EM","uicCode":"8010288"}],"direction":"ONE_WAY"},"description":"rijden bussen","level":"LESS_TRAINS"},"sectionType":"NEIGHBORING_COUNTRY"}],"timespans":[{"start":"2023-11-24T21:00:00+0100","end":"2023-12-03T23:59:00+0100","period":"Vrijdag 24-11-2023 21:00 uur t/m zondag 03-12-2023 23:59 uur.","situation":{"label":"Door werkzaamheden: tussen Arnhem Centraal en Emmerich rijden er bussen."},"cause":{"label":"werkzaamheden"},"additionalTravelTime":{"label":"De extra reistijd kan oplopen tot 30 minuten.","shortLabel":"extra reistijd tot 30 min.","maximumDurationInMinutes":30},"alternativeTransport":{"label":"er rijden stopbussen","shortLabel":"er rijden stopbussen"},"advices":[]}],"alternativeTransportTimespans":[{"start":"2023-11-24T21:00:00+0100","end":"2023-12-03T23:59:00+0100","alternativeTransport":{"location":[{"station":{"coordinate":{"lat":51.9850006103516,"lng":5.89916658401489},"countryCode":"NL","name":"Arnhem Centraal","stationCode":"AH","uicCode":"8400071"},"description":"vanaf de bus-terminal"},{"station":{"coordinate":{"lat":51.9230537414551,"lng":6.07194423675537},"countryCode":"NL","name":"Zevenaar","stationCode":"ZV","uicCode":"8400735"},"description":"vanaf het stationsplein bij de Kiss & Ride plaatsen, aan beide zijden van de weg"}],"label":"Er rijden stopbussen tussen Arnhem Centraal, Zevenaar en Emmerich.","shortLabel":"er rijden stopbussen Arnhem C. - Zevenaar - Emmerich"}}],"summaryAdditionalTravelTime":{"label":"De extra reistijd kan oplopen tot 30 minuten.","shortLabel":"extra reistijd tot 30 min.","maximumDurationInMinutes":30}},{"id":"7004156","isActive":true,"title":"Zwolle - Emmen.","type":"MAINTENANCE","registrationTime":"2023-11-06T09:29:26+0100","releaseTime":"2023-11-06T09:29:26+0100","local":false,"titleSections":[[{"type":"STATION","value":"Zwolle"},{"type":"STATION","value":"Mariënberg"},{"type":"ICON","value":"MAINTENANCE"},{"type":"STATION","value":"Emmen"}]],"start":"2023-11-25T04:00:00+0100","end":"2023-12-04T02:00:00+0100","period":"Zaterdag 25-11-2023 04:00 uur t/m maandag 04-12-2023 02:00 uur.","impact":{"value":4},"publicationSections":[{"section":{"stations":[{"coordinate":{"lat":52.5047225952148,"lng":6.09194421768188},"countryCode":"NL","name":"Zwolle","stationCode":"ZL","uicCode":"8400747"},{"coordinate":{"lat":52.4983329772949,"lng":6.25861120223999},"countryCode":"NL","name":"Dalfsen","stationCode":"DL","uicCode":"8400167"},{"coordinate":{"lat":52.5094451904297,"lng":6.41583347320557},"countryCode":"NL","name":"Ommen","stationCode":"OMN","uicCode":"8400487"},{"coordinate":{"lat":52.5094451904297,"lng":6.57527780532837},"countryCode":"NL","name":"Mariënberg","stationCode":"MRB","uicCode":"8400428"},{"coordinate":{"lat":52.5727767944336,"lng":6.62861108779907},"countryCode":"NL","name":"Hardenberg","stationCode":"HDB","uicCode":"8400293"},{"coordinate":{"lat":52.6091651916504,"lng":6.67583322525024},"countryCode":"NL","name":"Gramsbergen","stationCode":"GBG","uicCode":"8400259"},{"coordinate":{"lat":52.6636123657227,"lng":6.73555564880371},"countryCode":"NL","name":"Coevorden","stationCode":"CO","uicCode":"8400153"},{"coordinate":{"lat":52.6941680908203,"lng":6.75805568695068},"countryCode":"NL","name":"Dalen","stationCode":"DLN","uicCode":"8400161"},{"coordinate":{"lat":52.7186126708984,"lng":6.84861087799072},"countryCode":"NL","name":"Nieuw Amsterdam","stationCode":"NA","uicCode":"8400454"},{"coordinate":{"lat":52.7488663746914,"lng":6.87478065490722},"countryCode":"NL","name":"Emmen Zuid","stationCode":"EMNZ","uicCode":"8400407"},{"coordinate":{"lat":52.7900009155273,"lng":6.89944458007812},"countryCode":"NL","name":"Emmen","stationCode":"EMN","uicCode":"8400208"}],"direction":"BOTH"},"consequence":{"section":{"stations":[{"coordinate":{"lat":52.5094451904297,"lng":6.57527780532837},"countryCode":"NL","name":"Mariënberg","stationCode":"MRB","uicCode":"8400428"},{"coordinate":{"lat":52.5727767944336,"lng":6.62861108779907},"countryCode":"NL","name":"Hardenberg","stationCode":"HDB","uicCode":"8400293"},{"coordinate":{"lat":52.6091651916504,"lng":6.67583322525024},"countryCode":"NL","name":"Gramsbergen","stationCode":"GBG","uicCode":"8400259"},{"coordinate":{"lat":52.6636123657227,"lng":6.73555564880371},"countryCode":"NL","name":"Coevorden","stationCode":"CO","uicCode":"8400153"},{"coordinate":{"lat":52.6941680908203,"lng":6.75805568695068},"countryCode":"NL","name":"Dalen","stationCode":"DLN","uicCode":"8400161"},{"coordinate":{"lat":52.7186126708984,"lng":6.84861087799072},"countryCode":"NL","name":"Nieuw Amsterdam","stationCode":"NA","uicCode":"8400454"},{"coordinate":{"lat":52.7488663746914,"lng":6.87478065490722},"countryCode":"NL","name":"Emmen Zuid","stationCode":"EMNZ","uicCode":"8400407"},{"coordinate":{"lat":52.7900009155273,"lng":6.89944458007812},"countryCode":"NL","name":"Emmen","stationCode":"EMN","uicCode":"8400208"}],"direction":"ONE_WAY"},"description":"rijden bussen","level":"LESS_TRAINS"},"sectionType":"NL"}],"timespans":[{"start":"2023-11-25T04:00:00+0100","end":"2023-12-04T02:00:00+0100","period":"Zaterdag 25-11-2023 04:00 uur t/m maandag 04-12-2023 02:00 uur.","situation":{"label":"Door werkzaamheden: tussen Mariënberg en Emmen rijden er bussen."},"cause":{"label":"werkzaamheden"},"additionalTravelTime":{"label":"De extra reistijd kan oplopen tot 45 minuten.","shortLabel":"extra reistijd tot 45 min.","maximumDurationInMinutes":45},"alternativeTransport":{"label":"er rijden bussen","shortLabel":"er rijden bussen"},"advices":[]}],"alternativeTransportTimespans":[{"start":"2023-11-25T04:00:00+0100","end":"2023-12-04T02:00:00+0100","alternativeTransport":{"location":[{"station":{"coordinate":{"lat":52.5094451904297,"lng":6.57527780532837},"countryCode":"NL","name":"Mariënberg","stationCode":"MRB","uicCode":"8400428"},"description":"vanaf de voorzijde van het station"},{"station":{"coordinate":{"lat":52.5727767944336,"lng":6.62861108779907},"countryCode":"NL","name":"Hardenberg","stationCode":"HDB","uicCode":"8400293"},"description":"vanaf de voorzijde van het station"},{"station":{"coordinate":{"lat":52.6091651916504,"lng":6.67583322525024},"countryCode":"NL","name":"Gramsbergen","stationCode":"GBG","uicCode":"8400259"},"description":"vanaf de voorzijde van het station"},{"station":{"coordinate":{"lat":52.6636123657227,"lng":6.73555564880371},"countryCode":"NL","name":"Coevorden","stationCode":"CO","uicCode":"8400153"},"description":"vanaf de voorzijde van het station"},{"station":{"coordinate":{"lat":52.6941680908203,"lng":6.75805568695068},"countryCode":"NL","name":"Dalen","stationCode":"DLN","uicCode":"8400161"},"description":"vanaf de voorzijde van het station"},{"station":{"coordinate":{"lat":52.7186126708984,"lng":6.84861087799072},"countryCode":"NL","name":"Nieuw Amsterdam","stationCode":"NA","uicCode":"8400454"},"description":"vanaf de doorgaande weg"},{"station":{"coordinate":{"lat":52.7488663746914,"lng":6.87478065490722},"countryCode":"NL","name":"Emmen Zuid","stationCode":"EMNZ","uicCode":"8400407"},"description":"vanaf de bushalte"},{"station":{"coordinate":{"lat":52.7900009155273,"lng":6.89944458007812},"countryCode":"NL","name":"Emmen","stationCode":"EMN","uicCode":"8400208"},"description":"vanaf het busstation"}],"label":"Er rijden bussen tussen Mariënberg, Hardenberg, Gramsbergen, Coevorden, Dalen, Nieuw Amsterdam, Emmen Zuid en Emmen.","shortLabel":"er rijden bussen Mariënberg - Hardenberg - Gramsbergen - Coevorden - Dalen - Nw. Amsterdam - Emmen Zuid - Emmen"}}],"summaryAdditionalTravelTime":{"label":"De extra reistijd kan oplopen tot 45 minuten.","shortLabel":"extra reistijd tot 45 min.","maximumDurationInMinutes":45}},{"id":"7004169","isActive":true,"title":"Den Haag - Rotterdam; Rotterdam - Dordrecht; Rotterdam - Breda (HSL).","type":"MAINTENANCE","registrationTime":"2023-11-18T15:15:46+0100","releaseTime":"2023-11-18T15:15:46+0100","local":false,"titleSections":[[{"type":"STATION","value":"Den Haag C."},{"type":"ICON","value":"MAINTENANCE"},{"type":"STATION","value":"Rotterdam C."}],[{"type":"STATION","value":"Rotterdam C."},{"type":"ICON","value":"MAINTENANCE"},{"type":"STATION","value":"Dordrecht"}],[{"type":"STATION","value":"Rotterdam C."},{"type":"ICON","value":"MAINTENANCE"},{"type":"STATION","value":"Breda"}]],"start":"2023-11-27T04:00:00+0100","end":"2023-12-02T01:00:00+0100","period":"Maandag 27-11-2023 04:00 uur t/m zaterdag 02-12-2023 01:00 uur.","impact":{"value":2},"publicationSections":[{"section":{"stations":[{"coordinate":{"lat":52.0802764892578,"lng":4.32499980926514},"countryCode":"NL","name":"Den Haag Centraal","stationCode":"GVC","uicCode":"8400282"},{"coordinate":{"lat":52.0697212219238,"lng":4.32250022888184},"countryCode":"NL","name":"Den Haag HS","stationCode":"GV","uicCode":"8400280"},{"coordinate":{"lat":52.0538902282715,"lng":4.3086109161377},"countryCode":"NL","name":"Den Haag Moerwijk","stationCode":"GVMW","uicCode":"8400279"},{"coordinate":{"lat":52.039722442627,"lng":4.31916666030884},"countryCode":"NL","name":"Rijswijk","stationCode":"RSW","uicCode":"8400505"},{"coordinate":{"lat":52.0066680908203,"lng":4.35638904571533},"countryCode":"NL","name":"Delft","stationCode":"DT","uicCode":"8400170"},{"coordinate":{"lat":51.9908332824707,"lng":4.36472225189209},"countryCode":"NL","name":"Delft Campus","stationCode":"DTCP","uicCode":"8400166"},{"coordinate":{"lat":51.9212438128032,"lng":4.4089937210083},"countryCode":"NL","name":"Schiedam Centrum","stationCode":"SDM","uicCode":"8400553"},{"coordinate":{"lat":51.9249992370605,"lng":4.46888875961304},"countryCode":"NL","name":"Rotterdam Centraal","stationCode":"RTD","uicCode":"8400530"}],"direction":"BOTH"},"consequence":{"section":{"stations":[{"coordinate":{"lat":52.0802764892578,"lng":4.32499980926514},"countryCode":"NL","name":"Den Haag Centraal","stationCode":"GVC","uicCode":"8400282"},{"coordinate":{"lat":52.0697212219238,"lng":4.32250022888184},"countryCode":"NL","name":"Den Haag HS","stationCode":"GV","uicCode":"8400280"},{"coordinate":{"lat":52.0538902282715,"lng":4.3086109161377},"countryCode":"NL","name":"Den Haag Moerwijk","stationCode":"GVMW","uicCode":"8400279"},{"coordinate":{"lat":52.039722442627,"lng":4.31916666030884},"countryCode":"NL","name":"Rijswijk","stationCode":"RSW","uicCode":"8400505"},{"coordinate":{"lat":52.0066680908203,"lng":4.35638904571533},"countryCode":"NL","name":"Delft","stationCode":"DT","uicCode":"8400170"},{"coordinate":{"lat":51.9908332824707,"lng":4.36472225189209},"countryCode":"NL","name":"Delft Campus","stationCode":"DTCP","uicCode":"8400166"},{"coordinate":{"lat":51.9212438128032,"lng":4.4089937210083},"countryCode":"NL","name":"Schiedam Centrum","stationCode":"SDM","uicCode":"8400553"},{"coordinate":{"lat":51.9249992370605,"lng":4.46888875961304},"countryCode":"NL","name":"Rotterdam Centraal","stationCode":"RTD","uicCode":"8400530"}],"direction":"ONE_WAY"},"description":"dienstregeling aangepast","level":"LESS_TRAINS"},"sectionType":"NL"},{"section":{"stations":[{"coordinate":{"lat":51.9249992370605,"lng":4.46888875961304},"countryCode":"NL","name":"Rotterdam Centraal","stationCode":"RTD","uicCode":"8400530"},{"coordinate":{"lat":51.9202766418457,"lng":4.48888874053955},"countryCode":"NL","name":"Rotterdam Blaak","stationCode":"RTB","uicCode":"8400529"},{"coordinate":{"lat":51.9044456481934,"lng":4.51027774810791},"countryCode":"NL","name":"Rotterdam Zuid","stationCode":"RTZ","uicCode":"8400533"},{"coordinate":{"lat":51.8800010681152,"lng":4.53138875961304},"countryCode":"NL","name":"Rotterdam Lombardijen","stationCode":"RLB","uicCode":"8400542"},{"coordinate":{"lat":51.8547210693359,"lng":4.5533332824707},"countryCode":"NL","name":"Barendrecht","stationCode":"BRD","uicCode":"8400090"},{"coordinate":{"lat":51.814998626709,"lng":4.64166688919067},"countryCode":"NL","name":"Zwijndrecht","stationCode":"ZWD","uicCode":"8400752"},{"coordinate":{"lat":51.8072204589844,"lng":4.66833353042603},"countryCode":"NL","name":"Dordrecht","stationCode":"DDR","uicCode":"8400180"}],"direction":"BOTH"},"consequence":{"section":{"stations":[{"coordinate":{"lat":51.9249992370605,"lng":4.46888875961304},"countryCode":"NL","name":"Rotterdam Centraal","stationCode":"RTD","uicCode":"8400530"},{"coordinate":{"lat":51.9202766418457,"lng":4.48888874053955},"countryCode":"NL","name":"Rotterdam Blaak","stationCode":"RTB","uicCode":"8400529"},{"coordinate":{"lat":51.9044456481934,"lng":4.51027774810791},"countryCode":"NL","name":"Rotterdam Zuid","stationCode":"RTZ","uicCode":"8400533"},{"coordinate":{"lat":51.8800010681152,"lng":4.53138875961304},"countryCode":"NL","name":"Rotterdam Lombardijen","stationCode":"RLB","uicCode":"8400542"},{"coordinate":{"lat":51.8547210693359,"lng":4.5533332824707},"countryCode":"NL","name":"Barendrecht","stationCode":"BRD","uicCode":"8400090"},{"coordinate":{"lat":51.814998626709,"lng":4.64166688919067},"countryCode":"NL","name":"Zwijndrecht","stationCode":"ZWD","uicCode":"8400752"},{"coordinate":{"lat":51.8072204589844,"lng":4.66833353042603},"countryCode":"NL","name":"Dordrecht","stationCode":"DDR","uicCode":"8400180"}],"direction":"ONE_WAY"},"description":"dienstregeling aangepast","level":"LESS_TRAINS"},"sectionType":"NL"},{"section":{"stations":[{"coordinate":{"lat":51.9249992370605,"lng":4.46888875961304},"countryCode":"NL","name":"Rotterdam Centraal","stationCode":"RTD","uicCode":"8400530"},{"coordinate":{"lat":51.9202766418457,"lng":4.48888874053955},"countryCode":"NL","name":"Rotterdam Blaak","stationCode":"RTB","uicCode":"8400529"},{"coordinate":{"lat":51.9044456481934,"lng":4.51027774810791},"countryCode":"NL","name":"Rotterdam Zuid","stationCode":"RTZ","uicCode":"8400533"},{"coordinate":{"lat":51.8800010681152,"lng":4.53138875961304},"countryCode":"NL","name":"Rotterdam Lombardijen","stationCode":"RLB","uicCode":"8400542"},{"coordinate":{"lat":51.606388092041,"lng":4.72083330154419},"countryCode":"NL","name":"Breda-Prinsenbeek","stationCode":"BDPB","uicCode":"8400132"},{"coordinate":{"lat":51.5955543518066,"lng":4.78000020980835},"countryCode":"NL","name":"Breda","stationCode":"BD","uicCode":"8400131"}],"direction":"BOTH"},"consequence":{"section":{"stations":[{"coordinate":{"lat":51.9249992370605,"lng":4.46888875961304},"countryCode":"NL","name":"Rotterdam Centraal","stationCode":"RTD","uicCode":"8400530"},{"coordinate":{"lat":51.9202766418457,"lng":4.48888874053955},"countryCode":"NL","name":"Rotterdam Blaak","stationCode":"RTB","uicCode":"8400529"},{"coordinate":{"lat":51.9044456481934,"lng":4.51027774810791},"countryCode":"NL","name":"Rotterdam Zuid","stationCode":"RTZ","uicCode":"8400533"},{"coordinate":{"lat":51.8800010681152,"lng":4.53138875961304},"countryCode":"NL","name":"Rotterdam Lombardijen","stationCode":"RLB","uicCode":"8400542"},{"coordinate":{"lat":51.606388092041,"lng":4.72083330154419},"countryCode":"NL","name":"Breda-Prinsenbeek","stationCode":"BDPB","uicCode":"8400132"},{"coordinate":{"lat":51.5955543518066,"lng":4.78000020980835},"countryCode":"NL","name":"Breda","stationCode":"BD","uicCode":"8400131"}],"direction":"ONE_WAY"},"description":"geen treinen op de HSL","level":"LESS_TRAINS"},"sectionType":"HSL"}],"timespans":[{"start":"2023-11-27T04:00:00+0100","end":"2023-12-02T01:00:00+0100","period":"Maandag 27-11-2023 04:00 uur t/m zaterdag 02-12-2023 01:00 uur.","situation":{"label":"Door werkzaamheden: tussen Den Haag Centraal en Rotterdam Centraal is de dienstregeling aangepast en tussen Rotterdam Centraal en Dordrecht is de dienstregeling aangepast en tussen Rotterdam Centraal en Breda rijden er op de hogesnelheidslijn geen treinen."},"cause":{"label":"werkzaamheden"},"additionalTravelTime":{"label":"De extra reistijd is ongeveer 15 minuten.","shortLabel":"extra reistijd 15 min.","minimumDurationInMinutes":15,"maximumDurationInMinutes":15},"advices":["NS verwacht drukke treinen. Reis bij voorkeur buiten de spitsuren of ga eerder/later op reis. Veel treinen vertrekken andere sporen/ op andere tijden.","tussen Rotterdam C. en Breda reist u via Dordrecht"]}],"alternativeTransportTimespans":[],"summaryAdditionalTravelTime":{"label":"De extra reistijd is ongeveer 15 minuten.","shortLabel":"extra reistijd 15 min.","minimumDurationInMinutes":15,"maximumDurationInMinutes":15}},{"id":"7003876","isActive":true,"title":"Amsterdam - Rotterdam - Brussel (HSL).","type":"MAINTENANCE","registrationTime":"2023-11-28T10:23:50+0100","releaseTime":"2023-11-28T10:23:50+0100","local":false,"titleSections":[[{"type":"STATION","value":"Amsterdam C."},{"type":"ICON","value":"MAINTENANCE"},{"type":"STATION","value":"Rotterdam C."},{"type":"STATION","value":"Brussel-Z. Midi"}]],"start":"2023-11-27T04:00:00+0100","end":"2023-12-02T02:00:00+0100","period":"Maandag 27-11-2023 04:00 uur t/m zaterdag 02-12-2023 02:00 uur.","impact":{"value":2},"publicationSections":[{"section":{"stations":[{"coordinate":{"lat":52.3788871765137,"lng":4.90027761459351},"countryCode":"NL","name":"Amsterdam Centraal","stationCode":"ASD","uicCode":"8400058"},{"coordinate":{"lat":52.3888893127441,"lng":4.83777761459351},"countryCode":"NL","name":"Amsterdam Sloterdijk","stationCode":"ASS","uicCode":"8400059"},{"coordinate":{"lat":52.3577766418457,"lng":4.83388900756836},"countryCode":"NL","name":"Amsterdam Lelylaan","stationCode":"ASDL","uicCode":"8400079"},{"coordinate":{"lat":52.3094444274902,"lng":4.76194429397583},"countryCode":"NL","name":"Schiphol Airport","stationCode":"SHL","uicCode":"8400561"},{"coordinate":{"lat":52.2933349609375,"lng":4.70055532455444},"countryCode":"NL","name":"Hoofddorp","stationCode":"HFD","uicCode":"8400332"},{"coordinate":{"lat":51.9249992370605,"lng":4.46888875961304},"countryCode":"NL","name":"Rotterdam Centraal","stationCode":"RTD","uicCode":"8400530"},{"coordinate":{"lat":51.9202766418457,"lng":4.48888874053955},"countryCode":"NL","name":"Rotterdam Blaak","stationCode":"RTB","uicCode":"8400529"},{"coordinate":{"lat":51.9044456481934,"lng":4.51027774810791},"countryCode":"NL","name":"Rotterdam Zuid","stationCode":"RTZ","uicCode":"8400533"},{"coordinate":{"lat":51.8800010681152,"lng":4.53138875961304},"countryCode":"NL","name":"Rotterdam Lombardijen","stationCode":"RLB","uicCode":"8400542"},{"coordinate":{"lat":51.606388092041,"lng":4.72083330154419},"countryCode":"NL","name":"Breda-Prinsenbeek","stationCode":"BDPB","uicCode":"8400132"},{"coordinate":{"lat":51.5955543518066,"lng":4.78000020980835},"countryCode":"NL","name":"Breda","stationCode":"BD","uicCode":"8400131"},{"coordinate":{"lat":51.358088,"lng":4.633977},"countryCode":"B","name":"Noorderkempen","stationCode":"NDKP","uicCode":"8821105"},{"coordinate":{"lat":51.2449375,"lng":4.4251543},"countryCode":"B","name":"Antwerpen-Luchtbal","stationCode":"ATWLB","uicCode":"8821063"},{"coordinate":{"lat":51.21686,"lng":4.421242},"countryCode":"B","name":"Antwerpen-Centraal","stationCode":"ATW","uicCode":"8821006"},{"coordinate":{"lat":51.198914,"lng":4.4332},"countryCode":"B","name":"Antwerpen-Berchem","stationCode":"BERCH","uicCode":"8821121"},{"coordinate":{"lat":51.01758,"lng":4.48313},"countryCode":"B","name":"Mechelen","stationCode":"MECH","uicCode":"8822004"},{"coordinate":{"lat":50.859658,"lng":4.360854},"countryCode":"B","name":"Brussel-Noord","stationCode":"BRUSN","uicCode":"8812005"},{"coordinate":{"lat":50.845175,"lng":4.357131},"countryCode":"B","name":"Brussel-Centraal","stationCode":"BRUSC","uicCode":"8813003"},{"coordinate":{"lat":50.836782,"lng":4.336922},"countryCode":"B","name":"Brussel-Zuid Midi","stationCode":"BRUSZ","uicCode":"8814001"}],"direction":"BOTH"},"consequence":{"section":{"stations":[{"coordinate":{"lat":52.3788871765137,"lng":4.90027761459351},"countryCode":"NL","name":"Amsterdam Centraal","stationCode":"ASD","uicCode":"8400058"},{"coordinate":{"lat":52.3888893127441,"lng":4.83777761459351},"countryCode":"NL","name":"Amsterdam Sloterdijk","stationCode":"ASS","uicCode":"8400059"},{"coordinate":{"lat":52.3577766418457,"lng":4.83388900756836},"countryCode":"NL","name":"Amsterdam Lelylaan","stationCode":"ASDL","uicCode":"8400079"},{"coordinate":{"lat":52.3094444274902,"lng":4.76194429397583},"countryCode":"NL","name":"Schiphol Airport","stationCode":"SHL","uicCode":"8400561"},{"coordinate":{"lat":52.2933349609375,"lng":4.70055532455444},"countryCode":"NL","name":"Hoofddorp","stationCode":"HFD","uicCode":"8400332"},{"coordinate":{"lat":51.9249992370605,"lng":4.46888875961304},"countryCode":"NL","name":"Rotterdam Centraal","stationCode":"RTD","uicCode":"8400530"}],"direction":"ONE_WAY"},"description":"dienstregeling aangepast","level":"LESS_TRAINS"},"sectionType":"HSL"}],"timespans":[{"start":"2023-11-27T04:00:00+0100","end":"2023-12-02T02:00:00+0100","period":"Maandag 27-11-2023 04:00 uur t/m zaterdag 02-12-2023 02:00 uur.","situation":{"label":"Door werkzaamheden: tussen Amsterdam Centraal en Rotterdam Centraal is de dienstregeling aangepast."},"cause":{"label":"werkzaamheden"},"additionalTravelTime":{"label":"U heeft geen langere reistijd.","shortLabel":"Geen extra reistijd"},"advices":["IC Brussel rijdt niet tussen Amsterdam C en Rotterdam C. Enkele IC's stoppen In Schiedam C, niet in Rotterdam C."]}],"alternativeTransportTimespans":[],"summaryAdditionalTravelTime":{"label":"U heeft geen langere reistijd.","shortLabel":"Geen extra reistijd"}},{"id":"7004220","isActive":true,"title":"Amsterdam - Schiphol - Rotterdam (HSL).","type":"MAINTENANCE","registrationTime":"2023-11-27T21:55:34+0100","releaseTime":"2023-11-27T21:55:34+0100","local":false,"titleSections":[[{"type":"STATION","value":"Amsterdam C."},{"type":"ICON","value":"MAINTENANCE"},{"type":"STATION","value":"Rotterdam C."}]],"start":"2023-11-27T06:00:00+0100","end":"2023-12-01T20:00:00+0100","period":"Maandag 27-11-2023 06:00 uur t/m vrijdag 01-12-2023 20:00 uur.","impact":{"value":2},"publicationSections":[{"section":{"stations":[{"coordinate":{"lat":52.3788871765137,"lng":4.90027761459351},"countryCode":"NL","name":"Amsterdam Centraal","stationCode":"ASD","uicCode":"8400058"},{"coordinate":{"lat":52.3888893127441,"lng":4.83777761459351},"countryCode":"NL","name":"Amsterdam Sloterdijk","stationCode":"ASS","uicCode":"8400059"},{"coordinate":{"lat":52.3577766418457,"lng":4.83388900756836},"countryCode":"NL","name":"Amsterdam Lelylaan","stationCode":"ASDL","uicCode":"8400079"},{"coordinate":{"lat":52.3094444274902,"lng":4.76194429397583},"countryCode":"NL","name":"Schiphol Airport","stationCode":"SHL","uicCode":"8400561"},{"coordinate":{"lat":52.2933349609375,"lng":4.70055532455444},"countryCode":"NL","name":"Hoofddorp","stationCode":"HFD","uicCode":"8400332"},{"coordinate":{"lat":51.9249992370605,"lng":4.46888875961304},"countryCode":"NL","name":"Rotterdam Centraal","stationCode":"RTD","uicCode":"8400530"}],"direction":"BOTH"},"consequence":{"section":{"stations":[{"coordinate":{"lat":52.3788871765137,"lng":4.90027761459351},"countryCode":"NL","name":"Amsterdam Centraal","stationCode":"ASD","uicCode":"8400058"},{"coordinate":{"lat":52.3888893127441,"lng":4.83777761459351},"countryCode":"NL","name":"Amsterdam Sloterdijk","stationCode":"ASS","uicCode":"8400059"},{"coordinate":{"lat":52.3577766418457,"lng":4.83388900756836},"countryCode":"NL","name":"Amsterdam Lelylaan","stationCode":"ASDL","uicCode":"8400079"},{"coordinate":{"lat":52.3094444274902,"lng":4.76194429397583},"countryCode":"NL","name":"Schiphol Airport","stationCode":"SHL","uicCode":"8400561"},{"coordinate":{"lat":52.2933349609375,"lng":4.70055532455444},"countryCode":"NL","name":"Hoofddorp","stationCode":"HFD","uicCode":"8400332"},{"coordinate":{"lat":51.9249992370605,"lng":4.46888875961304},"countryCode":"NL","name":"Rotterdam Centraal","stationCode":"RTD","uicCode":"8400530"}],"direction":"ONE_WAY"},"description":"extra drukte vanwege een omreisroute","level":"LESS_TRAINS"},"sectionType":"HSL"}],"timespans":[{"start":"2023-11-27T06:00:00+0100","end":"2023-12-01T20:00:00+0100","period":"Maandag 27-11-2023 06:00 uur t/m vrijdag 01-12-2023 20:00 uur.","situation":{"label":"Door werkzaamheden: tussen Amsterdam Centraal en Rotterdam Centraal zijn er volle treinen en mogelijk een langere reistijd."},"cause":{"label":"werkzaamheden"},"additionalTravelTime":{"label":"U heeft geen langere reistijd.","shortLabel":"Geen extra reistijd"},"advices":["NS verwacht drukke Intercity direct treinen. Houd rekening met uitval buiten de spits. Reis via Leiden C of ga eerder op reis indien mogelijk."]}],"alternativeTransportTimespans":[],"summaryAdditionalTravelTime":{"label":"U heeft geen langere reistijd.","shortLabel":"Geen extra reistijd"}},{"id":"7004105","isActive":false,"title":"Rotterdam Centraal.","type":"MAINTENANCE","registrationTime":"2023-11-28T14:09:28+0100","releaseTime":"2023-11-28T14:09:28+0100","local":false,"titleSections":[[{"type":"STATION","value":"Rotterdam C."}]],"start":"2023-12-02T00:30:00+0100","end":"2023-12-04T05:00:00+0100","period":"Zaterdag 02-12-2023 00:30 uur t/m maandag 04-12-2023 05:00 uur.","impact":{"value":5},"publicationSections":[{"section":{"stations":[{"coordinate":{"lat":51.9249992370605,"lng":4.46888875961304},"countryCode":"NL","name":"Rotterdam Centraal","stationCode":"RTD","uicCode":"8400530"},{"coordinate":{"lat":51.9202766418457,"lng":4.48888874053955},"countryCode":"NL","name":"Rotterdam Blaak","stationCode":"RTB","uicCode":"8400529"},{"coordinate":{"lat":51.9044456481934,"lng":4.51027774810791},"countryCode":"NL","name":"Rotterdam Zuid","stationCode":"RTZ","uicCode":"8400533"},{"coordinate":{"lat":51.8800010681152,"lng":4.53138875961304},"countryCode":"NL","name":"Rotterdam Lombardijen","stationCode":"RLB","uicCode":"8400542"},{"coordinate":{"lat":51.606388092041,"lng":4.72083330154419},"countryCode":"NL","name":"Breda-Prinsenbeek","stationCode":"BDPB","uicCode":"8400132"},{"coordinate":{"lat":51.5955543518066,"lng":4.78000020980835},"countryCode":"NL","name":"Breda","stationCode":"BD","uicCode":"8400131"}],"direction":"BOTH"},"consequence":{"section":{"stations":[{"coordinate":{"lat":51.9249992370605,"lng":4.46888875961304},"countryCode":"NL","name":"Rotterdam Centraal","stationCode":"RTD","uicCode":"8400530"}],"direction":"ONE_WAY"},"description":"vervangend vervoer","level":"LESS_TRAINS"},"sectionType":"HSL"},{"section":{"stations":[{"coordinate":{"lat":51.9249992370605,"lng":4.46888875961304},"countryCode":"NL","name":"Rotterdam Centraal","stationCode":"RTD","uicCode":"8400530"},{"coordinate":{"lat":51.9202766418457,"lng":4.48888874053955},"countryCode":"NL","name":"Rotterdam Blaak","stationCode":"RTB","uicCode":"8400529"},{"coordinate":{"lat":51.9044456481934,"lng":4.51027774810791},"countryCode":"NL","name":"Rotterdam Zuid","stationCode":"RTZ","uicCode":"8400533"},{"coordinate":{"lat":51.8800010681152,"lng":4.53138875961304},"countryCode":"NL","name":"Rotterdam Lombardijen","stationCode":"RLB","uicCode":"8400542"},{"coordinate":{"lat":51.8547210693359,"lng":4.5533332824707},"countryCode":"NL","name":"Barendrecht","stationCode":"BRD","uicCode":"8400090"},{"coordinate":{"lat":51.814998626709,"lng":4.64166688919067},"countryCode":"NL","name":"Zwijndrecht","stationCode":"ZWD","uicCode":"8400752"},{"coordinate":{"lat":51.8072204589844,"lng":4.66833353042603},"countryCode":"NL","name":"Dordrecht","stationCode":"DDR","uicCode":"8400180"}],"direction":"BOTH"},"consequence":{"section":{"stations":[{"coordinate":{"lat":51.9249992370605,"lng":4.46888875961304},"countryCode":"NL","name":"Rotterdam Centraal","stationCode":"RTD","uicCode":"8400530"}],"direction":"ONE_WAY"},"description":"vervangend vervoer","level":"LESS_TRAINS"},"sectionType":"NL"},{"section":{"stations":[{"coordinate":{"lat":52.3094444274902,"lng":4.76194429397583},"countryCode":"NL","name":"Schiphol Airport","stationCode":"SHL","uicCode":"8400561"},{"coordinate":{"lat":52.2933349609375,"lng":4.70055532455444},"countryCode":"NL","name":"Hoofddorp","stationCode":"HFD","uicCode":"8400332"},{"coordinate":{"lat":51.9249992370605,"lng":4.46888875961304},"countryCode":"NL","name":"Rotterdam Centraal","stationCode":"RTD","uicCode":"8400530"}],"direction":"BOTH"},"consequence":{"section":{"stations":[{"coordinate":{"lat":51.9249992370605,"lng":4.46888875961304},"countryCode":"NL","name":"Rotterdam Centraal","stationCode":"RTD","uicCode":"8400530"}],"direction":"ONE_WAY"},"description":"vervangend vervoer","level":"LESS_TRAINS"},"sectionType":"HSL"},{"section":{"stations":[{"coordinate":{"lat":51.9249992370605,"lng":4.46888875961304},"countryCode":"NL","name":"Rotterdam Centraal","stationCode":"RTD","uicCode":"8400530"},{"coordinate":{"lat":51.9422225952148,"lng":4.48166656494141},"countryCode":"NL","name":"Rotterdam Noord","stationCode":"RTN","uicCode":"8400531"},{"coordinate":{"lat":51.9519462585449,"lng":4.55361127853394},"countryCode":"NL","name":"Rotterdam Alexander","stationCode":"RTA","uicCode":"8400507"},{"coordinate":{"lat":51.9541664123535,"lng":4.58416652679443},"countryCode":"NL","name":"Capelle Schollevaar","stationCode":"CPS","uicCode":"8400147"},{"coordinate":{"lat":51.9652786254883,"lng":4.61694431304932},"countryCode":"NL","name":"Nieuwerkerk a/d IJssel","stationCode":"NWK","uicCode":"8400455"},{"coordinate":{"lat":52.0175018310547,"lng":4.70444440841675},"countryCode":"NL","name":"Gouda","stationCode":"GD","uicCode":"8400258"}],"direction":"BOTH"},"consequence":{"section":{"stations":[{"coordinate":{"lat":51.9249992370605,"lng":4.46888875961304},"countryCode":"NL","name":"Rotterdam Centraal","stationCode":"RTD","uicCode":"8400530"}],"direction":"ONE_WAY"},"description":"vervangend vervoer","level":"LESS_TRAINS"},"sectionType":"NL"},{"section":{"stations":[{"coordinate":{"lat":52.0697212219238,"lng":4.32250022888184},"countryCode":"NL","name":"Den Haag HS","stationCode":"GV","uicCode":"8400280"},{"coordinate":{"lat":52.0538902282715,"lng":4.3086109161377},"countryCode":"NL","name":"Den Haag Moerwijk","stationCode":"GVMW","uicCode":"8400279"},{"coordinate":{"lat":52.039722442627,"lng":4.31916666030884},"countryCode":"NL","name":"Rijswijk","stationCode":"RSW","uicCode":"8400505"},{"coordinate":{"lat":52.0066680908203,"lng":4.35638904571533},"countryCode":"NL","name":"Delft","stationCode":"DT","uicCode":"8400170"},{"coordinate":{"lat":51.9908332824707,"lng":4.36472225189209},"countryCode":"NL","name":"Delft Campus","stationCode":"DTCP","uicCode":"8400166"},{"coordinate":{"lat":51.9212438128032,"lng":4.4089937210083},"countryCode":"NL","name":"Schiedam Centrum","stationCode":"SDM","uicCode":"8400553"},{"coordinate":{"lat":51.9249992370605,"lng":4.46888875961304},"countryCode":"NL","name":"Rotterdam Centraal","stationCode":"RTD","uicCode":"8400530"}],"direction":"BOTH"},"consequence":{"section":{"stations":[{"coordinate":{"lat":51.9249992370605,"lng":4.46888875961304},"countryCode":"NL","name":"Rotterdam Centraal","stationCode":"RTD","uicCode":"8400530"}],"direction":"ONE_WAY"},"description":"vervangend vervoer","level":"LESS_TRAINS"},"sectionType":"NL"}],"timespans":[{"start":"2023-12-02T00:30:00+0100","end":"2023-12-04T05:00:00+0100","period":"Zaterdag 02-12-2023 00:30 uur t/m maandag 04-12-2023 05:00 uur.","situation":{"label":"Door werkzaamheden: van, via en naar Rotterdam Centraal rijdt er vervangend vervoer."},"cause":{"label":"werkzaamheden"},"additionalTravelTime":{"label":"De extra reistijd is ongeveer 45 minuten.","shortLabel":"extra reistijd 45 min.","minimumDurationInMinutes":45,"maximumDurationInMinutes":45},"alternativeTransport":{"label":"maak gebruik van het vervangende vervoer","shortLabel":"gebruik het vervangende vervoer"},"advices":["Uw NS-vervoerbewijs is geldig in metro tussen Schiedam C, Beurs, CS, Blaak, Capelsebrug en Alexander.","tussen Amsterdam C. en Breda/Roosendaal reist u via 's-Hertogenbosch","tussen Den Haag C. en Tilburg/Eindhoven C. reist u via Utrecht C. en 's-Hertogenbosch"]}],"alternativeTransportTimespans":[{"start":"2023-12-02T00:30:00+0100","end":"2023-12-02T02:50:00+0100","alternativeTransport":{"location":[{"station":{"coordinate":{"lat":51.9249992370605,"lng":4.46888875961304},"countryCode":"NL","name":"Rotterdam Centraal","stationCode":"RTD","uicCode":"8400530"},"description":"vanaf de Conradstraat aan de centrumzijde"},{"station":{"coordinate":{"lat":51.8072204589844,"lng":4.66833353042603},"countryCode":"NL","name":"Dordrecht","stationCode":"DDR","uicCode":"8400180"},"description":"Burgemeester de Raadtsingel"}],"label":"Er rijden snelbussen tussen Rotterdam Centraal en Dordrecht.","shortLabel":"er rijden snelbussen Rotterdam C. - Dordrecht"}},{"start":"2023-12-02T00:30:00+0100","end":"2023-12-02T01:40:00+0100","alternativeTransport":{"location":[],"label":"Er rijden snelbussen tussen Rotterdam Centraal, Rotterdam Alexander en Gouda.","shortLabel":"er rijden snelbussen Rotterdam C. - Alexander - Gouda"}},{"start":"2023-12-02T00:30:00+0100","end":"2023-12-02T01:40:00+0100","alternativeTransport":{"location":[{"station":{"coordinate":{"lat":52.0175018310547,"lng":4.70444440841675},"countryCode":"NL","name":"Gouda","stationCode":"GD","uicCode":"8400258"},"description":"vanaf de Bloemendaalzijde"},{"station":{"coordinate":{"lat":51.9652786254883,"lng":4.61694431304932},"countryCode":"NL","name":"Nieuwerkerk a/d IJssel","stationCode":"NWK","uicCode":"8400455"},"description":"vanaf de Kerklaan"},{"station":{"coordinate":{"lat":51.9541664123535,"lng":4.58416652679443},"countryCode":"NL","name":"Capelle Schollevaar","stationCode":"CPS","uicCode":"8400147"},"description":"vanaf het Stationsplein"},{"station":{"coordinate":{"lat":51.9519462585449,"lng":4.55361127853394},"countryCode":"NL","name":"Rotterdam Alexander","stationCode":"RTA","uicCode":"8400507"},"description":"vanaf de Prins Alexanderlaan"},{"station":{"coordinate":{"lat":51.9422225952148,"lng":4.48166656494141},"countryCode":"NL","name":"Rotterdam Noord","stationCode":"RTN","uicCode":"8400531"},"description":"vanaf de Bergweg onder het viaduct"}],"label":"Er rijden stopbussen van Gouda, Nieuwerkerk a/d IJssel, Capelle Schollevaar, Rotterdam Alexander, Rotterdam Noord naar Rotterdam Centraal.","shortLabel":"er rijden stopbussen Gouda -> Nieuwerkerk -> Schollevaar -> Alexander -> Rotterdam Noord -> Rotterdam C."}},{"start":"2023-12-02T00:35:00+0100","end":"2023-12-02T02:05:00+0100","alternativeTransport":{"location":[{"station":{"coordinate":{"lat":51.9249992370605,"lng":4.46888875961304},"countryCode":"NL","name":"Rotterdam Centraal","stationCode":"RTD","uicCode":"8400530"},"description":"vanaf de Conradstraat aan de centrumzijde"},{"station":{"coordinate":{"lat":51.9044456481934,"lng":4.51027774810791},"countryCode":"NL","name":"Rotterdam Zuid","stationCode":"RTZ","uicCode":"8400533"},"description":"vanaf de Rosestraat"},{"station":{"coordinate":{"lat":51.8800010681152,"lng":4.53138875961304},"countryCode":"NL","name":"Rotterdam Lombardijen","stationCode":"RLB","uicCode":"8400542"},"description":"vanaf de bushalte"},{"station":{"coordinate":{"lat":51.8547210693359,"lng":4.5533332824707},"countryCode":"NL","name":"Barendrecht","stationCode":"BRD","uicCode":"8400090"},"description":"vanaf de achterzijde van het station"},{"station":{"coordinate":{"lat":51.814998626709,"lng":4.64166688919067},"countryCode":"NL","name":"Zwijndrecht","stationCode":"ZWD","uicCode":"8400752"},"description":"vanaf het Stationsplein"},{"station":{"coordinate":{"lat":51.8072204589844,"lng":4.66833353042603},"countryCode":"NL","name":"Dordrecht","stationCode":"DDR","uicCode":"8400180"},"description":"Burgemeester de Raadtsingel"}],"label":"Er rijden stopbussen tussen Rotterdam Centraal, Rotterdam Zuid, Rotterdam Lombardijen, Barendrecht, Zwijndrecht en Dordrecht.","shortLabel":"er rijden stopbussen Rotterdam C. - Rotterdam Zuid - Lombardijen - Barendrecht - Zwijndrecht - Dordrecht"}},{"start":"2023-12-02T01:10:00+0100","end":"2023-12-02T06:00:00+0100","alternativeTransport":{"location":[{"station":{"coordinate":{"lat":51.9249992370605,"lng":4.46888875961304},"countryCode":"NL","name":"Rotterdam Centraal","stationCode":"RTD","uicCode":"8400530"},"description":"vanaf de Conradstraat aan de centrumzijde"},{"station":{"coordinate":{"lat":51.9212438128032,"lng":4.4089937210083},"countryCode":"NL","name":"Schiedam Centrum","stationCode":"SDM","uicCode":"8400553"},"description":"vanaf de Horvathweg"}],"label":"Er rijden snelbussen tussen Rotterdam Centraal en Schiedam Centrum.","shortLabel":"er rijden snelbussen Rotterdam C. - Schiedam C."}},{"start":"2023-12-02T05:00:00+0100","end":"2023-12-03T01:00:00+0100","alternativeTransport":{"location":[{"station":{"coordinate":{"lat":51.9422225952148,"lng":4.48166656494141},"countryCode":"NL","name":"Rotterdam Noord","stationCode":"RTN","uicCode":"8400531"},"description":"vanaf de Bergweg onder het viaduct"},{"station":{"coordinate":{"lat":51.9519462585449,"lng":4.55361127853394},"countryCode":"NL","name":"Rotterdam Alexander","stationCode":"RTA","uicCode":"8400507"},"description":"vanaf de Prins Alexanderlaan"}],"label":"Er rijden stopbussen tussen Rotterdam Noord en Rotterdam Alexander.","shortLabel":"er rijden stopbussen Rotterdam Noord - Alexander"}},{"start":"2023-12-02T05:00:00+0100","end":"2023-12-03T01:00:00+0100","alternativeTransport":{"location":[{"station":{"coordinate":{"lat":51.9212438128032,"lng":4.4089937210083},"countryCode":"NL","name":"Schiedam Centrum","stationCode":"SDM","uicCode":"8400553"},"description":"vanaf de Horvathweg"},{"station":{"coordinate":{"lat":51.8800010681152,"lng":4.53138875961304},"countryCode":"NL","name":"Rotterdam Lombardijen","stationCode":"RLB","uicCode":"8400542"},"description":"vanaf de bushalte"}],"label":"Er rijden snelbussen tussen Schiedam Centrum en Rotterdam Lombardijen.","shortLabel":"er rijden snelbussen Schiedam C. - Lombardijen"}},{"start":"2023-12-02T05:00:00+0100","end":"2023-12-03T01:00:00+0100","alternativeTransport":{"location":[{"station":{"coordinate":{"lat":51.8800010681152,"lng":4.53138875961304},"countryCode":"NL","name":"Rotterdam Lombardijen","stationCode":"RLB","uicCode":"8400542"},"description":"vanaf de bushalte"}],"label":"Er rijden snelbussen tussen Capelsebrug en Rotterdam Lombardijen.","shortLabel":"er rijden snelbussen Capelsebrug - Lombardijen"}},{"start":"2023-12-02T05:00:00+0100","end":"2023-12-03T01:00:00+0100","alternativeTransport":{"location":[{"station":{"coordinate":{"lat":51.8800010681152,"lng":4.53138875961304},"countryCode":"NL","name":"Rotterdam Lombardijen","stationCode":"RLB","uicCode":"8400542"},"description":"vanaf de bushalte"},{"station":{"coordinate":{"lat":51.9044456481934,"lng":4.51027774810791},"countryCode":"NL","name":"Rotterdam Zuid","stationCode":"RTZ","uicCode":"8400533"},"description":"vanaf de Rosestraat"}],"label":"Er rijden stopbussen tussen Rotterdam Lombardijen en Rotterdam Zuid.","shortLabel":"er rijden stopbussen Lombardijen - Rotterdam Zuid"}},{"start":"2023-12-02T05:00:00+0100","end":"2023-12-03T01:00:00+0100","alternativeTransport":{"location":[],"label":"Maak gebruik van de Rotterdamse metro tussen Schiedam Centrum, Rotterdam Beurs, Rotterdam Blaak, Capelsebrug en Rotterdam Alexander.","shortLabel":"gebruik de Rotterdamse metro Schiedam C. - Rotterdam Beurs - Blaak - Capelsebrug - Alexander"}},{"start":"2023-12-02T05:00:00+0100","end":"2023-12-03T01:00:00+0100","alternativeTransport":{"location":[],"label":"Maak gebruik van de Rotterdamse metro tussen Rotterdam Centraal en Rotterdam Beurs.","shortLabel":"gebruik de Rotterdamse metro Rotterdam C. - Rotterdam Beurs"}},{"start":"2023-12-03T00:30:00+0100","end":"2023-12-03T06:00:00+0100","alternativeTransport":{"location":[{"station":{"coordinate":{"lat":51.9249992370605,"lng":4.46888875961304},"countryCode":"NL","name":"Rotterdam Centraal","stationCode":"RTD","uicCode":"8400530"},"description":"vanaf de Conradstraat aan de centrumzijde"},{"station":{"coordinate":{"lat":51.9212438128032,"lng":4.4089937210083},"countryCode":"NL","name":"Schiedam Centrum","stationCode":"SDM","uicCode":"8400553"},"description":"vanaf de Horvathweg"}],"label":"Er rijden snelbussen tussen Rotterdam Centraal en Schiedam Centrum.","shortLabel":"er rijden snelbussen Rotterdam C. - Schiedam C."}},{"start":"2023-12-03T01:30:00+0100","end":"2023-12-03T02:45:00+0100","alternativeTransport":{"location":[{"station":{"coordinate":{"lat":51.8072204589844,"lng":4.66833353042603},"countryCode":"NL","name":"Dordrecht","stationCode":"DDR","uicCode":"8400180"},"description":"Burgemeester de Raadtsingel"}],"label":"Er rijden snelbussen van Dordrecht naar Rotterdam Centraal.","shortLabel":"er rijden snelbussen Dordrecht -> Rotterdam C."}},{"start":"2023-12-03T05:00:00+0100","end":"2023-12-04T01:00:00+0100","alternativeTransport":{"location":[],"label":"Maak gebruik van de Rotterdamse metro tussen Rotterdam Centraal en Rotterdam Beurs.","shortLabel":"gebruik de Rotterdamse metro Rotterdam C. - Rotterdam Beurs"}},{"start":"2023-12-03T05:00:00+0100","end":"2023-12-04T01:00:00+0100","alternativeTransport":{"location":[],"label":"Maak gebruik van de Rotterdamse metro tussen Schiedam Centrum, Rotterdam Beurs, Rotterdam Blaak, Capelsebrug en Rotterdam Alexander.","shortLabel":"gebruik de Rotterdamse metro Schiedam C. - Rotterdam Beurs - Blaak - Capelsebrug - Alexander"}},{"start":"2023-12-03T05:00:00+0100","end":"2023-12-04T01:00:00+0100","alternativeTransport":{"location":[{"station":{"coordinate":{"lat":51.8800010681152,"lng":4.53138875961304},"countryCode":"NL","name":"Rotterdam Lombardijen","stationCode":"RLB","uicCode":"8400542"},"description":"vanaf de bushalte"}],"label":"Er rijden snelbussen tussen Capelsebrug en Rotterdam Lombardijen.","shortLabel":"er rijden snelbussen Capelsebrug - Lombardijen"}},{"start":"2023-12-03T05:00:00+0100","end":"2023-12-04T01:00:00+0100","alternativeTransport":{"location":[{"station":{"coordinate":{"lat":51.9044456481934,"lng":4.51027774810791},"countryCode":"NL","name":"Rotterdam Zuid","stationCode":"RTZ","uicCode":"8400533"},"description":"vanaf de Rosestraat"},{"station":{"coordinate":{"lat":51.8800010681152,"lng":4.53138875961304},"countryCode":"NL","name":"Rotterdam Lombardijen","stationCode":"RLB","uicCode":"8400542"},"description":"vanaf de bushalte"}],"label":"Er rijden stopbussen tussen Rotterdam Zuid en Rotterdam Lombardijen.","shortLabel":"er rijden stopbussen Rotterdam Zuid - Lombardijen"}},{"start":"2023-12-03T05:00:00+0100","end":"2023-12-04T01:00:00+0100","alternativeTransport":{"location":[{"station":{"coordinate":{"lat":51.9422225952148,"lng":4.48166656494141},"countryCode":"NL","name":"Rotterdam Noord","stationCode":"RTN","uicCode":"8400531"},"description":"vanaf de Bergweg onder het viaduct"},{"station":{"coordinate":{"lat":51.9519462585449,"lng":4.55361127853394},"countryCode":"NL","name":"Rotterdam Alexander","stationCode":"RTA","uicCode":"8400507"},"description":"vanaf de Prins Alexanderlaan"}],"label":"Er rijden stopbussen tussen Rotterdam Noord en Rotterdam Alexander.","shortLabel":"er rijden stopbussen Rotterdam Noord - Alexander"}},{"start":"2023-12-03T05:30:00+0100","end":"2023-12-03T10:00:00+0100","alternativeTransport":{"location":[{"station":{"coordinate":{"lat":51.9212438128032,"lng":4.4089937210083},"countryCode":"NL","name":"Schiedam Centrum","stationCode":"SDM","uicCode":"8400553"},"description":"vanaf de Horvathweg"},{"station":{"coordinate":{"lat":51.8800010681152,"lng":4.53138875961304},"countryCode":"NL","name":"Rotterdam Lombardijen","stationCode":"RLB","uicCode":"8400542"},"description":"vanaf de bushalte"}],"label":"Er rijden snelbussen tussen Schiedam Centrum en Rotterdam Lombardijen.","shortLabel":"er rijden snelbussen Schiedam C. - Lombardijen"}},{"start":"2023-12-03T10:00:00+0100","end":"2023-12-03T15:30:00+0100","alternativeTransport":{"location":[{"station":{"coordinate":{"lat":51.9212438128032,"lng":4.4089937210083},"countryCode":"NL","name":"Schiedam Centrum","stationCode":"SDM","uicCode":"8400553"},"description":"vanaf de Horvathweg"},{"station":{"coordinate":{"lat":51.8547210693359,"lng":4.5533332824707},"countryCode":"NL","name":"Barendrecht","stationCode":"BRD","uicCode":"8400090"},"description":"vanaf de achterzijde van het station"}],"label":"Er rijden snelbussen tussen Schiedam Centrum en Barendrecht.","shortLabel":"er rijden snelbussen Schiedam C. - Barendrecht"}},{"start":"2023-12-03T15:30:00+0100","end":"2023-12-04T01:00:00+0100","alternativeTransport":{"location":[{"station":{"coordinate":{"lat":51.9212438128032,"lng":4.4089937210083},"countryCode":"NL","name":"Schiedam Centrum","stationCode":"SDM","uicCode":"8400553"},"description":"vanaf de Horvathweg"},{"station":{"coordinate":{"lat":51.8800010681152,"lng":4.53138875961304},"countryCode":"NL","name":"Rotterdam Lombardijen","stationCode":"RLB","uicCode":"8400542"},"description":"vanaf de bushalte"}],"label":"Er rijden snelbussen tussen Schiedam Centrum en Rotterdam Lombardijen.","shortLabel":"er rijden snelbussen Schiedam C. - Lombardijen"}},{"start":"2023-12-04T00:30:00+0100","end":"2023-12-04T05:00:00+0100","alternativeTransport":{"location":[{"station":{"coordinate":{"lat":51.9249992370605,"lng":4.46888875961304},"countryCode":"NL","name":"Rotterdam Centraal","stationCode":"RTD","uicCode":"8400530"},"description":"vanaf de Conradstraat aan de centrumzijde"},{"station":{"coordinate":{"lat":51.9212438128032,"lng":4.4089937210083},"countryCode":"NL","name":"Schiedam Centrum","stationCode":"SDM","uicCode":"8400553"},"description":"vanaf de Horvathweg"}],"label":"Er rijden snelbussen tussen Rotterdam Centraal en Schiedam Centrum.","shortLabel":"er rijden snelbussen Rotterdam C. - Schiedam C."}}],"summaryAdditionalTravelTime":{"label":"De extra reistijd is ongeveer 45 minuten.","shortLabel":"extra reistijd 45 min.","minimumDurationInMinutes":45,"maximumDurationInMinutes":45}},{"id":"7003877","isActive":false,"title":"Amsterdam - Rotterdam - Brussel (HSL).","type":"MAINTENANCE","registrationTime":"2023-11-06T14:23:21+0100","releaseTime":"2023-11-06T14:23:21+0100","local":false,"titleSections":[[{"type":"STATION","value":"Amsterdam C."},{"type":"ICON","value":"MAINTENANCE"},{"type":"STATION","value":"Brussel-Z. Midi"}]],"start":"2023-12-02T04:00:00+0100","end":"2023-12-03T23:59:00+0100","period":"Zaterdag 02-12-2023 04:00 uur t/m zondag 03-12-2023 23:59 uur.","impact":{"value":2},"publicationSections":[{"section":{"stations":[{"coordinate":{"lat":52.3788871765137,"lng":4.90027761459351},"countryCode":"NL","name":"Amsterdam Centraal","stationCode":"ASD","uicCode":"8400058"},{"coordinate":{"lat":52.3888893127441,"lng":4.83777761459351},"countryCode":"NL","name":"Amsterdam Sloterdijk","stationCode":"ASS","uicCode":"8400059"},{"coordinate":{"lat":52.3577766418457,"lng":4.83388900756836},"countryCode":"NL","name":"Amsterdam Lelylaan","stationCode":"ASDL","uicCode":"8400079"},{"coordinate":{"lat":52.3094444274902,"lng":4.76194429397583},"countryCode":"NL","name":"Schiphol Airport","stationCode":"SHL","uicCode":"8400561"},{"coordinate":{"lat":52.2933349609375,"lng":4.70055532455444},"countryCode":"NL","name":"Hoofddorp","stationCode":"HFD","uicCode":"8400332"},{"coordinate":{"lat":51.9249992370605,"lng":4.46888875961304},"countryCode":"NL","name":"Rotterdam Centraal","stationCode":"RTD","uicCode":"8400530"},{"coordinate":{"lat":51.9202766418457,"lng":4.48888874053955},"countryCode":"NL","name":"Rotterdam Blaak","stationCode":"RTB","uicCode":"8400529"},{"coordinate":{"lat":51.9044456481934,"lng":4.51027774810791},"countryCode":"NL","name":"Rotterdam Zuid","stationCode":"RTZ","uicCode":"8400533"},{"coordinate":{"lat":51.8800010681152,"lng":4.53138875961304},"countryCode":"NL","name":"Rotterdam Lombardijen","stationCode":"RLB","uicCode":"8400542"},{"coordinate":{"lat":51.606388092041,"lng":4.72083330154419},"countryCode":"NL","name":"Breda-Prinsenbeek","stationCode":"BDPB","uicCode":"8400132"},{"coordinate":{"lat":51.5955543518066,"lng":4.78000020980835},"countryCode":"NL","name":"Breda","stationCode":"BD","uicCode":"8400131"},{"coordinate":{"lat":51.358088,"lng":4.633977},"countryCode":"B","name":"Noorderkempen","stationCode":"NDKP","uicCode":"8821105"},{"coordinate":{"lat":51.2449375,"lng":4.4251543},"countryCode":"B","name":"Antwerpen-Luchtbal","stationCode":"ATWLB","uicCode":"8821063"},{"coordinate":{"lat":51.21686,"lng":4.421242},"countryCode":"B","name":"Antwerpen-Centraal","stationCode":"ATW","uicCode":"8821006"},{"coordinate":{"lat":51.198914,"lng":4.4332},"countryCode":"B","name":"Antwerpen-Berchem","stationCode":"BERCH","uicCode":"8821121"},{"coordinate":{"lat":51.01758,"lng":4.48313},"countryCode":"B","name":"Mechelen","stationCode":"MECH","uicCode":"8822004"},{"coordinate":{"lat":50.859658,"lng":4.360854},"countryCode":"B","name":"Brussel-Noord","stationCode":"BRUSN","uicCode":"8812005"},{"coordinate":{"lat":50.845175,"lng":4.357131},"countryCode":"B","name":"Brussel-Centraal","stationCode":"BRUSC","uicCode":"8813003"},{"coordinate":{"lat":50.836782,"lng":4.336922},"countryCode":"B","name":"Brussel-Zuid Midi","stationCode":"BRUSZ","uicCode":"8814001"}],"direction":"BOTH"},"consequence":{"section":{"stations":[{"coordinate":{"lat":52.3788871765137,"lng":4.90027761459351},"countryCode":"NL","name":"Amsterdam Centraal","stationCode":"ASD","uicCode":"8400058"},{"coordinate":{"lat":52.3888893127441,"lng":4.83777761459351},"countryCode":"NL","name":"Amsterdam Sloterdijk","stationCode":"ASS","uicCode":"8400059"},{"coordinate":{"lat":52.3577766418457,"lng":4.83388900756836},"countryCode":"NL","name":"Amsterdam Lelylaan","stationCode":"ASDL","uicCode":"8400079"},{"coordinate":{"lat":52.3094444274902,"lng":4.76194429397583},"countryCode":"NL","name":"Schiphol Airport","stationCode":"SHL","uicCode":"8400561"},{"coordinate":{"lat":52.2933349609375,"lng":4.70055532455444},"countryCode":"NL","name":"Hoofddorp","stationCode":"HFD","uicCode":"8400332"},{"coordinate":{"lat":51.9249992370605,"lng":4.46888875961304},"countryCode":"NL","name":"Rotterdam Centraal","stationCode":"RTD","uicCode":"8400530"},{"coordinate":{"lat":51.9202766418457,"lng":4.48888874053955},"countryCode":"NL","name":"Rotterdam Blaak","stationCode":"RTB","uicCode":"8400529"},{"coordinate":{"lat":51.9044456481934,"lng":4.51027774810791},"countryCode":"NL","name":"Rotterdam Zuid","stationCode":"RTZ","uicCode":"8400533"},{"coordinate":{"lat":51.8800010681152,"lng":4.53138875961304},"countryCode":"NL","name":"Rotterdam Lombardijen","stationCode":"RLB","uicCode":"8400542"},{"coordinate":{"lat":51.606388092041,"lng":4.72083330154419},"countryCode":"NL","name":"Breda-Prinsenbeek","stationCode":"BDPB","uicCode":"8400132"},{"coordinate":{"lat":51.5955543518066,"lng":4.78000020980835},"countryCode":"NL","name":"Breda","stationCode":"BD","uicCode":"8400131"},{"coordinate":{"lat":51.358088,"lng":4.633977},"countryCode":"B","name":"Noorderkempen","stationCode":"NDKP","uicCode":"8821105"},{"coordinate":{"lat":51.2449375,"lng":4.4251543},"countryCode":"B","name":"Antwerpen-Luchtbal","stationCode":"ATWLB","uicCode":"8821063"},{"coordinate":{"lat":51.21686,"lng":4.421242},"countryCode":"B","name":"Antwerpen-Centraal","stationCode":"ATW","uicCode":"8821006"},{"coordinate":{"lat":51.198914,"lng":4.4332},"countryCode":"B","name":"Antwerpen-Berchem","stationCode":"BERCH","uicCode":"8821121"},{"coordinate":{"lat":51.01758,"lng":4.48313},"countryCode":"B","name":"Mechelen","stationCode":"MECH","uicCode":"8822004"},{"coordinate":{"lat":50.859658,"lng":4.360854},"countryCode":"B","name":"Brussel-Noord","stationCode":"BRUSN","uicCode":"8812005"},{"coordinate":{"lat":50.845175,"lng":4.357131},"countryCode":"B","name":"Brussel-Centraal","stationCode":"BRUSC","uicCode":"8813003"},{"coordinate":{"lat":50.836782,"lng":4.336922},"countryCode":"B","name":"Brussel-Zuid Midi","stationCode":"BRUSZ","uicCode":"8814001"}],"direction":"ONE_WAY"},"description":"dienstregeling aangepast","level":"LESS_TRAINS"},"sectionType":"HSL"}],"timespans":[{"start":"2023-12-02T04:00:00+0100","end":"2023-12-03T23:59:00+0100","period":"Zaterdag 02-12-2023 04:00 uur t/m zondag 03-12-2023 23:59 uur.","situation":{"label":"Door werkzaamheden: tussen Amsterdam Centraal en Brussel-Zuid Midi is de dienstregeling aangepast."},"cause":{"label":"werkzaamheden"},"additionalTravelTime":{"label":"U heeft geen langere reistijd.","shortLabel":"Geen extra reistijd"},"advices":["Intercity Brussel rijdt niet tussen Amsterdam C en Breda en stopt niet in Antwerpen C.","tussen Breda en Antwerpen-C. reist u via Antw-Berchem","tussen Amsterdam C. en Breda reist u via 's-Hertogenbosch"]}],"alternativeTransportTimespans":[],"summaryAdditionalTravelTime":{"label":"U heeft geen langere reistijd.","shortLabel":"Geen extra reistijd"}},{"id":"7003875","isActive":false,"title":"Roosendaal - Antwerpen - Puurs.","type":"MAINTENANCE","registrationTime":"2023-10-31T11:37:49+0100","releaseTime":"2023-10-31T11:37:49+0100","local":false,"titleSections":[[{"type":"STATION","value":"Roosendaal"},{"type":"STATION","value":"Kapellen"},{"type":"ICON","value":"MAINTENANCE"},{"type":"STATION","value":"Antwerpen-C."},{"type":"STATION","value":"Puurs"}]],"start":"2023-12-02T04:00:00+0100","end":"2023-12-04T02:00:00+0100","period":"Zaterdag 02-12-2023 04:00 uur t/m maandag 04-12-2023 02:00 uur.","impact":{"value":2},"publicationSections":[{"section":{"stations":[{"coordinate":{"lat":51.5402793884277,"lng":4.45833349227905},"countryCode":"NL","name":"Roosendaal","stationCode":"RSD","uicCode":"8400526"},{"coordinate":{"lat":51.46261,"lng":4.45129},"countryCode":"B","name":"Essen","stationCode":"ESN","uicCode":"8821402"},{"coordinate":{"lat":51.4277061,"lng":4.4633962},"countryCode":"B","name":"Wildert","stationCode":"GWD","uicCode":"8821436"},{"coordinate":{"lat":51.3909989,"lng":4.4668202},"countryCode":"B","name":"Kalmthout","stationCode":"FKTH","uicCode":"8821444"},{"coordinate":{"lat":51.37867,"lng":4.46722},"countryCode":"B","name":"Kijkuit","stationCode":"GKT","uicCode":"8821451"},{"coordinate":{"lat":51.364828,"lng":4.4604308},"countryCode":"B","name":"Heide (B)","stationCode":"MID","uicCode":"8821519"},{"coordinate":{"lat":51.31362,"lng":4.43262},"countryCode":"B","name":"Kapellen","stationCode":"LKP","uicCode":"8821535"},{"coordinate":{"lat":51.21686,"lng":4.421242},"countryCode":"B","name":"Antwerpen-Centraal","stationCode":"ATW","uicCode":"8821006"},{"coordinate":{"lat":51.07716,"lng":4.28273},"countryCode":"B","name":"Puurs","stationCode":"FRP","uicCode":"8822715"}],"direction":"BOTH"},"consequence":{"section":{"stations":[{"coordinate":{"lat":51.31362,"lng":4.43262},"countryCode":"B","name":"Kapellen","stationCode":"LKP","uicCode":"8821535"},{"coordinate":{"lat":51.21686,"lng":4.421242},"countryCode":"B","name":"Antwerpen-Centraal","stationCode":"ATW","uicCode":"8821006"}],"direction":"ONE_WAY"},"description":"aangepaste internationale dienstregeling","level":"LESS_TRAINS"},"sectionType":"NEIGHBORING_COUNTRY"}],"timespans":[{"start":"2023-12-02T04:00:00+0100","end":"2023-12-04T02:00:00+0100","period":"Zaterdag 02-12-2023 04:00 uur t/m maandag 04-12-2023 02:00 uur.","situation":{"label":"Door werkzaamheden: tussen Kapellen en Antwerpen-Centraal is de internationale dienstregeling aangepast."},"cause":{"label":"werkzaamheden"},"additionalTravelTime":{"label":"De extra reistijd kan oplopen tot 30 minuten.","shortLabel":"extra reistijd tot 30 min.","maximumDurationInMinutes":30},"alternativeTransport":{"label":"er rijden stopbussen","shortLabel":"er rijden stopbussen"},"advices":[]}],"alternativeTransportTimespans":[{"start":"2023-12-02T04:00:00+0100","end":"2023-12-04T02:00:00+0100","alternativeTransport":{"location":[],"label":"Er rijden stopbussen tussen Kapellen en Antwerpen-Centraal.","shortLabel":"er rijden stopbussen Kapellen - Antwerpen-C."}}],"summaryAdditionalTravelTime":{"label":"De extra reistijd kan oplopen tot 30 minuten.","shortLabel":"extra reistijd tot 30 min.","maximumDurationInMinutes":30}},{"id":"7004084","isActive":false,"title":"Amsterdam - Brussel - London (HSL).","type":"MAINTENANCE","registrationTime":"2023-11-28T10:55:02+0100","releaseTime":"2023-11-28T10:55:02+0100","local":false,"titleSections":[[{"type":"STATION","value":"Amsterdam C."},{"type":"ICON","value":"MAINTENANCE"},{"type":"STATION","value":"Antwerpen-C."},{"type":"STATION","value":"London St. P Int"}]],"start":"2023-12-02T06:00:00+0100","end":"2023-12-03T23:59:00+0100","period":"Zaterdag 02-12-2023 06:00 uur t/m zondag 03-12-2023 23:59 uur.","impact":{"value":2},"publicationSections":[{"section":{"stations":[{"coordinate":{"lat":52.3788871765137,"lng":4.90027761459351},"countryCode":"NL","name":"Amsterdam Centraal","stationCode":"ASD","uicCode":"8400058"},{"coordinate":{"lat":52.3888893127441,"lng":4.83777761459351},"countryCode":"NL","name":"Amsterdam Sloterdijk","stationCode":"ASS","uicCode":"8400059"},{"coordinate":{"lat":52.3577766418457,"lng":4.83388900756836},"countryCode":"NL","name":"Amsterdam Lelylaan","stationCode":"ASDL","uicCode":"8400079"},{"coordinate":{"lat":52.3094444274902,"lng":4.76194429397583},"countryCode":"NL","name":"Schiphol Airport","stationCode":"SHL","uicCode":"8400561"},{"coordinate":{"lat":52.2933349609375,"lng":4.70055532455444},"countryCode":"NL","name":"Hoofddorp","stationCode":"HFD","uicCode":"8400332"},{"coordinate":{"lat":51.9249992370605,"lng":4.46888875961304},"countryCode":"NL","name":"Rotterdam Centraal","stationCode":"RTD","uicCode":"8400530"},{"coordinate":{"lat":51.9202766418457,"lng":4.48888874053955},"countryCode":"NL","name":"Rotterdam Blaak","stationCode":"RTB","uicCode":"8400529"},{"coordinate":{"lat":51.9044456481934,"lng":4.51027774810791},"countryCode":"NL","name":"Rotterdam Zuid","stationCode":"RTZ","uicCode":"8400533"},{"coordinate":{"lat":51.8800010681152,"lng":4.53138875961304},"countryCode":"NL","name":"Rotterdam Lombardijen","stationCode":"RLB","uicCode":"8400542"},{"coordinate":{"lat":51.606388092041,"lng":4.72083330154419},"countryCode":"NL","name":"Breda-Prinsenbeek","stationCode":"BDPB","uicCode":"8400132"},{"coordinate":{"lat":51.5955543518066,"lng":4.78000020980835},"countryCode":"NL","name":"Breda","stationCode":"BD","uicCode":"8400131"},{"coordinate":{"lat":51.358088,"lng":4.633977},"countryCode":"B","name":"Noorderkempen","stationCode":"NDKP","uicCode":"8821105"},{"coordinate":{"lat":51.2449375,"lng":4.4251543},"countryCode":"B","name":"Antwerpen-Luchtbal","stationCode":"ATWLB","uicCode":"8821063"},{"coordinate":{"lat":51.21686,"lng":4.421242},"countryCode":"B","name":"Antwerpen-Centraal","stationCode":"ATW","uicCode":"8821006"},{"coordinate":{"lat":51.198914,"lng":4.4332},"countryCode":"B","name":"Antwerpen-Berchem","stationCode":"BERCH","uicCode":"8821121"},{"coordinate":{"lat":51.01758,"lng":4.48313},"countryCode":"B","name":"Mechelen","stationCode":"MECH","uicCode":"8822004"},{"coordinate":{"lat":50.859658,"lng":4.360854},"countryCode":"B","name":"Brussel-Noord","stationCode":"BRUSN","uicCode":"8812005"},{"coordinate":{"lat":50.845175,"lng":4.357131},"countryCode":"B","name":"Brussel-Centraal","stationCode":"BRUSC","uicCode":"8813003"},{"coordinate":{"lat":50.836782,"lng":4.336922},"countryCode":"B","name":"Brussel-Zuid Midi","stationCode":"BRUSZ","uicCode":"8814001"},{"coordinate":{"lat":50.639444,"lng":3.074722},"countryCode":"F","name":"Lille Europe","stationCode":"LILLEE","uicCode":"8722326"},{"coordinate":{"lat":51.531437,"lng":-0.126136},"countryCode":"GB","name":"London St. Pancras Int.","stationCode":"STP","uicCode":"7015400"}],"direction":"BOTH"},"consequence":{"section":{"stations":[{"coordinate":{"lat":52.3788871765137,"lng":4.90027761459351},"countryCode":"NL","name":"Amsterdam Centraal","stationCode":"ASD","uicCode":"8400058"},{"coordinate":{"lat":52.3888893127441,"lng":4.83777761459351},"countryCode":"NL","name":"Amsterdam Sloterdijk","stationCode":"ASS","uicCode":"8400059"},{"coordinate":{"lat":52.3577766418457,"lng":4.83388900756836},"countryCode":"NL","name":"Amsterdam Lelylaan","stationCode":"ASDL","uicCode":"8400079"},{"coordinate":{"lat":52.3094444274902,"lng":4.76194429397583},"countryCode":"NL","name":"Schiphol Airport","stationCode":"SHL","uicCode":"8400561"},{"coordinate":{"lat":52.2933349609375,"lng":4.70055532455444},"countryCode":"NL","name":"Hoofddorp","stationCode":"HFD","uicCode":"8400332"},{"coordinate":{"lat":51.9249992370605,"lng":4.46888875961304},"countryCode":"NL","name":"Rotterdam Centraal","stationCode":"RTD","uicCode":"8400530"},{"coordinate":{"lat":51.9202766418457,"lng":4.48888874053955},"countryCode":"NL","name":"Rotterdam Blaak","stationCode":"RTB","uicCode":"8400529"},{"coordinate":{"lat":51.9044456481934,"lng":4.51027774810791},"countryCode":"NL","name":"Rotterdam Zuid","stationCode":"RTZ","uicCode":"8400533"},{"coordinate":{"lat":51.8800010681152,"lng":4.53138875961304},"countryCode":"NL","name":"Rotterdam Lombardijen","stationCode":"RLB","uicCode":"8400542"},{"coordinate":{"lat":51.606388092041,"lng":4.72083330154419},"countryCode":"NL","name":"Breda-Prinsenbeek","stationCode":"BDPB","uicCode":"8400132"},{"coordinate":{"lat":51.5955543518066,"lng":4.78000020980835},"countryCode":"NL","name":"Breda","stationCode":"BD","uicCode":"8400131"},{"coordinate":{"lat":51.358088,"lng":4.633977},"countryCode":"B","name":"Noorderkempen","stationCode":"NDKP","uicCode":"8821105"},{"coordinate":{"lat":51.2449375,"lng":4.4251543},"countryCode":"B","name":"Antwerpen-Luchtbal","stationCode":"ATWLB","uicCode":"8821063"},{"coordinate":{"lat":51.21686,"lng":4.421242},"countryCode":"B","name":"Antwerpen-Centraal","stationCode":"ATW","uicCode":"8821006"}],"direction":"ONE_WAY"},"description":"geen Eurostar","level":"LESS_TRAINS"},"sectionType":"HSL"}],"timespans":[{"start":"2023-12-02T06:00:00+0100","end":"2023-12-03T23:59:00+0100","period":"Zaterdag 02-12-2023 06:00 uur t/m zondag 03-12-2023 23:59 uur.","situation":{"label":"Door werkzaamheden: tussen Amsterdam Centraal en Antwerpen-Centraal rijdt Eurostar niet."},"cause":{"label":"werkzaamheden"},"additionalTravelTime":{"label":"U heeft geen langere reistijd.","shortLabel":"Geen extra reistijd"},"advices":["Diverse Eurostar naar London rijden niet tussen Amsterdam C en Brussel Zuid."]}],"alternativeTransportTimespans":[],"summaryAdditionalTravelTime":{"label":"U heeft geen langere reistijd.","shortLabel":"Geen extra reistijd"}},{"id":"7004067","isActive":false,"title":"Amsterdam - Brussel - Paris (HSL).","type":"MAINTENANCE","registrationTime":"2023-11-06T13:47:23+0100","releaseTime":"2023-11-06T13:47:23+0100","local":false,"titleSections":[[{"type":"STATION","value":"Amsterdam C."},{"type":"ICON","value":"MAINTENANCE"},{"type":"STATION","value":"Brussel-Z. Midi"},{"type":"STATION","value":"Paris-Nord"}]],"start":"2023-12-02T06:00:00+0100","end":"2023-12-03T23:59:00+0100","period":"Zaterdag 02-12-2023 06:00 uur t/m zondag 03-12-2023 23:59 uur.","impact":{"value":2},"publicationSections":[{"section":{"stations":[{"coordinate":{"lat":52.3788871765137,"lng":4.90027761459351},"countryCode":"NL","name":"Amsterdam Centraal","stationCode":"ASD","uicCode":"8400058"},{"coordinate":{"lat":52.3888893127441,"lng":4.83777761459351},"countryCode":"NL","name":"Amsterdam Sloterdijk","stationCode":"ASS","uicCode":"8400059"},{"coordinate":{"lat":52.3577766418457,"lng":4.83388900756836},"countryCode":"NL","name":"Amsterdam Lelylaan","stationCode":"ASDL","uicCode":"8400079"},{"coordinate":{"lat":52.3094444274902,"lng":4.76194429397583},"countryCode":"NL","name":"Schiphol Airport","stationCode":"SHL","uicCode":"8400561"},{"coordinate":{"lat":52.2933349609375,"lng":4.70055532455444},"countryCode":"NL","name":"Hoofddorp","stationCode":"HFD","uicCode":"8400332"},{"coordinate":{"lat":51.9249992370605,"lng":4.46888875961304},"countryCode":"NL","name":"Rotterdam Centraal","stationCode":"RTD","uicCode":"8400530"},{"coordinate":{"lat":51.9202766418457,"lng":4.48888874053955},"countryCode":"NL","name":"Rotterdam Blaak","stationCode":"RTB","uicCode":"8400529"},{"coordinate":{"lat":51.9044456481934,"lng":4.51027774810791},"countryCode":"NL","name":"Rotterdam Zuid","stationCode":"RTZ","uicCode":"8400533"},{"coordinate":{"lat":51.8800010681152,"lng":4.53138875961304},"countryCode":"NL","name":"Rotterdam Lombardijen","stationCode":"RLB","uicCode":"8400542"},{"coordinate":{"lat":51.358088,"lng":4.633977},"countryCode":"B","name":"Noorderkempen","stationCode":"NDKP","uicCode":"8821105"},{"coordinate":{"lat":51.2449375,"lng":4.4251543},"countryCode":"B","name":"Antwerpen-Luchtbal","stationCode":"ATWLB","uicCode":"8821063"},{"coordinate":{"lat":51.21686,"lng":4.421242},"countryCode":"B","name":"Antwerpen-Centraal","stationCode":"ATW","uicCode":"8821006"},{"coordinate":{"lat":51.198914,"lng":4.4332},"countryCode":"B","name":"Antwerpen-Berchem","stationCode":"BERCH","uicCode":"8821121"},{"coordinate":{"lat":51.01758,"lng":4.48313},"countryCode":"B","name":"Mechelen","stationCode":"MECH","uicCode":"8822004"},{"coordinate":{"lat":50.859658,"lng":4.360854},"countryCode":"B","name":"Brussel-Noord","stationCode":"BRUSN","uicCode":"8812005"},{"coordinate":{"lat":50.845175,"lng":4.357131},"countryCode":"B","name":"Brussel-Centraal","stationCode":"BRUSC","uicCode":"8813003"},{"coordinate":{"lat":50.836782,"lng":4.336922},"countryCode":"B","name":"Brussel-Zuid Midi","stationCode":"BRUSZ","uicCode":"8814001"},{"coordinate":{"lat":48.87977,"lng":2.35575},"countryCode":"F","name":"Paris-Nord","stationCode":"PARIS","uicCode":"8727100"}],"direction":"BOTH"},"consequence":{"section":{"stations":[{"coordinate":{"lat":52.3788871765137,"lng":4.90027761459351},"countryCode":"NL","name":"Amsterdam Centraal","stationCode":"ASD","uicCode":"8400058"},{"coordinate":{"lat":52.3888893127441,"lng":4.83777761459351},"countryCode":"NL","name":"Amsterdam Sloterdijk","stationCode":"ASS","uicCode":"8400059"},{"coordinate":{"lat":52.3577766418457,"lng":4.83388900756836},"countryCode":"NL","name":"Amsterdam Lelylaan","stationCode":"ASDL","uicCode":"8400079"},{"coordinate":{"lat":52.3094444274902,"lng":4.76194429397583},"countryCode":"NL","name":"Schiphol Airport","stationCode":"SHL","uicCode":"8400561"},{"coordinate":{"lat":52.2933349609375,"lng":4.70055532455444},"countryCode":"NL","name":"Hoofddorp","stationCode":"HFD","uicCode":"8400332"},{"coordinate":{"lat":51.9249992370605,"lng":4.46888875961304},"countryCode":"NL","name":"Rotterdam Centraal","stationCode":"RTD","uicCode":"8400530"},{"coordinate":{"lat":51.9202766418457,"lng":4.48888874053955},"countryCode":"NL","name":"Rotterdam Blaak","stationCode":"RTB","uicCode":"8400529"},{"coordinate":{"lat":51.9044456481934,"lng":4.51027774810791},"countryCode":"NL","name":"Rotterdam Zuid","stationCode":"RTZ","uicCode":"8400533"},{"coordinate":{"lat":51.8800010681152,"lng":4.53138875961304},"countryCode":"NL","name":"Rotterdam Lombardijen","stationCode":"RLB","uicCode":"8400542"},{"coordinate":{"lat":51.358088,"lng":4.633977},"countryCode":"B","name":"Noorderkempen","stationCode":"NDKP","uicCode":"8821105"},{"coordinate":{"lat":51.2449375,"lng":4.4251543},"countryCode":"B","name":"Antwerpen-Luchtbal","stationCode":"ATWLB","uicCode":"8821063"},{"coordinate":{"lat":51.21686,"lng":4.421242},"countryCode":"B","name":"Antwerpen-Centraal","stationCode":"ATW","uicCode":"8821006"},{"coordinate":{"lat":51.198914,"lng":4.4332},"countryCode":"B","name":"Antwerpen-Berchem","stationCode":"BERCH","uicCode":"8821121"},{"coordinate":{"lat":51.01758,"lng":4.48313},"countryCode":"B","name":"Mechelen","stationCode":"MECH","uicCode":"8822004"},{"coordinate":{"lat":50.859658,"lng":4.360854},"countryCode":"B","name":"Brussel-Noord","stationCode":"BRUSN","uicCode":"8812005"},{"coordinate":{"lat":50.845175,"lng":4.357131},"countryCode":"B","name":"Brussel-Centraal","stationCode":"BRUSC","uicCode":"8813003"},{"coordinate":{"lat":50.836782,"lng":4.336922},"countryCode":"B","name":"Brussel-Zuid Midi","stationCode":"BRUSZ","uicCode":"8814001"}],"direction":"ONE_WAY"},"description":"aangepaste internationale dienstregeling","level":"LESS_TRAINS"},"sectionType":"HSL"}],"timespans":[{"start":"2023-12-02T06:00:00+0100","end":"2023-12-03T23:59:00+0100","period":"Zaterdag 02-12-2023 06:00 uur t/m zondag 03-12-2023 23:59 uur.","situation":{"label":"Door werkzaamheden: tussen Amsterdam Centraal en Brussel-Zuid Midi is de internationale dienstregeling aangepast."},"cause":{"label":"werkzaamheden"},"additionalTravelTime":{"label":"U heeft geen langere reistijd.","shortLabel":"Geen extra reistijd"},"advices":["Eurostar 9334, 9352, 9364 en 9382 naar Paris Nord stopt niet in Schiphol Airport, Rotterdam Centraal en Antwerpen-C."]}],"alternativeTransportTimespans":[],"summaryAdditionalTravelTime":{"label":"U heeft geen langere reistijd.","shortLabel":"Geen extra reistijd"}},{"id":"7004123","isActive":false,"title":"Amsterdam - Lelystad Centrum; Schiphol - Lelystad.","type":"MAINTENANCE","registrationTime":"2023-11-03T11:52:59+0100","releaseTime":"2023-11-03T11:52:59+0100","local":false,"titleSections":[[{"type":"STATION","value":"Schiphol Airport"},{"type":"STATION","value":"Oostvaarders"},{"type":"ICON","value":"MAINTENANCE"},{"type":"STATION","value":"Lelystad C."}],[{"type":"STATION","value":"Amsterdam C."},{"type":"STATION","value":"Oostvaarders"},{"type":"ICON","value":"MAINTENANCE"},{"type":"STATION","value":"Lelystad C."}]],"start":"2023-12-03T00:45:00+0100","end":"2023-12-04T02:00:00+0100","period":"Zondag 03-12-2023 00:45 uur t/m maandag 04-12-2023 02:00 uur.","impact":{"value":4},"publicationSections":[{"section":{"stations":[{"coordinate":{"lat":52.3094444274902,"lng":4.76194429397583},"countryCode":"NL","name":"Schiphol Airport","stationCode":"SHL","uicCode":"8400561"},{"coordinate":{"lat":52.338889,"lng":4.872356},"countryCode":"NL","name":"Amsterdam Zuid","stationCode":"ASDZ","uicCode":"8400061"},{"coordinate":{"lat":52.3372230529785,"lng":4.89027786254883},"countryCode":"NL","name":"Amsterdam RAI","stationCode":"RAI","uicCode":"8400056"},{"coordinate":{"lat":52.3233337402344,"lng":4.93638896942139},"countryCode":"NL","name":"Duivendrecht","stationCode":"DVD","uicCode":"8400194"},{"coordinate":{"lat":52.3302764892578,"lng":4.95583343505859},"countryCode":"NL","name":"Diemen Zuid","stationCode":"DMNZ","uicCode":"8400163"},{"coordinate":{"lat":52.3127784729004,"lng":5.04305553436279},"countryCode":"NL","name":"Weesp","stationCode":"WP","uicCode":"8400685"},{"coordinate":{"lat":52.342778,"lng":5.151944},"countryCode":"NL","name":"Almere Poort","stationCode":"AMPO","uicCode":"8400450"},{"coordinate":{"lat":52.3675003051758,"lng":5.19027757644653},"countryCode":"NL","name":"Almere Muziekwijk","stationCode":"ALMM","uicCode":"8400082"},{"coordinate":{"lat":52.37503,"lng":5.21764},"countryCode":"NL","name":"Almere Centrum","stationCode":"ALM","uicCode":"8400080"},{"coordinate":{"lat":52.3766670227051,"lng":5.24472236633301},"countryCode":"NL","name":"Almere Parkwijk","stationCode":"ALMP","uicCode":"8400104"},{"coordinate":{"lat":52.3941650390625,"lng":5.2780556678772},"countryCode":"NL","name":"Almere Buiten","stationCode":"ALMB","uicCode":"8400081"},{"coordinate":{"lat":52.4033317565918,"lng":5.30055570602417},"countryCode":"NL","name":"Almere Oostvaarders","stationCode":"ALMO","uicCode":"8400226"},{"coordinate":{"lat":52.5077781677246,"lng":5.47277784347534},"countryCode":"NL","name":"Lelystad Centrum","stationCode":"LLS","uicCode":"8400394"}],"direction":"BOTH"},"consequence":{"section":{"stations":[{"coordinate":{"lat":52.4033317565918,"lng":5.30055570602417},"countryCode":"NL","name":"Almere Oostvaarders","stationCode":"ALMO","uicCode":"8400226"},{"coordinate":{"lat":52.5077781677246,"lng":5.47277784347534},"countryCode":"NL","name":"Lelystad Centrum","stationCode":"LLS","uicCode":"8400394"}],"direction":"ONE_WAY"},"description":"rijden bussen","level":"LESS_TRAINS"},"sectionType":"NL"},{"section":{"stations":[{"coordinate":{"lat":52.3788871765137,"lng":4.90027761459351},"countryCode":"NL","name":"Amsterdam Centraal","stationCode":"ASD","uicCode":"8400058"},{"coordinate":{"lat":52.3605537414551,"lng":4.93111133575439},"countryCode":"NL","name":"Amsterdam Muiderpoort","stationCode":"ASDM","uicCode":"8400060"},{"coordinate":{"lat":52.35526,"lng":4.94651},"countryCode":"NL","name":"Amsterdam Science Park","stationCode":"ASSP","uicCode":"8400235"},{"coordinate":{"lat":52.34515,"lng":4.967566},"countryCode":"NL","name":"Diemen","stationCode":"DMN","uicCode":"8400165"},{"coordinate":{"lat":52.3127784729004,"lng":5.04305553436279},"countryCode":"NL","name":"Weesp","stationCode":"WP","uicCode":"8400685"},{"coordinate":{"lat":52.342778,"lng":5.151944},"countryCode":"NL","name":"Almere Poort","stationCode":"AMPO","uicCode":"8400450"},{"coordinate":{"lat":52.3675003051758,"lng":5.19027757644653},"countryCode":"NL","name":"Almere Muziekwijk","stationCode":"ALMM","uicCode":"8400082"},{"coordinate":{"lat":52.37503,"lng":5.21764},"countryCode":"NL","name":"Almere Centrum","stationCode":"ALM","uicCode":"8400080"},{"coordinate":{"lat":52.3766670227051,"lng":5.24472236633301},"countryCode":"NL","name":"Almere Parkwijk","stationCode":"ALMP","uicCode":"8400104"},{"coordinate":{"lat":52.3941650390625,"lng":5.2780556678772},"countryCode":"NL","name":"Almere Buiten","stationCode":"ALMB","uicCode":"8400081"},{"coordinate":{"lat":52.4033317565918,"lng":5.30055570602417},"countryCode":"NL","name":"Almere Oostvaarders","stationCode":"ALMO","uicCode":"8400226"},{"coordinate":{"lat":52.5077781677246,"lng":5.47277784347534},"countryCode":"NL","name":"Lelystad Centrum","stationCode":"LLS","uicCode":"8400394"}],"direction":"BOTH"},"consequence":{"section":{"stations":[{"coordinate":{"lat":52.4033317565918,"lng":5.30055570602417},"countryCode":"NL","name":"Almere Oostvaarders","stationCode":"ALMO","uicCode":"8400226"},{"coordinate":{"lat":52.5077781677246,"lng":5.47277784347534},"countryCode":"NL","name":"Lelystad Centrum","stationCode":"LLS","uicCode":"8400394"}],"direction":"ONE_WAY"},"description":"rijden bussen","level":"LESS_TRAINS"},"sectionType":"NL"}],"timespans":[{"start":"2023-12-03T00:45:00+0100","end":"2023-12-04T02:00:00+0100","period":"Zondag 03-12-2023 00:45 uur t/m maandag 04-12-2023 02:00 uur.","situation":{"label":"Door werkzaamheden: tussen Almere Oostvaarders en Lelystad Centrum rijden er bussen."},"cause":{"label":"werkzaamheden"},"additionalTravelTime":{"label":"De extra reistijd is ongeveer 30 minuten.","shortLabel":"extra reistijd 30 min.","minimumDurationInMinutes":30,"maximumDurationInMinutes":30},"alternativeTransport":{"label":"er rijden stopbussen","shortLabel":"er rijden stopbussen"},"advices":["tussen Amsterdam C. en Zwolle reist u via Amersfoort C.","tussen Schiphol Airport en Zwolle reist u via Amersfoort C."]}],"alternativeTransportTimespans":[{"start":"2023-12-03T00:45:00+0100","end":"2023-12-04T02:00:00+0100","alternativeTransport":{"location":[{"station":{"coordinate":{"lat":52.4033317565918,"lng":5.30055570602417},"countryCode":"NL","name":"Almere Oostvaarders","stationCode":"ALMO","uicCode":"8400226"},"description":"vanaf de voorzijde van het station"},{"station":{"coordinate":{"lat":52.5077781677246,"lng":5.47277784347534},"countryCode":"NL","name":"Lelystad Centrum","stationCode":"LLS","uicCode":"8400394"},"description":"vanaf de achterzijde van het station"}],"label":"Er rijden stopbussen tussen Almere Oostvaarders en Lelystad Centrum.","shortLabel":"er rijden stopbussen Oostvaarders - Lelystad C."}},{"start":"2023-12-03T01:00:00+0100","end":"2023-12-03T02:00:00+0100","alternativeTransport":{"location":[{"station":{"coordinate":{"lat":52.5077781677246,"lng":5.47277784347534},"countryCode":"NL","name":"Lelystad Centrum","stationCode":"LLS","uicCode":"8400394"},"description":"vanaf de achterzijde van het station"},{"station":{"coordinate":{"lat":52.37503,"lng":5.21764},"countryCode":"NL","name":"Almere Centrum","stationCode":"ALM","uicCode":"8400080"},"description":"vanaf de voorzijde van het station"}],"label":"Er rijden stopbussen van Lelystad Centrum, Almere Centrum naar Amsterdam Centraal.","shortLabel":"er rijden stopbussen Lelystad C. -> Almere C. -> Amsterdam C."}}],"summaryAdditionalTravelTime":{"label":"De extra reistijd is ongeveer 30 minuten.","shortLabel":"extra reistijd 30 min.","minimumDurationInMinutes":30,"maximumDurationInMinutes":30}},{"id":"7004149","isActive":false,"title":"Amsterdam - Haarlem.","type":"MAINTENANCE","registrationTime":"2023-10-31T11:37:04+0100","releaseTime":"2023-10-31T11:37:04+0100","local":false,"titleSections":[[{"type":"STATION","value":"Amsterdam C."},{"type":"ICON","value":"MAINTENANCE"},{"type":"STATION","value":"Haarlem"}]],"start":"2023-12-03T01:15:00+0100","end":"2023-12-03T04:00:00+0100","period":"Zondag 03-12-2023 01:15 uur t/m zondag 03-12-2023 04:00 uur.","impact":{"value":3},"publicationSections":[{"section":{"stations":[{"coordinate":{"lat":52.3788871765137,"lng":4.90027761459351},"countryCode":"NL","name":"Amsterdam Centraal","stationCode":"ASD","uicCode":"8400058"},{"coordinate":{"lat":52.3888893127441,"lng":4.83777761459351},"countryCode":"NL","name":"Amsterdam Sloterdijk","stationCode":"ASS","uicCode":"8400059"},{"coordinate":{"lat":52.385935,"lng":4.747165},"countryCode":"NL","name":"Halfweg-Zwanenburg","stationCode":"HWZB","uicCode":"8400400"},{"coordinate":{"lat":52.3827781677246,"lng":4.67305564880371},"countryCode":"NL","name":"Haarlem Spaarnwoude","stationCode":"HLMS","uicCode":"8400270"},{"coordinate":{"lat":52.3877792358398,"lng":4.63833332061768},"countryCode":"NL","name":"Haarlem","stationCode":"HLM","uicCode":"8400285"}],"direction":"BOTH"},"consequence":{"section":{"stations":[{"coordinate":{"lat":52.3788871765137,"lng":4.90027761459351},"countryCode":"NL","name":"Amsterdam Centraal","stationCode":"ASD","uicCode":"8400058"},{"coordinate":{"lat":52.3888893127441,"lng":4.83777761459351},"countryCode":"NL","name":"Amsterdam Sloterdijk","stationCode":"ASS","uicCode":"8400059"},{"coordinate":{"lat":52.385935,"lng":4.747165},"countryCode":"NL","name":"Halfweg-Zwanenburg","stationCode":"HWZB","uicCode":"8400400"},{"coordinate":{"lat":52.3827781677246,"lng":4.67305564880371},"countryCode":"NL","name":"Haarlem Spaarnwoude","stationCode":"HLMS","uicCode":"8400270"},{"coordinate":{"lat":52.3877792358398,"lng":4.63833332061768},"countryCode":"NL","name":"Haarlem","stationCode":"HLM","uicCode":"8400285"}],"direction":"ONE_WAY"},"description":"rijden bussen","level":"LESS_TRAINS"},"sectionType":"NL"}],"timespans":[{"start":"2023-12-03T01:15:00+0100","end":"2023-12-03T04:00:00+0100","period":"Zondag 03-12-2023 01:15 uur t/m zondag 03-12-2023 04:00 uur.","situation":{"label":"Door werkzaamheden: tussen Amsterdam Centraal en Haarlem rijden er bussen."},"cause":{"label":"werkzaamheden"},"additionalTravelTime":{"label":"De extra reistijd is ongeveer 15 minuten.","shortLabel":"extra reistijd 15 min.","minimumDurationInMinutes":15,"maximumDurationInMinutes":15},