[{"id":"6027112","type":"DISRUPTION","registrationTime":"2023-11-22T15:26:39+0100","releaseTime":"2023-11-22T15:26:39+0100","local":false,"title":"Schiphol-Utrecht","titleSections":[[{"type":"STATION","value":"Schiphol Airport"},{"type":"ICON","value":"DISRUPTION"},{"type":"STATION","value":"Bijlmer ArenA"},{"type":"STATION","value":"Utrecht C."}]],"topic":"disruption_6027112_nl","isActive":true,"start":"2023-11-22T09:53:46+0100","end":"2023-11-22T17:56:39+0100","phase":{"id":"3","label":"Vervangend vervoer"},"impact":{"value":3},"expectedDuration":{"description":"Dit duurt de rest van de dag."},"publicationSections":[{"section":{"stations":[{"uicCode":"8400561","stationCode":"SHL","name":"Schiphol Airport","coordinate":{"lat":52.3094444274902,"lng":4.76194429397583},"countryCode":"NL"},{"uicCode":"8400061","stationCode":"ASDZ","name":"Amsterdam Zuid","coordinate":{"lat":52.338889,"lng":4.872356},"countryCode":"NL"},{"uicCode":"8400056","stationCode":"RAI","name":"Amsterdam RAI","coordinate":{"lat":52.3372230529785,"lng":4.89027786254883},"countryCode":"NL"},{"uicCode":"8400074","stationCode":"ASB","name":"Amsterdam Bijlmer ArenA","coordinate":{"lat":52.3122215270996,"lng":4.94694423675537},"countryCode":"NL"},{"uicCode":"8400231","stationCode":"ASHD","name":"Amsterdam Holendrecht","coordinate":{"lat":52.29844,"lng":4.95972},"countryCode":"NL"},{"uicCode":"8400047","stationCode":"AC","name":"Abcoude","coordinate":{"lat":52.2785,"lng":4.977},"countryCode":"NL"},{"uicCode":"8400133","stationCode":"BKL","name":"Breukelen","coordinate":{"lat":52.17149,"lng":4.9906},"countryCode":"NL"},{"uicCode":"8400419","stationCode":"MAS","name":"Maarssen","coordinate":{"lat":52.1352767944336,"lng":5.03361129760742},"countryCode":"NL"},{"uicCode":"8400613","stationCode":"UTZL","name":"Utrecht Zuilen","coordinate":{"lat":52.103055,"lng":5.09},"countryCode":"NL"},{"uicCode":"8400621","stationCode":"UT","name":"Utrecht Centraal","coordinate":{"lat":52.0888900756836,"lng":5.11027765274048},"countryCode":"NL"}],"direction":"BOTH"},"consequence":{"section":{"stations":[{"uicCode":"8400561","stationCode":"SHL","name":"Schiphol Airport","coordinate":{"lat":52.3094444274902,"lng":4.76194429397583},"countryCode":"NL"},{"uicCode":"8400061","stationCode":"ASDZ","name":"Amsterdam Zuid","coordinate":{"lat":52.338889,"lng":4.872356},"countryCode":"NL"},{"uicCode":"8400056","stationCode":"RAI","name":"Amsterdam RAI","coordinate":{"lat":52.3372230529785,"lng":4.89027786254883},"countryCode":"NL"},{"uicCode":"8400074","stationCode":"ASB","name":"Amsterdam Bijlmer ArenA","coordinate":{"lat":52.3122215270996,"lng":4.94694423675537},"countryCode":"NL"}],"direction":"ONE_WAY"},"description":"geen treinen","level":"LESS_TRAINS"},"sectionType":"NL"}],"timespans":[{"start":"2023-11-22T09:53:46+0100","end":"2023-11-22T17:56:39+0100","situation":{"label":"Tussen Schiphol Airport en Amsterdam Bijlmer ArenA rijden er geen treinen door een seinstoring."},"cause":{"label":"Seinstoring"},"alternativeTransport":{"label":"Maak gebruik van de Amsterdamse metro.","shortLabel":"Gebruik de Amsterdamse metro"},"advices":[]}],"alternativeTransportTimespans":[{"start":"2023-11-22T09:53:46+0100","end":"2023-11-22T17:56:39+0100","alternativeTransport":{"location":[],"label":"Maak gebruik van de Amsterdamse metro tussen Amsterdam Zuid, Amsterdam RAI en Amsterdam Bijlmer ArenA.","shortLabel":"Gebruik de Amsterdamse metro: Amsterdam Zuid, RAI, Bijlmer ArenA"}}]},{"id":"6027124","type":"DISRUPTION","registrationTime":"2023-11-22T14:04:15+0100","releaseTime":"2023-11-22T14:04:15+0100","local":false,"title":"Utrecht-Amersfoort","titleSections":[[{"type":"STATION","value":"Utrecht C."},{"type":"ICON","value":"DISRUPTION"},{"type":"STATION","value":"Amersfoort C."}]],"topic":"disruption_6027124_nl","isActive":true,"start":"2023-11-22T11:42:11+0100","end":"2023-11-22T16:15:00+0100","phase":{"id":"2","label":"Impact bekend"},"impact":{"value":2},"expectedDuration":{"description":"Dit duurt tot ongeveer 16:15 uur.","endTime":"2023-11-22T16:15:00+0100"},"summaryAdditionalTravelTime":{"label":"De extra reistijd kan oplopen tot 15 minuten.","shortLabel":"Extra reistijd tot 15 min.","maximumDurationInMinutes":15},"publicationSections":[{"section":{"stations":[{"uicCode":"8400621","stationCode":"UT","name":"Utrecht Centraal","coordinate":{"lat":52.0888900756836,"lng":5.11027765274048},"countryCode":"NL"},{"uicCode":"8400620","stationCode":"UTO","name":"Utrecht Overvecht","coordinate":{"lat":52.1100006103516,"lng":5.12472200393677},"countryCode":"NL"},{"uicCode":"8400114","stationCode":"BHV","name":"Bilthoven","coordinate":{"lat":52.1300010681152,"lng":5.20388889312744},"countryCode":"NL"},{"uicCode":"8400179","stationCode":"DLD","name":"Den Dolder","coordinate":{"lat":52.1402778625488,"lng":5.24277782440186},"countryCode":"NL"},{"uicCode":"8400055","stationCode":"AMF","name":"Amersfoort Centraal","coordinate":{"lat":52.1538887023926,"lng":5.37055540084839},"countryCode":"NL"}],"direction":"BOTH"},"consequence":{"section":{"stations":[{"uicCode":"8400621","stationCode":"UT","name":"Utrecht Centraal","coordinate":{"lat":52.0888900756836,"lng":5.11027765274048},"countryCode":"NL"},{"uicCode":"8400620","stationCode":"UTO","name":"Utrecht Overvecht","coordinate":{"lat":52.1100006103516,"lng":5.12472200393677},"countryCode":"NL"},{"uicCode":"8400114","stationCode":"BHV","name":"Bilthoven","coordinate":{"lat":52.1300010681152,"lng":5.20388889312744},"countryCode":"NL"},{"uicCode":"8400179","stationCode":"DLD","name":"Den Dolder","coordinate":{"lat":52.1402778625488,"lng":5.24277782440186},"countryCode":"NL"},{"uicCode":"8400055","stationCode":"AMF","name":"Amersfoort Centraal","coordinate":{"lat":52.1538887023926,"lng":5.37055540084839},"countryCode":"NL"}],"direction":"ONE_WAY"},"description":"minder Intercity's","level":"LESS_TRAINS"},"sectionType":"NL"}],"timespans":[{"start":"2023-11-22T11:42:11+0100","end":"2023-11-22T16:15:00+0100","situation":{"label":"Tussen Utrecht Centraal en Amersfoort Centraal rijden er minder Intercity's door een aanrijding."},"cause":{"label":"Aanrijding"},"additionalTravelTime":{"label":"De extra reistijd kan oplopen tot 15 minuten.","shortLabel":"Extra reistijd tot 15 min.","maximumDurationInMinutes":15},"advices":[]}],"alternativeTransportTimespans":[]},{"id":"6027123","type":"DISRUPTION","registrationTime":"2023-11-22T14:04:08+0100","releaseTime":"2023-11-22T14:04:08+0100","local":false,"title":"Amersfoort-Zwolle","titleSections":[[{"type":"STATION","value":"Amersfoort C."},{"type":"STATION","value":"Putten"},{"type":"ICON","value":"DISRUPTION"},{"type":"STATION","value":"Nunspeet"},{"type":"STATION","value":"Zwolle"}]],"topic":"disruption_6027123_nl","isActive":true,"start":"2023-11-22T11:42:11+0100","end":"2023-11-22T16:15:00+0100","phase":{"id":"3","label":"Vervangend vervoer"},"impact":{"value":4},"expectedDuration":{"description":"Dit duurt tot ongeveer 16:15 uur.","endTime":"2023-11-22T16:15:00+0100"},"publicationSections":[{"section":{"stations":[{"uicCode":"8400055","stationCode":"AMF","name":"Amersfoort Centraal","coordinate":{"lat":52.1538887023926,"lng":5.37055540084839},"countryCode":"NL"},{"uicCode":"8400054","stationCode":"AMFS","name":"Amersfoort Schothorst","coordinate":{"lat":52.1748221374512,"lng":5.40388870239258},"countryCode":"NL"},{"uicCode":"8400228","stationCode":"AVAT","name":"Amersfoort Vathorst","coordinate":{"lat":52.1927795410156,"lng":5.43388891220093},"countryCode":"NL"},{"uicCode":"8400469","stationCode":"NKK","name":"Nijkerk","coordinate":{"lat":52.2222213745117,"lng":5.49388885498047},"countryCode":"NL"},{"uicCode":"8400509","stationCode":"PT","name":"Putten","coordinate":{"lat":52.2649993896484,"lng":5.57527780532837},"countryCode":"NL"},{"uicCode":"8400216","stationCode":"EML","name":"Ermelo","coordinate":{"lat":52.3016662597656,"lng":5.61472225189209},"countryCode":"NL"},{"uicCode":"8400294","stationCode":"HD","name":"Harderwijk","coordinate":{"lat":52.3375015258789,"lng":5.61972236633301},"countryCode":"NL"},{"uicCode":"8400466","stationCode":"NS","name":"Nunspeet","coordinate":{"lat":52.3708343505859,"lng":5.78527784347534},"countryCode":"NL"},{"uicCode":"8400388","stationCode":"HDE","name":"'t Harde","coordinate":{"lat":52.4091682,"lng":5.893611},"countryCode":"NL"},{"uicCode":"8400690","stationCode":"WZ","name":"Wezep","coordinate":{"lat":52.4541664123535,"lng":6.00250005722046},"countryCode":"NL"},{"uicCode":"8400747","stationCode":"ZL","name":"Zwolle","coordinate":{"lat":52.5047225952148,"lng":6.09194421768188},"countryCode":"NL"}],"direction":"BOTH"},"consequence":{"section":{"stations":[{"uicCode":"8400509","stationCode":"PT","name":"Putten","coordinate":{"lat":52.2649993896484,"lng":5.57527780532837},"countryCode":"NL"},{"uicCode":"8400216","stationCode":"EML","name":"Ermelo","coordinate":{"lat":52.3016662597656,"lng":5.61472225189209},"countryCode":"NL"},{"uicCode":"8400294","stationCode":"HD","name":"Harderwijk","coordinate":{"lat":52.3375015258789,"lng":5.61972236633301},"countryCode":"NL"},{"uicCode":"8400466","stationCode":"NS","name":"Nunspeet","coordinate":{"lat":52.3708343505859,"lng":5.78527784347534},"countryCode":"NL"}],"direction":"ONE_WAY"},"description":"geen treinen","level":"LESS_TRAINS"},"sectionType":"NL"}],"timespans":[{"start":"2023-11-22T11:42:11+0100","end":"2023-11-22T16:15:00+0100","situation":{"label":"Tussen Putten en Nunspeet rijden er geen treinen door een aanrijding."},"cause":{"label":"Aanrijding"},"alternativeTransport":{"label":"Er rijden stopbussen.","shortLabel":"Er rijden stopbussen"},"advices":[]}],"alternativeTransportTimespans":[{"start":"2023-11-22T11:42:11+0100","end":"2023-11-22T16:15:00+0100","alternativeTransport":{"location":[{"station":{"uicCode":"8400509","stationCode":"PT","name":"Putten","coordinate":{"lat":52.2649993896484,"lng":5.57527780532837},"countryCode":"NL"},"description":"vanaf de bushalte"},{"station":{"uicCode":"8400216","stationCode":"EML","name":"Ermelo","coordinate":{"lat":52.3016662597656,"lng":5.61472225189209},"countryCode":"NL"},"description":"vanaf de bushalte"},{"station":{"uicCode":"8400294","stationCode":"HD","name":"Harderwijk","coordinate":{"lat":52.3375015258789,"lng":5.61972236633301},"countryCode":"NL"},"description":"vanaf het busstation"},{"station":{"uicCode":"8400466","stationCode":"NS","name":"Nunspeet","coordinate":{"lat":52.3708343505859,"lng":5.78527784347534},"countryCode":"NL"},"description":"vanaf het P+R-terrein Nunspeet Natuurtransferium"}],"label":"Er rijden stopbussen tussen Putten, Ermelo, Harderwijk en Nunspeet.","shortLabel":"Er rijden stopbussen: Putten, Ermelo, Harderwijk, Nunspeet"}}]},{"id":"6027127","type":"DISRUPTION","registrationTime":"2023-11-22T14:59:09+0100","releaseTime":"2023-11-22T14:59:09+0100","local":false,"title":"Rotterdam-Breda (HSL)","titleSections":[[{"type":"STATION","value":"Rotterdam C."},{"type":"ICON","value":"DISRUPTION"},{"type":"STATION","value":"Breda"}]],"topic":"disruption_6027127_nl","isActive":true,"start":"2023-11-22T14:30:19+0100","end":"2023-11-22T16:30:00+0100","phase":{"id":"2","label":"Impact bekend"},"impact":{"value":2},"expectedDuration":{"description":"Dit duurt tot ongeveer 16:30 uur.","endTime":"2023-11-22T16:30:00+0100"},"summaryAdditionalTravelTime":{"label":"De extra reistijd kan oplopen tot 30 minuten.","shortLabel":"Extra reistijd tot 30 min.","maximumDurationInMinutes":30},"publicationSections":[{"section":{"stations":[{"uicCode":"8400530","stationCode":"RTD","name":"Rotterdam Centraal","coordinate":{"lat":51.9249992370605,"lng":4.46888875961304},"countryCode":"NL"},{"uicCode":"8400529","stationCode":"RTB","name":"Rotterdam Blaak","coordinate":{"lat":51.9202766418457,"lng":4.48888874053955},"countryCode":"NL"},{"uicCode":"8400533","stationCode":"RTZ","name":"Rotterdam Zuid","coordinate":{"lat":51.9044456481934,"lng":4.51027774810791},"countryCode":"NL"},{"uicCode":"8400542","stationCode":"RLB","name":"Rotterdam Lombardijen","coordinate":{"lat":51.8800010681152,"lng":4.53138875961304},"countryCode":"NL"},{"uicCode":"8400132","stationCode":"BDPB","name":"Breda-Prinsenbeek","coordinate":{"lat":51.606388092041,"lng":4.72083330154419},"countryCode":"NL"},{"uicCode":"8400131","stationCode":"BD","name":"Breda","coordinate":{"lat":51.5955543518066,"lng":4.78000020980835},"countryCode":"NL"}],"direction":"BOTH"},"consequence":{"section":{"stations":[{"uicCode":"8400530","stationCode":"RTD","name":"Rotterdam Centraal","coordinate":{"lat":51.9249992370605,"lng":4.46888875961304},"countryCode":"NL"},{"uicCode":"8400529","stationCode":"RTB","name":"Rotterdam Blaak","coordinate":{"lat":51.9202766418457,"lng":4.48888874053955},"countryCode":"NL"},{"uicCode":"8400533","stationCode":"RTZ","name":"Rotterdam Zuid","coordinate":{"lat":51.9044456481934,"lng":4.51027774810791},"countryCode":"NL"},{"uicCode":"8400542","stationCode":"RLB","name":"Rotterdam Lombardijen","coordinate":{"lat":51.8800010681152,"lng":4.53138875961304},"countryCode":"NL"},{"uicCode":"8400132","stationCode":"BDPB","name":"Breda-Prinsenbeek","coordinate":{"lat":51.606388092041,"lng":4.72083330154419},"countryCode":"NL"},{"uicCode":"8400131","stationCode":"BD","name":"Breda","coordinate":{"lat":51.5955543518066,"lng":4.78000020980835},"countryCode":"NL"}],"direction":"ONE_WAY"},"description":"minder IC direct treinen","level":"LESS_TRAINS"},"sectionType":"HSL"}],"timespans":[{"start":"2023-11-22T14:30:19+0100","end":"2023-11-22T16:30:00+0100","situation":{"label":"Tussen Rotterdam Centraal en Breda rijden er minder Intercity direct treinen door een defecte trein."},"cause":{"label":"Defecte trein"},"additionalTravelTime":{"label":"De extra reistijd kan oplopen tot 30 minuten.","shortLabel":"Extra reistijd tot 30 min.","maximumDurationInMinutes":30},"advices":[]}],"alternativeTransportTimespans":[]},{"id":"6027129","type":"DISRUPTION","registrationTime":"2023-11-22T15:28:58+0100","releaseTime":"2023-11-22T15:28:58+0100","local":false,"title":"Schiphol-Leiden","titleSections":[[{"type":"STATION","value":"Schiphol Airport"},{"type":"ICON","value":"DISRUPTION"},{"type":"STATION","value":"Leiden C."}]],"topic":"disruption_6027129_nl","isActive":true,"start":"2023-11-22T15:27:37+0100","end":"2023-11-22T17:58:58+0100","phase":{"id":"2","label":"Impact bekend"},"impact":{"value":2},"expectedDuration":{"description":"Dit duurt de rest van de dag."},"summaryAdditionalTravelTime":{"label":"De extra reistijd kan oplopen tot 15 minuten.","shortLabel":"Extra reistijd tot 15 min.","maximumDurationInMinutes":15},"publicationSections":[{"section":{"stations":[{"uicCode":"8400561","stationCode":"SHL","name":"Schiphol Airport","coordinate":{"lat":52.3094444274902,"lng":4.76194429397583},"countryCode":"NL"},{"uicCode":"8400332","stationCode":"HFD","name":"Hoofddorp","coordinate":{"lat":52.2933349609375,"lng":4.70055532455444},"countryCode":"NL"},{"uicCode":"8400460","stationCode":"NVP","name":"Nieuw Vennep","coordinate":{"lat":52.2588882446289,"lng":4.64555549621582},"countryCode":"NL"},{"uicCode":"8400603","stationCode":"SSH","name":"Sassenheim","coordinate":{"lat":52.215278,"lng":4.517222},"countryCode":"NL"},{"uicCode":"8400390","stationCode":"LEDN","name":"Leiden Centraal","coordinate":{"lat":52.1661109924316,"lng":4.48166656494141},"countryCode":"NL"}],"direction":"BOTH"},"consequence":{"section":{"stations":[{"uicCode":"8400561","stationCode":"SHL","name":"Schiphol Airport","coordinate":{"lat":52.3094444274902,"lng":4.76194429397583},"countryCode":"NL"},{"uicCode":"8400332","stationCode":"HFD","name":"Hoofddorp","coordinate":{"lat":52.2933349609375,"lng":4.70055532455444},"countryCode":"NL"},{"uicCode":"8400460","stationCode":"NVP","name":"Nieuw Vennep","coordinate":{"lat":52.2588882446289,"lng":4.64555549621582},"countryCode":"NL"},{"uicCode":"8400603","stationCode":"SSH","name":"Sassenheim","coordinate":{"lat":52.215278,"lng":4.517222},"countryCode":"NL"},{"uicCode":"8400390","stationCode":"LEDN","name":"Leiden Centraal","coordinate":{"lat":52.1661109924316,"lng":4.48166656494141},"countryCode":"NL"}],"direction":"ONE_WAY"},"description":"minder Intercity's","level":"LESS_TRAINS"},"sectionType":"NL"}],"timespans":[{"start":"2023-11-22T15:27:37+0100","end":"2023-11-22T17:58:58+0100","situation":{"label":"Tussen Schiphol Airport en Leiden Centraal rijden er minder Intercity's door een seinstoring."},"cause":{"label":"Seinstoring"},"additionalTravelTime":{"label":"De extra reistijd kan oplopen tot 15 minuten.","shortLabel":"Extra reistijd tot 15 min.","maximumDurationInMinutes":15},"advices":[]}],"alternativeTransportTimespans":[]},{"id":"705e7125-a060-4ca9-b93d-c4ee5bd779fe","title":"van/naar/via Rotterdam Centraal","topic":"disruption_705e7125-a060-4ca9-b93d-c4ee5bd779fe_nl","description":"Door werkzaamheden rijden op zaterdag 25 en zondag 26 november geen treinen van, naar en via Rotterdam Centraal.","priority":"PRIO_3","lastUpdated":"2023-11-22T02:00:00+0100","bodyItems":[{"content":{"text":"<p>Er rijden bussen tussen Schiedam en Rotterdam Stadion en tussen metrostation Capelsebrug en Rotterdam Stadion. In Rotterdam kan de metro worden gebruikt met uw NS-vervoerbewijs. Plan je reis vooraf.</p>"},"type":"TEXT"}],"buttons":{"position":["BOTTOM"],"items":[{"label":"Plan je reis","type":"PLANNER","accessibilityLabel":"Plan je reis","url":"https://www.ns.nl/reisplanner"}]},"url":"https://www.ns.nl/reisinformatie/calamiteiten/van-naar-via-rotterdam-centraal.html","type":"CALAMITY","isActive":true},{"id":"7004120","type":"MAINTENANCE","registrationTime":"2023-11-03T11:56:03+0100","releaseTime":"2023-11-03T11:56:03+0100","local":false,"title":"Schiphol Airport.","titleSections":[[{"type":"STATION","value":"Schiphol Airport"}]],"isActive":true,"start":"2023-11-12T04:00:00+0100","end":"2023-12-04T02:00:00+0100","period":"Zondag 12-11-2023 04:00 uur t/m maandag 04-12-2023 02:00 uur.","impact":{"value":2},"summaryAdditionalTravelTime":{"label":"De extra reistijd is ongeveer 15 minuten.","shortLabel":"extra reistijd 15 min.","minimumDurationInMinutes":15,"maximumDurationInMinutes":15},"publicationSections":[{"section":{"stations":[{"uicCode":"8400058","stationCode":"ASD","name":"Amsterdam Centraal","coordinate":{"lat":52.3788871765137,"lng":4.90027761459351},"countryCode":"NL"},{"uicCode":"8400059","stationCode":"ASS","name":"Amsterdam Sloterdijk","coordinate":{"lat":52.3888893127441,"lng":4.83777761459351},"countryCode":"NL"},{"uicCode":"8400079","stationCode":"ASDL","name":"Amsterdam Lelylaan","coordinate":{"lat":52.3577766418457,"lng":4.83388900756836},"countryCode":"NL"},{"uicCode":"8400561","stationCode":"SHL","name":"Schiphol Airport","coordinate":{"lat":52.3094444274902,"lng":4.76194429397583},"countryCode":"NL"},{"uicCode":"8400332","stationCode":"HFD","name":"Hoofddorp","coordinate":{"lat":52.2933349609375,"lng":4.70055532455444},"countryCode":"NL"},{"uicCode":"8400460","stationCode":"NVP","name":"Nieuw Vennep","coordinate":{"lat":52.2588882446289,"lng":4.64555549621582},"countryCode":"NL"},{"uicCode":"8400603","stationCode":"SSH","name":"Sassenheim","coordinate":{"lat":52.215278,"lng":4.517222},"countryCode":"NL"},{"uicCode":"8400390","stationCode":"LEDN","name":"Leiden Centraal","coordinate":{"lat":52.1661109924316,"lng":4.48166656494141},"countryCode":"NL"}],"direction":"BOTH"},"consequence":{"section":{"stations":[{"uicCode":"8400561","stationCode":"SHL","name":"Schiphol Airport","coordinate":{"lat":52.3094444274902,"lng":4.76194429397583},"countryCode":"NL"}],"direction":"ONE_WAY"},"description":"dienstregeling aangepast","level":"LESS_TRAINS"},"sectionType":"NL"},{"section":{"stations":[{"uicCode":"8400332","stationCode":"HFD","name":"Hoofddorp","coordinate":{"lat":52.2933349609375,"lng":4.70055532455444},"countryCode":"NL"},{"uicCode":"8400561","stationCode":"SHL","name":"Schiphol Airport","coordinate":{"lat":52.3094444274902,"lng":4.76194429397583},"countryCode":"NL"},{"uicCode":"8400061","stationCode":"ASDZ","name":"Amsterdam Zuid","coordinate":{"lat":52.338889,"lng":4.872356},"countryCode":"NL"},{"uicCode":"8400056","stationCode":"RAI","name":"Amsterdam RAI","coordinate":{"lat":52.3372230529785,"lng":4.89027786254883},"countryCode":"NL"},{"uicCode":"8400194","stationCode":"DVD","name":"Duivendrecht","coordinate":{"lat":52.3233337402344,"lng":4.93638896942139},"countryCode":"NL"},{"uicCode":"8400163","stationCode":"DMNZ","name":"Diemen Zuid","coordinate":{"lat":52.3302764892578,"lng":4.95583343505859},"countryCode":"NL"},{"uicCode":"8400685","stationCode":"WP","name":"Weesp","coordinate":{"lat":52.3127784729004,"lng":5.04305553436279},"countryCode":"NL"},{"uicCode":"8400450","stationCode":"AMPO","name":"Almere Poort","coordinate":{"lat":52.342778,"lng":5.151944},"countryCode":"NL"},{"uicCode":"8400082","stationCode":"ALMM","name":"Almere Muziekwijk","coordinate":{"lat":52.3675003051758,"lng":5.19027757644653},"countryCode":"NL"},{"uicCode":"8400080","stationCode":"ALM","name":"Almere Centrum","coordinate":{"lat":52.37503,"lng":5.21764},"countryCode":"NL"},{"uicCode":"8400104","stationCode":"ALMP","name":"Almere Parkwijk","coordinate":{"lat":52.3766670227051,"lng":5.24472236633301},"countryCode":"NL"},{"uicCode":"8400081","stationCode":"ALMB","name":"Almere Buiten","coordinate":{"lat":52.3941650390625,"lng":5.2780556678772},"countryCode":"NL"},{"uicCode":"8400226","stationCode":"ALMO","name":"Almere Oostvaarders","coordinate":{"lat":52.4033317565918,"lng":5.30055570602417},"countryCode":"NL"}],"direction":"BOTH"},"consequence":{"section":{"stations":[{"uicCode":"8400561","stationCode":"SHL","name":"Schiphol Airport","coordinate":{"lat":52.3094444274902,"lng":4.76194429397583},"countryCode":"NL"}],"direction":"ONE_WAY"},"description":"dienstregeling aangepast","level":"LESS_TRAINS"},"sectionType":"NL"}],"timespans":[{"start":"2023-11-12T04:00:00+0100","end":"2023-12-04T02:00:00+0100","period":"Zondag 12-11-2023 04:00 uur t/m maandag 04-12-2023 02:00 uur.","situation":{"label":"Door werkzaamheden: van, via en naar Schiphol Airport is de dienstregeling aangepast."},"cause":{"label":"werkzaamheden"},"additionalTravelTime":{"label":"De extra reistijd is ongeveer 15 minuten.","shortLabel":"extra reistijd 15 min.","minimumDurationInMinutes":15,"maximumDurationInMinutes":15},"advices":["De aanpassingen in de dienstregeling kunnen per dag verschillen. Plan elke reis opnieuw."]}],"alternativeTransportTimespans":[]},{"id":"7004222","type":"MAINTENANCE","registrationTime":"2023-11-17T20:59:20+0100","releaseTime":"2023-11-17T20:59:20+0100","local":false,"title":"Utrecht - Spoorwegmuseum.","titleSections":[[{"type":"STATION","value":"Utrecht C."},{"type":"ICON","value":"MAINTENANCE"},{"type":"STATION","value":"Maliebaan"}]],"isActive":true,"start":"2023-11-18T08:00:00+0100","end":"2023-12-09T18:00:00+0100","period":"Zaterdag 18-11-2023 08:00 uur t/m zaterdag 09-12-2023 18:00 uur.","impact":{"value":3},"publicationSections":[{"section":{"stations":[{"uicCode":"8400621","stationCode":"UT","name":"Utrecht Centraal","coordinate":{"lat":52.0888900756836,"lng":5.11027765274048},"countryCode":"NL"},{"uicCode":"8400620","stationCode":"UTO","name":"Utrecht Overvecht","coordinate":{"lat":52.1100006103516,"lng":5.12472200393677},"countryCode":"NL"},{"uicCode":"8400114","stationCode":"BHV","name":"Bilthoven","coordinate":{"lat":52.1300010681152,"lng":5.20388889312744},"countryCode":"NL"},{"uicCode":"8400624","stationCode":"UTM","name":"Utrecht Maliebaan","coordinate":{"lat":52.087776184082,"lng":5.13138866424561},"countryCode":"NL"}],"direction":"BOTH"},"consequence":{"section":{"stations":[{"uicCode":"8400621","stationCode":"UT","name":"Utrecht Centraal","coordinate":{"lat":52.0888900756836,"lng":5.11027765274048},"countryCode":"NL"},{"uicCode":"8400620","stationCode":"UTO","name":"Utrecht Overvecht","coordinate":{"lat":52.1100006103516,"lng":5.12472200393677},"countryCode":"NL"},{"uicCode":"8400114","stationCode":"BHV","name":"Bilthoven","coordinate":{"lat":52.1300010681152,"lng":5.20388889312744},"countryCode":"NL"},{"uicCode":"8400624","stationCode":"UTM","name":"Utrecht Maliebaan","coordinate":{"lat":52.087776184082,"lng":5.13138866424561},"countryCode":"NL"}],"direction":"ONE_WAY"},"description":"geen treinen","level":"LESS_TRAINS"},"sectionType":"NL"}],"timespans":[{"start":"2023-11-18T08:00:00+0100","end":"2023-12-09T18:00:00+0100","period":"Zaterdag 18-11-2023 08:00 uur t/m zaterdag 09-12-2023 18:00 uur.","situation":{"label":"Door een defect spoor: tussen Utrecht Centraal en Utrecht Maliebaan rijden er geen treinen."},"cause":{"label":"defect spoor"},"advices":["U kunt gebruik maken van U-OV buslijn 8."]}],"alternativeTransportTimespans":[]},{"id":"7004108","type":"MAINTENANCE","registrationTime":"2023-11-14T09:21:01+0100","releaseTime":"2023-11-14T09:21:01+0100","local":false,"title":"Den Haag - Rotterdam; Rotterdam - Dordrecht.","titleSections":[[{"type":"STATION","value":"Den Haag C."},{"type":"ICON","value":"MAINTENANCE"},{"type":"STATION","value":"Rotterdam C."}],[{"type":"STATION","value":"Rotterdam C."},{"type":"ICON","value":"MAINTENANCE"},{"type":"STATION","value":"Dordrecht"}]],"isActive":true,"start":"2023-11-20T04:00:00+0100","end":"2023-11-25T01:00:00+0100","period":"Maandag 20-11-2023 04:00 uur t/m zaterdag 25-11-2023 01:00 uur.","impact":{"value":2},"summaryAdditionalTravelTime":{"label":"De extra reistijd is ongeveer 15 minuten.","shortLabel":"extra reistijd 15 min.","minimumDurationInMinutes":15,"maximumDurationInMinutes":15},"publicationSections":[{"section":{"stations":[{"uicCode":"8400282","stationCode":"GVC","name":"Den Haag Centraal","coordinate":{"lat":52.0802764892578,"lng":4.32499980926514},"countryCode":"NL"},{"uicCode":"8400280","stationCode":"GV","name":"Den Haag HS","coordinate":{"lat":52.0697212219238,"lng":4.32250022888184},"countryCode":"NL"},{"uicCode":"8400279","stationCode":"GVMW","name":"Den Haag Moerwijk","coordinate":{"lat":52.0538902282715,"lng":4.3086109161377},"countryCode":"NL"},{"uicCode":"8400505","stationCode":"RSW","name":"Rijswijk","coordinate":{"lat":52.039722442627,"lng":4.31916666030884},"countryCode":"NL"},{"uicCode":"8400170","stationCode":"DT","name":"Delft","coordinate":{"lat":52.0066680908203,"lng":4.35638904571533},"countryCode":"NL"},{"uicCode":"8400166","stationCode":"DTCP","name":"Delft Campus","coordinate":{"lat":51.9908332824707,"lng":4.36472225189209},"countryCode":"NL"},{"uicCode":"8400553","stationCode":"SDM","name":"Schiedam Centrum","coordinate":{"lat":51.9212438128032,"lng":4.4089937210083},"countryCode":"NL"},{"uicCode":"8400530","stationCode":"RTD","name":"Rotterdam Centraal","coordinate":{"lat":51.9249992370605,"lng":4.46888875961304},"countryCode":"NL"}],"direction":"BOTH"},"consequence":{"section":{"stations":[{"uicCode":"8400282","stationCode":"GVC","name":"Den Haag Centraal","coordinate":{"lat":52.0802764892578,"lng":4.32499980926514},"countryCode":"NL"},{"uicCode":"8400280","stationCode":"GV","name":"Den Haag HS","coordinate":{"lat":52.0697212219238,"lng":4.32250022888184},"countryCode":"NL"},{"uicCode":"8400279","stationCode":"GVMW","name":"Den Haag Moerwijk","coordinate":{"lat":52.0538902282715,"lng":4.3086109161377},"countryCode":"NL"},{"uicCode":"8400505","stationCode":"RSW","name":"Rijswijk","coordinate":{"lat":52.039722442627,"lng":4.31916666030884},"countryCode":"NL"},{"uicCode":"8400170","stationCode":"DT","name":"Delft","coordinate":{"lat":52.0066680908203,"lng":4.35638904571533},"countryCode":"NL"},{"uicCode":"8400166","stationCode":"DTCP","name":"Delft Campus","coordinate":{"lat":51.9908332824707,"lng":4.36472225189209},"countryCode":"NL"},{"uicCode":"8400553","stationCode":"SDM","name":"Schiedam Centrum","coordinate":{"lat":51.9212438128032,"lng":4.4089937210083},"countryCode":"NL"},{"uicCode":"8400530","stationCode":"RTD","name":"Rotterdam Centraal","coordinate":{"lat":51.9249992370605,"lng":4.46888875961304},"countryCode":"NL"}],"direction":"ONE_WAY"},"description":"dienstregeling aangepast","level":"LESS_TRAINS"},"sectionType":"NL"},{"section":{"stations":[{"uicCode":"8400530","stationCode":"RTD","name":"Rotterdam Centraal","coordinate":{"lat":51.9249992370605,"lng":4.46888875961304},"countryCode":"NL"},{"uicCode":"8400529","stationCode":"RTB","name":"Rotterdam Blaak","coordinate":{"lat":51.9202766418457,"lng":4.48888874053955},"countryCode":"NL"},{"uicCode":"8400533","stationCode":"RTZ","name":"Rotterdam Zuid","coordinate":{"lat":51.9044456481934,"lng":4.51027774810791},"countryCode":"NL"},{"uicCode":"8400542","stationCode":"RLB","name":"Rotterdam Lombardijen","coordinate":{"lat":51.8800010681152,"lng":4.53138875961304},"countryCode":"NL"},{"uicCode":"8400090","stationCode":"BRD","name":"Barendrecht","coordinate":{"lat":51.8547210693359,"lng":4.5533332824707},"countryCode":"NL"},{"uicCode":"8400752","stationCode":"ZWD","name":"Zwijndrecht","coordinate":{"lat":51.814998626709,"lng":4.64166688919067},"countryCode":"NL"},{"uicCode":"8400180","stationCode":"DDR","name":"Dordrecht","coordinate":{"lat":51.8072204589844,"lng":4.66833353042603},"countryCode":"NL"}],"direction":"BOTH"},"consequence":{"section":{"stations":[{"uicCode":"8400530","stationCode":"RTD","name":"Rotterdam Centraal","coordinate":{"lat":51.9249992370605,"lng":4.46888875961304},"countryCode":"NL"},{"uicCode":"8400529","stationCode":"RTB","name":"Rotterdam Blaak","coordinate":{"lat":51.9202766418457,"lng":4.48888874053955},"countryCode":"NL"},{"uicCode":"8400533","stationCode":"RTZ","name":"Rotterdam Zuid","coordinate":{"lat":51.9044456481934,"lng":4.51027774810791},"countryCode":"NL"},{"uicCode":"8400542","stationCode":"RLB","name":"Rotterdam Lombardijen","coordinate":{"lat":51.8800010681152,"lng":4.53138875961304},"countryCode":"NL"},{"uicCode":"8400090","stationCode":"BRD","name":"Barendrecht","coordinate":{"lat":51.8547210693359,"lng":4.5533332824707},"countryCode":"NL"},{"uicCode":"8400752","stationCode":"ZWD","name":"Zwijndrecht","coordinate":{"lat":51.814998626709,"lng":4.64166688919067},"countryCode":"NL"},{"uicCode":"8400180","stationCode":"DDR","name":"Dordrecht","coordinate":{"lat":51.8072204589844,"lng":4.66833353042603},"countryCode":"NL"}],"direction":"ONE_WAY"},"description":"dienstregeling aangepast","level":"LESS_TRAINS"},"sectionType":"NL"}],"timespans":[{"start":"2023-11-20T04:00:00+0100","end":"2023-11-25T01:00:00+0100","period":"Maandag 20-11-2023 04:00 uur t/m zaterdag 25-11-2023 01:00 uur.","situation":{"label":"Door werkzaamheden: tussen Den Haag Centraal en Rotterdam Centraal is de dienstregeling aangepast en tussen Rotterdam Centraal en Dordrecht is de dienstregeling aangepast."},"cause":{"label":"werkzaamheden"},"additionalTravelTime":{"label":"De extra reistijd is ongeveer 15 minuten.","shortLabel":"extra reistijd 15 min.","minimumDurationInMinutes":15,"maximumDurationInMinutes":15},"advices":["Let op! Veel treinen vertrekken op andere tijden/sporen. Houd rekening met extra overstappen. In het Nachtnet rijden bussen v/n Rotterdam C."]}],"alternativeTransportTimespans":[]},{"id":"7003970","type":"MAINTENANCE","registrationTime":"2023-10-13T12:10:25+0200","releaseTime":"2023-10-13T12:10:25+0200","local":false,"title":"Amsterdam - Brussel - Paris (HSL).","titleSections":[[{"type":"STATION","value":"Amsterdam C."},{"type":"ICON","value":"MAINTENANCE"},{"type":"STATION","value":"Schiphol Airport"},{"type":"STATION","value":"Paris-Nord"}]],"isActive":true,"start":"2023-11-20T06:00:00+0100","end":"2023-11-22T20:00:00+0100","period":"Maandag 20-11-2023 06:00 uur t/m woensdag 22-11-2023 20:00 uur.","impact":{"value":2},"summaryAdditionalTravelTime":{"label":"U heeft geen langere reistijd.","shortLabel":"Geen extra reistijd"},"publicationSections":[{"section":{"stations":[{"uicCode":"8400058","stationCode":"ASD","name":"Amsterdam Centraal","coordinate":{"lat":52.3788871765137,"lng":4.90027761459351},"countryCode":"NL"},{"uicCode":"8400059","stationCode":"ASS","name":"Amsterdam Sloterdijk","coordinate":{"lat":52.3888893127441,"lng":4.83777761459351},"countryCode":"NL"},{"uicCode":"8400079","stationCode":"ASDL","name":"Amsterdam Lelylaan","coordinate":{"lat":52.3577766418457,"lng":4.83388900756836},"countryCode":"NL"},{"uicCode":"8400561","stationCode":"SHL","name":"Schiphol Airport","coordinate":{"lat":52.3094444274902,"lng":4.76194429397583},"countryCode":"NL"},{"uicCode":"8400332","stationCode":"HFD","name":"Hoofddorp","coordinate":{"lat":52.2933349609375,"lng":4.70055532455444},"countryCode":"NL"},{"uicCode":"8400530","stationCode":"RTD","name":"Rotterdam Centraal","coordinate":{"lat":51.9249992370605,"lng":4.46888875961304},"countryCode":"NL"},{"uicCode":"8400529","stationCode":"RTB","name":"Rotterdam Blaak","coordinate":{"lat":51.9202766418457,"lng":4.48888874053955},"countryCode":"NL"},{"uicCode":"8400533","stationCode":"RTZ","name":"Rotterdam Zuid","coordinate":{"lat":51.9044456481934,"lng":4.51027774810791},"countryCode":"NL"},{"uicCode":"8400542","stationCode":"RLB","name":"Rotterdam Lombardijen","coordinate":{"lat":51.8800010681152,"lng":4.53138875961304},"countryCode":"NL"},{"uicCode":"8821105","stationCode":"NDKP","name":"Noorderkempen","coordinate":{"lat":51.358088,"lng":4.633977},"countryCode":"B"},{"uicCode":"8821063","stationCode":"ATWLB","name":"Antwerpen-Luchtbal","coordinate":{"lat":51.2449375,"lng":4.4251543},"countryCode":"B"},{"uicCode":"8821006","stationCode":"ATW","name":"Antwerpen-Centraal","coordinate":{"lat":51.21686,"lng":4.421242},"countryCode":"B"},{"uicCode":"8821121","stationCode":"BERCH","name":"Antwerpen-Berchem","coordinate":{"lat":51.198914,"lng":4.4332},"countryCode":"B"},{"uicCode":"8822004","stationCode":"MECH","name":"Mechelen","coordinate":{"lat":51.01758,"lng":4.48313},"countryCode":"B"},{"uicCode":"8812005","stationCode":"BRUSN","name":"Brussel-Noord","coordinate":{"lat":50.859658,"lng":4.360854},"countryCode":"B"},{"uicCode":"8813003","stationCode":"BRUSC","name":"Brussel-Centraal","coordinate":{"lat":50.845175,"lng":4.357131},"countryCode":"B"},{"uicCode":"8814001","stationCode":"BRUSZ","name":"Brussel-Zuid Midi","coordinate":{"lat":50.836782,"lng":4.336922},"countryCode":"B"},{"uicCode":"8727100","stationCode":"PARIS","name":"Paris-Nord","coordinate":{"lat":48.87977,"lng":2.35575},"countryCode":"F"}],"direction":"BOTH"},"consequence":{"section":{"stations":[{"uicCode":"8400058","stationCode":"ASD","name":"Amsterdam Centraal","coordinate":{"lat":52.3788871765137,"lng":4.90027761459351},"countryCode":"NL"},{"uicCode":"8400059","stationCode":"ASS","name":"Amsterdam Sloterdijk","coordinate":{"lat":52.3888893127441,"lng":4.83777761459351},"countryCode":"NL"},{"uicCode":"8400079","stationCode":"ASDL","name":"Amsterdam Lelylaan","coordinate":{"lat":52.3577766418457,"lng":4.83388900756836},"countryCode":"NL"},{"uicCode":"8400561","stationCode":"SHL","name":"Schiphol Airport","coordinate":{"lat":52.3094444274902,"lng":4.76194429397583},"countryCode":"NL"}],"direction":"ONE_WAY"},"description":"aangepaste internationale dienstregeling","level":"LESS_TRAINS"},"sectionType":"HSL"}],"timespans":[{"start":"2023-11-20T06:00:00+0100","end":"2023-11-22T20:00:00+0100","period":"Maandag 20-11-2023 06:00 uur t/m woensdag 22-11-2023 20:00 uur.","situation":{"label":"Door werkzaamheden: tussen Amsterdam Centraal en Schiphol Airport is de internationale dienstregeling aangepast."},"cause":{"label":"werkzaamheden"},"additionalTravelTime":{"label":"U heeft geen langere reistijd.","shortLabel":"Geen extra reistijd"},"advices":["Diverse Eurostars naar Paris Nord rijden vanaf Schiphol Airport."]}],"alternativeTransportTimespans":[]},{"id":"7003874","type":"MAINTENANCE","registrationTime":"2023-11-20T20:42:50+0100","releaseTime":"2023-11-20T20:42:50+0100","local":false,"title":"Amsterdam - Rotterdam - Brussel (HSL).","titleSections":[[{"type":"STATION","value":"Amsterdam C."},{"type":"STATION","value":"Rotterdam C."},{"type":"ICON","value":"MAINTENANCE"},{"type":"STATION","value":"Breda"},{"type":"STATION","value":"Brussel-Z. Midi"}]],"isActive":true,"start":"2023-11-20T13:20:00+0100","end":"2023-11-24T14:10:00+0100","period":"Maandag 20-11-2023 13:20 uur t/m vrijdag 24-11-2023 14:10 uur.","impact":{"value":2},"summaryAdditionalTravelTime":{"label":"U heeft geen langere reistijd.","shortLabel":"Geen extra reistijd"},"publicationSections":[{"section":{"stations":[{"uicCode":"8400058","stationCode":"ASD","name":"Amsterdam Centraal","coordinate":{"lat":52.3788871765137,"lng":4.90027761459351},"countryCode":"NL"},{"uicCode":"8400059","stationCode":"ASS","name":"Amsterdam Sloterdijk","coordinate":{"lat":52.3888893127441,"lng":4.83777761459351},"countryCode":"NL"},{"uicCode":"8400079","stationCode":"ASDL","name":"Amsterdam Lelylaan","coordinate":{"lat":52.3577766418457,"lng":4.83388900756836},"countryCode":"NL"},{"uicCode":"8400561","stationCode":"SHL","name":"Schiphol Airport","coordinate":{"lat":52.3094444274902,"lng":4.76194429397583},"countryCode":"NL"},{"uicCode":"8400332","stationCode":"HFD","name":"Hoofddorp","coordinate":{"lat":52.2933349609375,"lng":4.70055532455444},"countryCode":"NL"},{"uicCode":"8400530","stationCode":"RTD","name":"Rotterdam Centraal","coordinate":{"lat":51.9249992370605,"lng":4.46888875961304},"countryCode":"NL"},{"uicCode":"8400529","stationCode":"RTB","name":"Rotterdam Blaak","coordinate":{"lat":51.9202766418457,"lng":4.48888874053955},"countryCode":"NL"},{"uicCode":"8400533","stationCode":"RTZ","name":"Rotterdam Zuid","coordinate":{"lat":51.9044456481934,"lng":4.51027774810791},"countryCode":"NL"},{"uicCode":"8400542","stationCode":"RLB","name":"Rotterdam Lombardijen","coordinate":{"lat":51.8800010681152,"lng":4.53138875961304},"countryCode":"NL"},{"uicCode":"8400132","stationCode":"BDPB","name":"Breda-Prinsenbeek","coordinate":{"lat":51.606388092041,"lng":4.72083330154419},"countryCode":"NL"},{"uicCode":"8400131","stationCode":"BD","name":"Breda","coordinate":{"lat":51.5955543518066,"lng":4.78000020980835},"countryCode":"NL"},{"uicCode":"8821105","stationCode":"NDKP","name":"Noorderkempen","coordinate":{"lat":51.358088,"lng":4.633977},"countryCode":"B"},{"uicCode":"8821063","stationCode":"ATWLB","name":"Antwerpen-Luchtbal","coordinate":{"lat":51.2449375,"lng":4.4251543},"countryCode":"B"},{"uicCode":"8821006","stationCode":"ATW","name":"Antwerpen-Centraal","coordinate":{"lat":51.21686,"lng":4.421242},"countryCode":"B"},{"uicCode":"8821121","stationCode":"BERCH","name":"Antwerpen-Berchem","coordinate":{"lat":51.198914,"lng":4.4332},"countryCode":"B"},{"uicCode":"8822004","stationCode":"MECH","name":"Mechelen","coordinate":{"lat":51.01758,"lng":4.48313},"countryCode":"B"},{"uicCode":"8812005","stationCode":"BRUSN","name":"Brussel-Noord","coordinate":{"lat":50.859658,"lng":4.360854},"countryCode":"B"},{"uicCode":"8813003","stationCode":"BRUSC","name":"Brussel-Centraal","coordinate":{"lat":50.845175,"lng":4.357131},"countryCode":"B"},{"uicCode":"8814001","stationCode":"BRUSZ","name":"Brussel-Zuid Midi","coordinate":{"lat":50.836782,"lng":4.336922},"countryCode":"B"}],"direction":"BOTH"},"consequence":{"section":{"stations":[{"uicCode":"8400530","stationCode":"RTD","name":"Rotterdam Centraal","coordinate":{"lat":51.9249992370605,"lng":4.46888875961304},"countryCode":"NL"},{"uicCode":"8400529","stationCode":"RTB","name":"Rotterdam Blaak","coordinate":{"lat":51.9202766418457,"lng":4.48888874053955},"countryCode":"NL"},{"uicCode":"8400533","stationCode":"RTZ","name":"Rotterdam Zuid","coordinate":{"lat":51.9044456481934,"lng":4.51027774810791},"countryCode":"NL"},{"uicCode":"8400542","stationCode":"RLB","name":"Rotterdam Lombardijen","coordinate":{"lat":51.8800010681152,"lng":4.53138875961304},"countryCode":"NL"},{"uicCode":"8400132","stationCode":"BDPB","name":"Breda-Prinsenbeek","coordinate":{"lat":51.606388092041,"lng":4.72083330154419},"countryCode":"NL"},{"uicCode":"8400131","stationCode":"BD","name":"Breda","coordinate":{"lat":51.5955543518066,"lng":4.78000020980835},"countryCode":"NL"}],"direction":"ONE_WAY"},"description":"aangepaste internationale dienstregeling","level":"LESS_TRAINS"},"sectionType":"HSL"}],"timespans":[{"start":"2023-11-20T13:20:00+0100","end":"2023-11-24T14:10:00+0100","period":"Maandag 20-11-2023 13:20 uur t/m vrijdag 24-11-2023 14:10 uur.","situation":{"label":"Door werkzaamheden: tussen Rotterdam Centraal en Breda is de internationale dienstregeling aangepast."},"cause":{"label":"werkzaamheden"},"additionalTravelTime":{"label":"U heeft geen langere reistijd.","shortLabel":"Geen extra reistijd"},"advices":["Intercity Brussel 9240 stopt niet in Rotterdam Centraal."]}],"alternativeTransportTimespans":[]},{"id":"7004221","type":"MAINTENANCE","registrationTime":"2023-11-16T14:49:31+0100","releaseTime":"2023-11-16T14:49:31+0100","local":false,"title":"Deventer - Almelo.","titleSections":[[{"type":"STATION","value":"Deventer"},{"type":"STATION","value":"Wierden"},{"type":"ICON","value":"MAINTENANCE"},{"type":"STATION","value":"Almelo"}]],"isActive":true,"start":"2023-11-22T08:30:00+0100","end":"2023-12-08T17:00:00+0100","period":"Woensdag 22-11-2023 08:30 uur t/m vrijdag 08-12-2023 17:00 uur.","impact":{"value":2},"summaryAdditionalTravelTime":{"label":"U heeft geen langere reistijd.","shortLabel":"Geen extra reistijd"},"publicationSections":[{"section":{"stations":[{"uicCode":"8400173","stationCode":"DV","name":"Deventer","coordinate":{"lat":52.2574996948242,"lng":6.16055536270142},"countryCode":"NL"},{"uicCode":"8400185","stationCode":"DVC","name":"Deventer Colmschate","coordinate":{"lat":52.2502784729004,"lng":6.21444463729858},"countryCode":"NL"},{"uicCode":"8400328","stationCode":"HON","name":"Holten","coordinate":{"lat":52.2838897705078,"lng":6.42027759552002},"countryCode":"NL"},{"uicCode":"8400538","stationCode":"RSN","name":"Rijssen","coordinate":{"lat":52.3122215270996,"lng":6.52027797698975},"countryCode":"NL"},{"uicCode":"8400691","stationCode":"WDN","name":"Wierden","coordinate":{"lat":52.3613891601562,"lng":6.59166669845581},"countryCode":"NL"},{"uicCode":"8400051","stationCode":"AML","name":"Almelo","coordinate":{"lat":52.3580551147461,"lng":6.65388870239258},"countryCode":"NL"}],"direction":"ONE_WAY"},"consequence":{"section":{"stations":[{"uicCode":"8400691","stationCode":"WDN","name":"Wierden","coordinate":{"lat":52.3613891601562,"lng":6.59166669845581},"countryCode":"NL"},{"uicCode":"8400051","stationCode":"AML","name":"Almelo","coordinate":{"lat":52.3580551147461,"lng":6.65388870239258},"countryCode":"NL"}],"direction":"ONE_WAY"},"description":"dienstregeling aangepast","level":"LESS_TRAINS"},"sectionType":"NL"}],"timespans":[{"start":"2023-11-22T08:30:00+0100","end":"2023-12-08T17:00:00+0100","period":"Woensdag 22-11-2023 08:30 uur t/m vrijdag 08-12-2023 17:00 uur.","situation":{"label":"Door logistieke beperkingen: van Almelo naar Wierden is de dienstregeling aangepast."},"cause":{"label":"logistieke beperking"},"additionalTravelTime":{"label":"U heeft geen langere reistijd.","shortLabel":"Geen extra reistijd"},"advices":["Van maandag t/m vrijdag vertrekken Sprinters van Almelo, vertrek 08.53 en 16.53 uur naar Apeldoorn, 8 minuten eerder uit Almelo."]}],"alternativeTransportTimespans":[]},{"id":"7004216","type":"MAINTENANCE","registrationTime":"2023-11-14T11:04:50+0100","releaseTime":"2023-11-14T11:04:50+0100","local":false,"title":"Utrecht - Rotterdam.","titleSections":[[{"type":"STATION","value":"Utrecht C."},{"type":"STATION","value":"Gouda"},{"type":"ICON","value":"MAINTENANCE"},{"type":"STATION","value":"Rotterdam C."}]],"isActive":false,"start":"2023-11-23T00:00:00+0100","end":"2023-11-23T04:00:00+0100","period":"Donderdag 23-11-2023 00:00 uur t/m donderdag 23-11-2023 04:00 uur.","impact":{"value":3},"summaryAdditionalTravelTime":{"label":"De extra reistijd kan oplopen tot 30 minuten.","shortLabel":"extra reistijd tot 30 min.","maximumDurationInMinutes":30},"publicationSections":[{"section":{"stations":[{"uicCode":"8400621","stationCode":"UT","name":"Utrecht Centraal","coordinate":{"lat":52.0888900756836,"lng":5.11027765274048},"countryCode":"NL"},{"uicCode":"8400607","stationCode":"UTLR","name":"Utrecht Leidsche Rijn","coordinate":{"lat":52.09896,"lng":5.06523},"countryCode":"NL"},{"uicCode":"8400614","stationCode":"UTT","name":"Utrecht Terwijde","coordinate":{"lat":52.1000753,"lng":5.0439547},"countryCode":"NL"},{"uicCode":"8400651","stationCode":"VTN","name":"Vleuten","coordinate":{"lat":52.103056,"lng":5.007404},"countryCode":"NL"},{"uicCode":"8400702","stationCode":"WD","name":"Woerden","coordinate":{"lat":52.0849990844727,"lng":4.89361095428467},"countryCode":"NL"},{"uicCode":"8400257","stationCode":"GDG","name":"Gouda Goverwelle","coordinate":{"lat":52.0149993896484,"lng":4.7408332824707},"countryCode":"NL"},{"uicCode":"8400258","stationCode":"GD","name":"Gouda","coordinate":{"lat":52.0175018310547,"lng":4.70444440841675},"countryCode":"NL"},{"uicCode":"8400455","stationCode":"NWK","name":"Nieuwerkerk a/d IJssel","coordinate":{"lat":51.9652786254883,"lng":4.61694431304932},"countryCode":"NL"},{"uicCode":"8400147","stationCode":"CPS","name":"Capelle Schollevaar","coordinate":{"lat":51.9541664123535,"lng":4.58416652679443},"countryCode":"NL"},{"uicCode":"8400507","stationCode":"RTA","name":"Rotterdam Alexander","coordinate":{"lat":51.9519462585449,"lng":4.55361127853394},"countryCode":"NL"},{"uicCode":"8400531","stationCode":"RTN","name":"Rotterdam Noord","coordinate":{"lat":51.9422225952148,"lng":4.48166656494141},"countryCode":"NL"},{"uicCode":"8400530","stationCode":"RTD","name":"Rotterdam Centraal","coordinate":{"lat":51.9249992370605,"lng":4.46888875961304},"countryCode":"NL"}],"direction":"BOTH"},"consequence":{"section":{"stations":[{"uicCode":"8400258","stationCode":"GD","name":"Gouda","coordinate":{"lat":52.0175018310547,"lng":4.70444440841675},"countryCode":"NL"},{"uicCode":"8400455","stationCode":"NWK","name":"Nieuwerkerk a/d IJssel","coordinate":{"lat":51.9652786254883,"lng":4.61694431304932},"countryCode":"NL"},{"uicCode":"8400147","stationCode":"CPS","name":"Capelle Schollevaar","coordinate":{"lat":51.9541664123535,"lng":4.58416652679443},"countryCode":"NL"},{"uicCode":"8400507","stationCode":"RTA","name":"Rotterdam Alexander","coordinate":{"lat":51.9519462585449,"lng":4.55361127853394},"countryCode":"NL"},{"uicCode":"8400531","stationCode":"RTN","name":"Rotterdam Noord","coordinate":{"lat":51.9422225952148,"lng":4.48166656494141},"countryCode":"NL"},{"uicCode":"8400530","stationCode":"RTD","name":"Rotterdam Centraal","coordinate":{"lat":51.9249992370605,"lng":4.46888875961304},"countryCode":"NL"}],"direction":"ONE_WAY"},"description":"rijden bussen","level":"LESS_TRAINS"},"sectionType":"NL"}],"timespans":[{"start":"2023-11-23T00:00:00+0100","end":"2023-11-23T04:00:00+0100","period":"Donderdag 23-11-2023 00:00 uur t/m donderdag 23-11-2023 04:00 uur.","situation":{"label":"Door werkzaamheden: tussen Gouda en Rotterdam Centraal rijden er bussen."},"cause":{"label":"werkzaamheden"},"additionalTravelTime":{"label":"De extra reistijd kan oplopen tot 30 minuten.","shortLabel":"extra reistijd tot 30 min.","maximumDurationInMinutes":30},"alternativeTransport":{"label":"er rijden stop- en snelbussen","shortLabel":"er rijden stop- en snelbussen"},"advices":[]}],"alternativeTransportTimespans":[{"start":"2023-11-23T00:00:00+0100","end":"2023-11-23T04:00:00+0100","alternativeTransport":{"location":[{"station":{"uicCode":"8400258","stationCode":"GD","name":"Gouda","coordinate":{"lat":52.0175018310547,"lng":4.70444440841675},"countryCode":"NL"},"description":"vanaf de Bloemendaalzijde"},{"station":{"uicCode":"8400507","stationCode":"RTA","name":"Rotterdam Alexander","coordinate":{"lat":51.9519462585449,"lng":4.55361127853394},"countryCode":"NL"},"description":"vanaf de Prins Alexanderlaan"}],"label":"Er rijden snelbussen van Gouda, Rotterdam Alexander naar Rotterdam Centraal.","shortLabel":"er rijden snelbussen Gouda -> Alexander -> Rotterdam C."}},{"start":"2023-11-23T00:00:00+0100","end":"2023-11-23T04:00:00+0100","alternativeTransport":{"location":[{"station":{"uicCode":"8400258","stationCode":"GD","name":"Gouda","coordinate":{"lat":52.0175018310547,"lng":4.70444440841675},"countryCode":"NL"},"description":"vanaf de Bloemendaalzijde"},{"station":{"uicCode":"8400455","stationCode":"NWK","name":"Nieuwerkerk a/d IJssel","coordinate":{"lat":51.9652786254883,"lng":4.61694431304932},"countryCode":"NL"},"description":"vanaf de Kerklaan"},{"station":{"uicCode":"8400147","stationCode":"CPS","name":"Capelle Schollevaar","coordinate":{"lat":51.9541664123535,"lng":4.58416652679443},"countryCode":"NL"},"description":"vanaf het Stationsplein"},{"station":{"uicCode":"8400507","stationCode":"RTA","name":"Rotterdam Alexander","coordinate":{"lat":51.9519462585449,"lng":4.55361127853394},"countryCode":"NL"},"description":"vanaf de Prins Alexanderlaan"},{"station":{"uicCode":"8400531","stationCode":"RTN","name":"Rotterdam Noord","coordinate":{"lat":51.9422225952148,"lng":4.48166656494141},"countryCode":"NL"},"description":"vanaf de Bergweg onder het viaduct"}],"label":"Er rijden stopbussen van Gouda, Nieuwerkerk a/d IJssel, Capelle Schollevaar, Rotterdam Alexander, Rotterdam Noord naar Rotterdam Centraal.","shortLabel":"er rijden stopbussen Gouda -> Nieuwerkerk -> Schollevaar -> Alexander -> Rotterdam Noord -> Rotterdam C."}},{"start":"2023-11-23T01:15:00+0100","end":"2023-11-23T04:00:00+0100","alternativeTransport":{"location":[{"station":{"uicCode":"8400258","stationCode":"GD","name":"Gouda","coordinate":{"lat":52.0175018310547,"lng":4.70444440841675},"countryCode":"NL"},"description":"vanaf de Bloemendaalzijde"},{"station":{"uicCode":"8400530","stationCode":"RTD","name":"Rotterdam Centraal","coordinate":{"lat":51.9249992370605,"lng":4.46888875961304},"countryCode":"NL"},"description":"vanaf de Conradstraat aan de centrumzijde"}],"label":"Er rijden snelbussen tussen Gouda en Rotterdam Centraal.","shortLabel":"er rijden snelbussen Gouda - Rotterdam C."}}]},{"id":"7004215","type":"MAINTENANCE","registrationTime":"2023-11-14T11:03:26+0100","releaseTime":"2023-11-14T11:03:26+0100","local":false,"title":"Den Haag - Rotterdam; Rotterdam - Dordrecht.","titleSections":[[{"type":"STATION","value":"Den Haag HS"},{"type":"ICON","value":"MAINTENANCE"},{"type":"STATION","value":"Rotterdam C."}],[{"type":"STATION","value":"Rotterdam C."},{"type":"ICON","value":"MAINTENANCE"},{"type":"STATION","value":"Dordrecht"}]],"isActive":false,"start":"2023-11-23T00:00:00+0100","end":"2023-11-23T05:00:00+0100","period":"Donderdag 23-11-2023 00:00 uur t/m donderdag 23-11-2023 05:00 uur.","impact":{"value":3},"summaryAdditionalTravelTime":{"label":"De extra reistijd kan oplopen tot 30 minuten.","shortLabel":"extra reistijd tot 30 min.","maximumDurationInMinutes":30},"publicationSections":[{"section":{"stations":[{"uicCode":"8400280","stationCode":"GV","name":"Den Haag HS","coordinate":{"lat":52.0697212219238,"lng":4.32250022888184},"countryCode":"NL"},{"uicCode":"8400279","stationCode":"GVMW","name":"Den Haag Moerwijk","coordinate":{"lat":52.0538902282715,"lng":4.3086109161377},"countryCode":"NL"},{"uicCode":"8400505","stationCode":"RSW","name":"Rijswijk","coordinate":{"lat":52.039722442627,"lng":4.31916666030884},"countryCode":"NL"},{"uicCode":"8400170","stationCode":"DT","name":"Delft","coordinate":{"lat":52.0066680908203,"lng":4.35638904571533},"countryCode":"NL"},{"uicCode":"8400166","stationCode":"DTCP","name":"Delft Campus","coordinate":{"lat":51.9908332824707,"lng":4.36472225189209},"countryCode":"NL"},{"uicCode":"8400553","stationCode":"SDM","name":"Schiedam Centrum","coordinate":{"lat":51.9212438128032,"lng":4.4089937210083},"countryCode":"NL"},{"uicCode":"8400530","stationCode":"RTD","name":"Rotterdam Centraal","coordinate":{"lat":51.9249992370605,"lng":4.46888875961304},"countryCode":"NL"}],"direction":"BOTH"},"consequence":{"section":{"stations":[{"uicCode":"8400280","stationCode":"GV","name":"Den Haag HS","coordinate":{"lat":52.0697212219238,"lng":4.32250022888184},"countryCode":"NL"},{"uicCode":"8400279","stationCode":"GVMW","name":"Den Haag Moerwijk","coordinate":{"lat":52.0538902282715,"lng":4.3086109161377},"countryCode":"NL"},{"uicCode":"8400505","stationCode":"RSW","name":"Rijswijk","coordinate":{"lat":52.039722442627,"lng":4.31916666030884},"countryCode":"NL"},{"uicCode":"8400170","stationCode":"DT","name":"Delft","coordinate":{"lat":52.0066680908203,"lng":4.35638904571533},"countryCode":"NL"},{"uicCode":"8400166","stationCode":"DTCP","name":"Delft Campus","coordinate":{"lat":51.9908332824707,"lng":4.36472225189209},"countryCode":"NL"},{"uicCode":"8400553","stationCode":"SDM","name":"Schiedam Centrum","coordinate":{"lat":51.9212438128032,"lng":4.4089937210083},"countryCode":"NL"},{"uicCode":"8400530","stationCode":"RTD","name":"Rotterdam Centraal","coordinate":{"lat":51.9249992370605,"lng":4.46888875961304},"countryCode":"NL"}],"direction":"ONE_WAY"},"description":"rijden bussen","level":"LESS_TRAINS"},"sectionType":"NL"},{"section":{"stations":[{"uicCode":"8400530","stationCode":"RTD","name":"Rotterdam Centraal","coordinate":{"lat":51.9249992370605,"lng":4.46888875961304},"countryCode":"NL"},{"uicCode":"8400529","stationCode":"RTB","name":"Rotterdam Blaak","coordinate":{"lat":51.9202766418457,"lng":4.48888874053955},"countryCode":"NL"},{"uicCode":"8400533","stationCode":"RTZ","name":"Rotterdam Zuid","coordinate":{"lat":51.9044456481934,"lng":4.51027774810791},"countryCode":"NL"},{"uicCode":"8400542","stationCode":"RLB","name":"Rotterdam Lombardijen","coordinate":{"lat":51.8800010681152,"lng":4.53138875961304},"countryCode":"NL"},{"uicCode":"8400090","stationCode":"BRD","name":"Barendrecht","coordinate":{"lat":51.8547210693359,"lng":4.5533332824707},"countryCode":"NL"},{"uicCode":"8400752","stationCode":"ZWD","name":"Zwijndrecht","coordinate":{"lat":51.814998626709,"lng":4.64166688919067},"countryCode":"NL"},{"uicCode":"8400180","stationCode":"DDR","name":"Dordrecht","coordinate":{"lat":51.8072204589844,"lng":4.66833353042603},"countryCode":"NL"}],"direction":"BOTH"},"consequence":{"section":{"stations":[{"uicCode":"8400530","stationCode":"RTD","name":"Rotterdam Centraal","coordinate":{"lat":51.9249992370605,"lng":4.46888875961304},"countryCode":"NL"},{"uicCode":"8400529","stationCode":"RTB","name":"Rotterdam Blaak","coordinate":{"lat":51.9202766418457,"lng":4.48888874053955},"countryCode":"NL"},{"uicCode":"8400533","stationCode":"RTZ","name":"Rotterdam Zuid","coordinate":{"lat":51.9044456481934,"lng":4.51027774810791},"countryCode":"NL"},{"uicCode":"8400542","stationCode":"RLB","name":"Rotterdam Lombardijen","coordinate":{"lat":51.8800010681152,"lng":4.53138875961304},"countryCode":"NL"},{"uicCode":"8400090","stationCode":"BRD","name":"Barendrecht","coordinate":{"lat":51.8547210693359,"lng":4.5533332824707},"countryCode":"NL"},{"uicCode":"8400752","stationCode":"ZWD","name":"Zwijndrecht","coordinate":{"lat":51.814998626709,"lng":4.64166688919067},"countryCode":"NL"},{"uicCode":"8400180","stationCode":"DDR","name":"Dordrecht","coordinate":{"lat":51.8072204589844,"lng":4.66833353042603},"countryCode":"NL"}],"direction":"ONE_WAY"},"description":"rijden bussen","level":"LESS_TRAINS"},"sectionType":"NL"}],"timespans":[{"start":"2023-11-23T00:00:00+0100","end":"2023-11-23T05:00:00+0100","period":"Donderdag 23-11-2023 00:00 uur t/m donderdag 23-11-2023 05:00 uur.","situation":{"label":"Door werkzaamheden: tussen Den Haag HS en Rotterdam Centraal rijden er bussen en tussen Rotterdam Centraal en Dordrecht rijden er bussen."},"cause":{"label":"werkzaamheden"},"additionalTravelTime":{"label":"De extra reistijd kan oplopen tot 30 minuten.","shortLabel":"extra reistijd tot 30 min.","maximumDurationInMinutes":30},"alternativeTransport":{"label":"er rijden stop- en snelbussen","shortLabel":"er rijden stop- en snelbussen"},"advices":[]}],"alternativeTransportTimespans":[{"start":"2023-11-23T00:20:00+0100","end":"2023-11-23T02:20:00+0100","alternativeTransport":{"location":[{"station":{"uicCode":"8400553","stationCode":"SDM","name":"Schiedam Centrum","coordinate":{"lat":51.9212438128032,"lng":4.4089937210083},"countryCode":"NL"},"description":"vanaf de Horvathweg"},{"station":{"uicCode":"8400530","stationCode":"RTD","name":"Rotterdam Centraal","coordinate":{"lat":51.9249992370605,"lng":4.46888875961304},"countryCode":"NL"},"description":"vanaf de Conradstraat aan de centrumzijde"},{"station":{"uicCode":"8400529","stationCode":"RTB","name":"Rotterdam Blaak","coordinate":{"lat":51.9202766418457,"lng":4.48888874053955},"countryCode":"NL"},"description":"vanaf de voorzijde van het station"},{"station":{"uicCode":"8400533","stationCode":"RTZ","name":"Rotterdam Zuid","coordinate":{"lat":51.9044456481934,"lng":4.51027774810791},"countryCode":"NL"},"description":"vanaf de Rosestraat"},{"station":{"uicCode":"8400542","stationCode":"RLB","name":"Rotterdam Lombardijen","coordinate":{"lat":51.8800010681152,"lng":4.53138875961304},"countryCode":"NL"},"description":"vanaf de bushalte"},{"station":{"uicCode":"8400090","stationCode":"BRD","name":"Barendrecht","coordinate":{"lat":51.8547210693359,"lng":4.5533332824707},"countryCode":"NL"},"description":"vanaf de achterzijde van het station"},{"station":{"uicCode":"8400752","stationCode":"ZWD","name":"Zwijndrecht","coordinate":{"lat":51.814998626709,"lng":4.64166688919067},"countryCode":"NL"},"description":"vanaf het Stationsplein"}],"label":"Er rijden stopbussen van Schiedam Centrum, Rotterdam Centraal, Rotterdam Blaak, Rotterdam Zuid, Rotterdam Lombardijen, Barendrecht, Zwijndrecht naar Dordrecht.","shortLabel":"er rijden stopbussen Schiedam C. -> Rotterdam C. -> Blaak -> Rotterdam Zuid -> Lombardijen -> Barendrecht -> Zwijndrecht -> Dordrecht"}},{"start":"2023-11-23T00:20:00+0100","end":"2023-11-23T02:20:00+0100","alternativeTransport":{"location":[{"station":{"uicCode":"8400553","stationCode":"SDM","name":"Schiedam Centrum","coordinate":{"lat":51.9212438128032,"lng":4.4089937210083},"countryCode":"NL"},"description":"vanaf de Horvathweg"},{"station":{"uicCode":"8400530","stationCode":"RTD","name":"Rotterdam Centraal","coordinate":{"lat":51.9249992370605,"lng":4.46888875961304},"countryCode":"NL"},"description":"vanaf de Conradstraat aan de centrumzijde"}],"label":"Er rijden snelbussen van Schiedam Centrum, Rotterdam Centraal naar Dordrecht.","shortLabel":"er rijden snelbussen Schiedam C. -> Rotterdam C. -> Dordrecht"}},{"start":"2023-11-23T00:20:00+0100","end":"2023-11-23T02:20:00+0100","alternativeTransport":{"location":[{"station":{"uicCode":"8400180","stationCode":"DDR","name":"Dordrecht","coordinate":{"lat":51.8072204589844,"lng":4.66833353042603},"countryCode":"NL"},"description":"Burgemeester de Raadtsingel"}],"label":"Er rijden snelbussen van Dordrecht naar Rotterdam Centraal.","shortLabel":"er rijden snelbussen Dordrecht -> Rotterdam C."}},{"start":"2023-11-23T00:50:00+0100","end":"2023-11-23T01:45:00+0100","alternativeTransport":{"location":[{"station":{"uicCode":"8400280","stationCode":"GV","name":"Den Haag HS","coordinate":{"lat":52.0697212219238,"lng":4.32250022888184},"countryCode":"NL"},"description":"vanaf de achterzijde van het station"},{"station":{"uicCode":"8400170","stationCode":"DT","name":"Delft","coordinate":{"lat":52.0066680908203,"lng":4.35638904571533},"countryCode":"NL"},"description":"vanaf het busplatform"},{"station":{"uicCode":"8400553","stationCode":"SDM","name":"Schiedam Centrum","coordinate":{"lat":51.9212438128032,"lng":4.4089937210083},"countryCode":"NL"},"description":"vanaf de Horvathweg"}],"label":"Er rijden snelbussen van Den Haag HS, Delft, Schiedam Centrum naar Rotterdam Centraal.","shortLabel":"er rijden snelbussen Den Haag HS -> Delft -> Schiedam C. -> Rotterdam C."}},{"start":"2023-11-23T00:50:00+0100","end":"2023-11-23T05:00:00+0100","alternativeTransport":{"location":[{"station":{"uicCode":"8400280","stationCode":"GV","name":"Den Haag HS","coordinate":{"lat":52.0697212219238,"lng":4.32250022888184},"countryCode":"NL"},"description":"vanaf de achterzijde van het station"},{"station":{"uicCode":"8400170","stationCode":"DT","name":"Delft","coordinate":{"lat":52.0066680908203,"lng":4.35638904571533},"countryCode":"NL"},"description":"vanaf het busplatform"},{"station":{"uicCode":"8400530","stationCode":"RTD","name":"Rotterdam Centraal","coordinate":{"lat":51.9249992370605,"lng":4.46888875961304},"countryCode":"NL"},"description":"vanaf de Conradstraat aan de centrumzijde"}],"label":"Er rijden snelbussen tussen Den Haag HS, Delft en Rotterdam Centraal.","shortLabel":"er rijden snelbussen Den Haag HS - Delft - Rotterdam C."}}]},{"id":"7004143","type":"MAINTENANCE","registrationTime":"2023-10-27T10:53:17+0200","releaseTime":"2023-10-27T10:53:17+0200","local":false,"title":"Almere - Lelystad.","titleSections":[[{"type":"STATION","value":"Almere C."},{"type":"STATION","value":"Oostvaarders"},{"type":"ICON","value":"MAINTENANCE"},{"type":"STATION","value":"Lelystad C."}]],"isActive":false,"start":"2023-11-24T00:30:00+0100","end":"2023-11-24T04:50:00+0100","period":"Vrijdag 24-11-2023 00:30 uur t/m vrijdag 24-11-2023 04:50 uur.","impact":{"value":2},"summaryAdditionalTravelTime":{"label":"De extra reistijd kan oplopen tot 30 minuten.","shortLabel":"extra reistijd tot 30 min.","maximumDurationInMinutes":30},"publicationSections":[{"section":{"stations":[{"uicCode":"8400080","stationCode":"ALM","name":"Almere Centrum","coordinate":{"lat":52.37503,"lng":5.21764},"countryCode":"NL"},{"uicCode":"8400104","stationCode":"ALMP","name":"Almere Parkwijk","coordinate":{"lat":52.3766670227051,"lng":5.24472236633301},"countryCode":"NL"},{"uicCode":"8400081","stationCode":"ALMB","name":"Almere Buiten","coordinate":{"lat":52.3941650390625,"lng":5.2780556678772},"countryCode":"NL"},{"uicCode":"8400226","stationCode":"ALMO","name":"Almere Oostvaarders","coordinate":{"lat":52.4033317565918,"lng":5.30055570602417},"countryCode":"NL"},{"uicCode":"8400394","stationCode":"LLS","name":"Lelystad Centrum","coordinate":{"lat":52.5077781677246,"lng":5.47277784347534},"countryCode":"NL"}],"direction":"BOTH"},"consequence":{"section":{"stations":[{"uicCode":"8400226","stationCode":"ALMO","name":"Almere Oostvaarders","coordinate":{"lat":52.4033317565918,"lng":5.30055570602417},"countryCode":"NL"},{"uicCode":"8400394","stationCode":"LLS","name":"Lelystad Centrum","coordinate":{"lat":52.5077781677246,"lng":5.47277784347534},"countryCode":"NL"}],"direction":"ONE_WAY"},"description":"aangep. dienstregeling en businzet","level":"LESS_TRAINS"},"sectionType":"NL"}],"timespans":[{"start":"2023-11-24T00:30:00+0100","end":"2023-11-24T04:50:00+0100","period":"Vrijdag 24-11-2023 00:30 uur t/m vrijdag 24-11-2023 04:50 uur.","situation":{"label":"Door werkzaamheden: tussen Almere Oostvaarders en Lelystad Centrum is de dienstregeling aangepast en rijden er bussen."},"cause":{"label":"werkzaamheden"},"additionalTravelTime":{"label":"De extra reistijd kan oplopen tot 30 minuten.","shortLabel":"extra reistijd tot 30 min.","maximumDurationInMinutes":30},"alternativeTransport":{"label":"er rijden stopbussen","shortLabel":"er rijden stopbussen"},"advices":[]}],"alternativeTransportTimespans":[{"start":"2023-11-24T00:30:00+0100","end":"2023-11-24T04:50:00+0100","alternativeTransport":{"location":[{"station":{"uicCode":"8400226","stationCode":"ALMO","name":"Almere Oostvaarders","coordinate":{"lat":52.4033317565918,"lng":5.30055570602417},"countryCode":"NL"},"description":"vanaf de voorzijde van het station"},{"station":{"uicCode":"8400394","stationCode":"LLS","name":"Lelystad Centrum","coordinate":{"lat":52.5077781677246,"lng":5.47277784347534},"countryCode":"NL"},"description":"vanaf de achterzijde van het station"}],"label":"Er rijden stopbussen van Almere Oostvaarders naar Lelystad Centrum.","shortLabel":"er rijden stopbussen Oostvaarders -> Lelystad C."}}]},{"id":"7004218","type":"MAINTENANCE","registrationTime":"2023-11-21T13:05:45+0100","releaseTime":"2023-11-21T13:05:45+0100","local":false,"title":"Den Haag - Rotterdam.","titleSections":[[{"type":"STATION","value":"Den Haag HS"},{"type":"STATION","value":"Schiedam C."},{"type":"ICON","value":"MAINTENANCE"},{"type":"STATION","value":"Rotterdam C."}]],"isActive":false,"start":"2023-11-24T01:00:00+0100","end":"2023-11-24T05:00:00+0100","period":"Vrijdag 24-11-2023 01:00 uur t/m vrijdag 24-11-2023 05:00 uur.","impact":{"value":3},"summaryAdditionalTravelTime":{"label":"De extra reistijd is ongeveer 15 minuten.","shortLabel":"extra reistijd 15 min.","minimumDurationInMinutes":15,"maximumDurationInMinutes":15},"publicationSections":[{"section":{"stations":[{"uicCode":"8400280","stationCode":"GV","name":"Den Haag HS","coordinate":{"lat":52.0697212219238,"lng":4.32250022888184},"countryCode":"NL"},{"uicCode":"8400279","stationCode":"GVMW","name":"Den Haag Moerwijk","coordinate":{"lat":52.0538902282715,"lng":4.3086109161377},"countryCode":"NL"},{"uicCode":"8400505","stationCode":"RSW","name":"Rijswijk","coordinate":{"lat":52.039722442627,"lng":4.31916666030884},"countryCode":"NL"},{"uicCode":"8400170","stationCode":"DT","name":"Delft","coordinate":{"lat":52.0066680908203,"lng":4.35638904571533},"countryCode":"NL"},{"uicCode":"8400166","stationCode":"DTCP","name":"Delft Campus","coordinate":{"lat":51.9908332824707,"lng":4.36472225189209},"countryCode":"NL"},{"uicCode":"8400553","stationCode":"SDM","name":"Schiedam Centrum","coordinate":{"lat":51.9212438128032,"lng":4.4089937210083},"countryCode":"NL"},{"uicCode":"8400530","stationCode":"RTD","name":"Rotterdam Centraal","coordinate":{"lat":51.9249992370605,"lng":4.46888875961304},"countryCode":"NL"}],"direction":"BOTH"},"consequence":{"section":{"stations":[{"uicCode":"8400553","stationCode":"SDM","name":"Schiedam Centrum","coordinate":{"lat":51.9212438128032,"lng":4.4089937210083},"countryCode":"NL"},{"uicCode":"8400530","stationCode":"RTD","name":"Rotterdam Centraal","coordinate":{"lat":51.9249992370605,"lng":4.46888875961304},"countryCode":"NL"}],"direction":"ONE_WAY"},"description":"rijden bussen","level":"LESS_TRAINS"},"sectionType":"NL"}],"timespans":[{"start":"2023-11-24T01:00:00+0100","end":"2023-11-24T05:00:00+0100","period":"Vrijdag 24-11-2023 01:00 uur t/m vrijdag 24-11-2023 05:00 uur.","situation":{"label":"Door werkzaamheden: tussen Schiedam Centrum en Rotterdam Centraal rijden er bussen."},"cause":{"label":"werkzaamheden"},"additionalTravelTime":{"label":"De extra reistijd is ongeveer 15 minuten.","shortLabel":"extra reistijd 15 min.","minimumDurationInMinutes":15,"maximumDurationInMinutes":15},"alternativeTransport":{"label":"er rijden stopbussen","shortLabel":"er rijden stopbussen"},"advices":[]}],"alternativeTransportTimespans":[{"start":"2023-11-24T01:00:00+0100","end":"2023-11-24T05:00:00+0100","alternativeTransport":{"location":[{"station":{"uicCode":"8400553","stationCode":"SDM","name":"Schiedam Centrum","coordinate":{"lat":51.9212438128032,"lng":4.4089937210083},"countryCode":"NL"},"description":"vanaf de Horvathweg"},{"station":{"uicCode":"8400530","stationCode":"RTD","name":"Rotterdam Centraal","coordinate":{"lat":51.9249992370605,"lng":4.46888875961304},"countryCode":"NL"},"description":"vanaf de Conradstraat aan de centrumzijde"}],"label":"Er rijden stopbussen tussen Schiedam Centrum en Rotterdam Centraal.","shortLabel":"er rijden stopbussen Schiedam C. - Rotterdam C."}}]},{"id":"7004069","type":"MAINTENANCE","registrationTime":"2023-10-30T10:09:33+0100","releaseTime":"2023-10-30T10:09:33+0100","local":false,"title":"Roosendaal - Vlissingen.","titleSections":[[{"type":"STATION","value":"Roosendaal"},{"type":"STATION","value":"Bergen op Zoom"},{"type":"ICON","value":"MAINTENANCE"},{"type":"STATION","value":"Goes"},{"type":"STATION","value":"Vlissingen"}]],"isActive":false,"start":"2023-11-24T04:00:00+0100","end":"2023-11-27T02:00:00+0100","period":"Vrijdag 24-11-2023 04:00 uur t/m maandag 27-11-2023 02:00 uur.","impact":{"value":4},"summaryAdditionalTravelTime":{"label":"De extra reistijd is ongeveer 15 minuten.","shortLabel":"extra reistijd 15 min.","minimumDurationInMinutes":15,"maximumDurationInMinutes":15},"publicationSections":[{"section":{"stations":[{"uicCode":"8400526","stationCode":"RSD","name":"Roosendaal","coordinate":{"lat":51.5402793884277,"lng":4.45833349227905},"countryCode":"NL"},{"uicCode":"8400108","stationCode":"BGN","name":"Bergen op Zoom","coordinate":{"lat":51.4938888549805,"lng":4.29611110687256},"countryCode":"NL"},{"uicCode":"8400521","stationCode":"RB","name":"Rilland-Bath","coordinate":{"lat":51.422779083252,"lng":4.16111087799072},"countryCode":"NL"},{"uicCode":"8400367","stationCode":"KBD","name":"Krabbendijke","coordinate":{"lat":51.4333343505859,"lng":4.11694431304932},"countryCode":"NL"},{"uicCode":"8400370","stationCode":"KRG","name":"Kruiningen-Yerseke","coordinate":{"lat":51.4650001525879,"lng":4.03722238540649},"countryCode":"NL"},{"uicCode":"8400354","stationCode":"BZL","name":"Kapelle-Biezelinge","coordinate":{"lat":51.4808349609375,"lng":3.95611119270325},"countryCode":"NL"},{"uicCode":"8400253","stationCode":"GS","name":"Goes","coordinate":{"lat":51.4980545043945,"lng":3.89055562019348},"countryCode":"NL"},{"uicCode":"8400069","stationCode":"ARN","name":"Arnemuiden","coordinate":{"lat":51.5016670227051,"lng":3.66916656494141},"countryCode":"NL"},{"uicCode":"8400436","stationCode":"MDB","name":"Middelburg","coordinate":{"lat":51.4947204589844,"lng":3.61722230911255},"countryCode":"NL"},{"uicCode":"8400653","stationCode":"VSS","name":"Vlissingen Souburg","coordinate":{"lat":51.4647216796875,"lng":3.59527778625488},"countryCode":"NL"},{"uicCode":"8400652","stationCode":"VS","name":"Vlissingen","coordinate":{"lat":51.4458351135254,"lng":3.59527778625488},"countryCode":"NL"}],"direction":"BOTH"},"consequence":{"section":{"stations":[{"uicCode":"8400108","stationCode":"BGN","name":"Bergen op Zoom","coordinate":{"lat":51.4938888549805,"lng":4.29611110687256},"countryCode":"NL"},{"uicCode":"8400521","stationCode":"RB","name":"Rilland-Bath","coordinate":{"lat":51.422779083252,"lng":4.16111087799072},"countryCode":"NL"},{"uicCode":"8400367","stationCode":"KBD","name":"Krabbendijke","coordinate":{"lat":51.4333343505859,"lng":4.11694431304932},"countryCode":"NL"},{"uicCode":"8400370","stationCode":"KRG","name":"Kruiningen-Yerseke","coordinate":{"lat":51.4650001525879,"lng":4.03722238540649},"countryCode":"NL"},{"uicCode":"8400354","stationCode":"BZL","name":"Kapelle-Biezelinge","coordinate":{"lat":51.4808349609375,"lng":3.95611119270325},"countryCode":"NL"},{"uicCode":"8400253","stationCode":"GS","name":"Goes","coordinate":{"lat":51.4980545043945,"lng":3.89055562019348},"countryCode":"NL"}],"direction":"ONE_WAY"},"description":"rijden bussen","level":"LESS_TRAINS"},"sectionType":"NL"}],"timespans":[{"start":"2023-11-24T04:00:00+0100","end":"2023-11-27T02:00:00+0100","period":"Vrijdag 24-11-2023 04:00 uur t/m maandag 27-11-2023 02:00 uur.","situation":{"label":"Door werkzaamheden: tussen Bergen op Zoom en Goes rijden er bussen."},"cause":{"label":"werkzaamheden"},"additionalTravelTime":{"label":"De extra reistijd is ongeveer 15 minuten.","shortLabel":"extra reistijd 15 min.","minimumDurationInMinutes":15,"maximumDurationInMinutes":15},"alternativeTransport":{"label":"maak gebruik van het vervangende vervoer","shortLabel":"gebruik het vervangende vervoer"},"advices":["tussen Kapelle-Biezel. en Bergen op Zoom reist u via Goes"]}],"alternativeTransportTimespans":[{"start":"2023-11-24T04:00:00+0100","end":"2023-11-27T02:00:00+0100","alternativeTransport":{"location":[{"station":{"uicCode":"8400108","stationCode":"BGN","name":"Bergen op Zoom","coordinate":{"lat":51.4938888549805,"lng":4.29611110687256},"countryCode":"NL"},"description":"vanaf het Stationsplein"},{"station":{"uicCode":"8400253","stationCode":"GS","name":"Goes","coordinate":{"lat":51.4980545043945,"lng":3.89055562019348},"countryCode":"NL"},"description":"vanaf de achterzijde van het station"}],"label":"Er rijden snelbussen tussen Bergen op Zoom en Goes.","shortLabel":"er rijden snelbussen Bergen op Zoom - Goes"}},{"start":"2023-11-24T04:00:00+0100","end":"2023-11-27T02:00:00+0100","alternativeTransport":{"location":[{"station":{"uicCode":"8400108","stationCode":"BGN","name":"Bergen op Zoom","coordinate":{"lat":51.4938888549805,"lng":4.29611110687256},"countryCode":"NL"},"description":"vanaf het Stationsplein"},{"station":{"uicCode":"8400521","stationCode":"RB","name":"Rilland-Bath","coordinate":{"lat":51.422779083252,"lng":4.16111087799072},"countryCode":"NL"},"description":"vanaf de Provinciale weg"},{"station":{"uicCode":"8400367","stationCode":"KBD","name":"Krabbendijke","coordinate":{"lat":51.4333343505859,"lng":4.11694431304932},"countryCode":"NL"},"description":"vanaf de voorzijde van het station"},{"station":{"uicCode":"8400370","stationCode":"KRG","name":"Kruiningen-Yerseke","coordinate":{"lat":51.4650001525879,"lng":4.03722238540649},"countryCode":"NL"},"description":"vanaf de voorzijde van het station"},{"station":{"uicCode":"8400253","stationCode":"GS","name":"Goes","coordinate":{"lat":51.4980545043945,"lng":3.89055562019348},"countryCode":"NL"},"description":"vanaf de achterzijde van het station"}],"label":"Er rijden stopbussen tussen Bergen op Zoom, Rilland-Bath, Krabbendijke, Kruiningen-Yerseke en Goes.","shortLabel":"er rijden stopbussen Bergen op Zoom - Rilland-Bath - Krabbendijke - Kruiningen-Y. - Goes"}},{"start":"2023-11-24T04:00:00+0100","end":"2023-11-27T02:00:00+0100","alternativeTransport":{"location":[{"station":{"uicCode":"8400253","stationCode":"GS","name":"Goes","coordinate":{"lat":51.4980545043945,"lng":3.89055562019348},"countryCode":"NL"},"description":"vanaf de achterzijde van het station"},{"station":{"uicCode":"8400354","stationCode":"BZL","name":"Kapelle-Biezelinge","coordinate":{"lat":51.4808349609375,"lng":3.95611119270325},"countryCode":"NL"},"description":"vanaf de voorzijde van het station"}],"label":"Er rijden taxibusjes tussen Goes en Kapelle-Biezelinge.","shortLabel":"er rijden taxibusjes Goes - Kapelle-Biezel."}}]},{"id":"7004109","type":"MAINTENANCE","registrationTime":"2023-10-30T09:33:51+0100","releaseTime":"2023-10-30T09:33:51+0100","local":false,"title":"Arnhem - Duisburg - Dsseldorf.","titleSections":[[{"type":"STATION","value":"Arnhem C."},{"type":"ICON","value":"MAINTENANCE"},{"type":"STATION","value":"Emmerich"},{"type":"STATION","value":"Dsseldorf Hbf"}]],"isActive":false,"start":"2023-11-24T21:00:00+0100","end":"2023-12-03T23:59:00+0100","period":"Vrijdag 24-11-2023 21:00 uur t/m zondag 03-12-2023 23:59 uur.","impact":{"value":4},"summaryAdditionalTravelTime":{"label":"De extra reistijd kan oplopen tot 30 minuten.","shortLabel":"extra reistijd tot 30 min.","maximumDurationInMinutes":30},"publicationSections":[{"section":{"stations":[{"uicCode":"8400071","stationCode":"AH","name":"Arnhem Centraal","coordinate":{"lat":51.9850006103516,"lng":5.89916658401489},"countryCode":"NL"},{"uicCode":"8400072","stationCode":"AHP","name":"Arnhem Velperpoort","coordinate":{"lat":51.985279083252,"lng":5.91944456100464},"countryCode":"NL"},{"uicCode":"8400688","stationCode":"WTV","name":"Westervoort","coordinate":{"lat":51.96286,"lng":5.9695},"countryCode":"NL"},{"uicCode":"8400193","stationCode":"DVN","name":"Duiven","coordinate":{"lat":51.9433326721191,"lng":6.01472234725952},"countryCode":"NL"},{"uicCode":"8400735","stationCode":"ZV","name":"Zevenaar","coordinate":{"lat":51.9230537414551,"lng":6.07194423675537},"countryCode":"NL"},{"uicCode":"8033415","stationCode":"EL","name":"Emmerich-Elten","coordinate":{"lat":51.8743,"lng":6.15417},"countryCode":"D"},{"uicCode":"8010288","stationCode":"EM","name":"Emmerich","coordinate":{"lat":51.834283,"lng":6.255718},"countryCode":"D"},{"uicCode":"8010275","stationCode":"WESEL","name":"Wesel","coordinate":{"lat":51.655833,"lng":6.627222},"countryCode":"D"},{"uicCode":"8010263","stationCode":"OBERH","name":"Oberhausen Hbf","coordinate":{"lat":51.47512,"lng":6.852038},"countryCode":"D"},{"uicCode":"8010316","stationCode":"DUISB","name":"Duisburg Hbf","coordinate":{"lat":51.4297785713316,"lng":6.77590370178222},"countryCode":"D"},{"uicCode":"8039904","stationCode":"KDFFH","name":"Dsseldorf Flughafen","coordinate":{"lat":51.292009,"lng":6.786836},"countryCode":"D"},{"uicCode":"8008094","stationCode":"DUSSEL","name":"Dsseldorf Hbf","coordinate":{"lat":51.220146,"lng":6.793137},"countryCode":"D"}],"direction":"BOTH"},"consequence":{"section":{"stations":[{"uicCode":"8400071","stationCode":"AH","name":"Arnhem Centraal","coordinate":{"lat":51.9850006103516,"lng":5.89916658401489},"countryCode":"NL"},{"uicCode":"8400072","stationCode":"AHP","name":"Arnhem Velperpoort","coordinate":{"lat":51.985279083252,"lng":5.91944456100464},"countryCode":"NL"},{"uicCode":"8400688","stationCode":"WTV","name":"Westervoort","coordinate":{"lat":51.96286,"lng":5.9695},"countryCode":"NL"},{"uicCode":"8400193","stationCode":"DVN","name":"Duiven","coordinate":{"lat":51.9433326721191,"lng":6.01472234725952},"countryCode":"NL"},{"uicCode":"8400735","stationCode":"ZV","name":"Zevenaar","coordinate":{"lat":51.9230537414551,"lng":6.07194423675537},"countryCode":"NL"},{"uicCode":"8033415","stationCode":"EL","name":"Emmerich-Elten","coordinate":{"lat":51.8743,"lng":6.15417},"countryCode":"D"},{"uicCode":"8010288","stationCode":"EM","name":"Emmerich","coordinate":{"lat":51.834283,"lng":6.255718},"countryCode":"D"}],"direction":"ONE_WAY"},"description":"rijden bussen","level":"LESS_TRAINS"},"sectionType":"NEIGHBORING_COUNTRY"}],"timespans":[{"start":"2023-11-24T21:00:00+0100","end":"2023-12-03T23:59:00+0100","period":"Vrijdag 24-11-2023 21:00 uur t/m zondag 03-12-2023 23:59 uur.","situation":{"label":"Door werkzaamheden: tussen Arnhem Centraal en Emmerich rijden er bussen."},"cause":{"label":"werkzaamheden"},"additionalTravelTime":{"label":"De extra reistijd kan oplopen tot 30 minuten.","shortLabel":"extra reistijd tot 30 min.","maximumDurationInMinutes":30},"alternativeTransport":{"label":"er rijden stopbussen","shortLabel":"er rijden stopbussen"},"advices":[]}],"alternativeTransportTimespans":[{"start":"2023-11-24T21:00:00+0100","end":"2023-12-03T23:59:00+0100","alternativeTransport":{"location":[{"station":{"uicCode":"8400071","stationCode":"AH","name":"Arnhem Centraal","coordinate":{"lat":51.9850006103516,"lng":5.89916658401489},"countryCode":"NL"},"description":"vanaf de bus-terminal"},{"station":{"uicCode":"8400735","stationCode":"ZV","name":"Zevenaar","coordinate":{"lat":51.9230537414551,"lng":6.07194423675537},"countryCode":"NL"},"description":"vanaf het stationsplein bij de Kiss & Ride plaatsen, aan beide zijden van de weg"}],"label":"Er rijden stopbussen tussen Arnhem Centraal, Zevenaar en Emmerich.","shortLabel":"er rijden stopbussen Arnhem C. - Zevenaar - Emmerich"}}]},{"id":"7004104","type":"MAINTENANCE","registrationTime":"2023-11-14T09:23:09+0100","releaseTime":"2023-11-14T09:23:09+0100","local":false,"title":"Rotterdam Centraal.","titleSections":[[{"type":"STATION","value":"Rotterdam C."}],[{"type":"STATION","value":"Amsterdam C."},{"type":"ICON","value":"MAINTENANCE"},{"type":"STATION","value":"Breda"}]],"isActive":false,"start":"2023-11-25T00:30:00+0100","end":"2023-11-27T05:00:00+0100","period":"Zaterdag 25-11-2023 00:30 uur t/m maandag 27-11-2023 05:00 uur.","impact":{"value":5},"summaryAdditionalTravelTime":{"label":"De extra reistijd ligt tussen 30 en 45 minuten.","shortLabel":"extra reistijd: 30-45 min.","minimumDurationInMinutes":30,"maximumDurationInMinutes":45},"publicationSections":[{"section":{"stations":[{"uicCode":"8400530","stationCode":"RTD","name":"Rotterdam Centraal","coordinate":{"lat":51.9249992370605,"lng":4.46888875961304},"countryCode":"NL"},{"uicCode":"8400529","stationCode":"RTB","name":"Rotterdam Blaak","coordinate":{"lat":51.9202766418457,"lng":4.48888874053955},"countryCode":"NL"},{"uicCode":"8400533","stationCode":"RTZ","name":"Rotterdam Zuid","coordinate":{"lat":51.9044456481934,"lng":4.51027774810791},"countryCode":"NL"},{"uicCode":"8400542","stationCode":"RLB","name":"Rotterdam Lombardijen","coordinate":{"lat":51.8800010681152,"lng":4.53138875961304},"countryCode":"NL"},{"uicCode":"8400090","stationCode":"BRD","name":"Barendrecht","coordinate":{"lat":51.8547210693359,"lng":4.5533332824707},"countryCode":"NL"},{"uicCode":"8400752","stationCode":"ZWD","name":"Zwijndrecht","coordinate":{"lat":51.814998626709,"lng":4.64166688919067},"countryCode":"NL"},{"uicCode":"8400180","stationCode":"DDR","name":"Dordrecht","coordinate":{"lat":51.8072204589844,"lng":4.66833353042603},"countryCode":"NL"}],"direction":"BOTH"},"consequence":{"section":{"stations":[{"uicCode":"8400530","stationCode":"RTD","name":"Rotterdam Centraal","coordinate":{"lat":51.9249992370605,"lng":4.46888875961304},"countryCode":"NL"}],"direction":"ONE_WAY"},"description":"dienstregeling aangepast","level":"LESS_TRAINS"},"sectionType":"NL"},{"section":{"stations":[{"uicCode":"8400530","stationCode":"RTD","name":"Rotterdam Centraal","coordinate":{"lat":51.9249992370605,"lng":4.46888875961304},"countryCode":"NL"},{"uicCode":"8400531","stationCode":"RTN","name":"Rotterdam Noord","coordinate":{"lat":51.9422225952148,"lng":4.48166656494141},"countryCode":"NL"},{"uicCode":"8400507","stationCode":"RTA","name":"Rotterdam Alexander","coordinate":{"lat":51.9519462585449,"lng":4.55361127853394},"countryCode":"NL"},{"uicCode":"8400147","stationCode":"CPS","name":"Capelle Schollevaar","coordinate":{"lat":51.9541664123535,"lng":4.58416652679443},"countryCode":"NL"},{"uicCode":"8400455","stationCode":"NWK","name":"Nieuwerkerk a/d IJssel","coordinate":{"lat":51.9652786254883,"lng":4.61694431304932},"countryCode":"NL"},{"uicCode":"8400258","stationCode":"GD","name":"Gouda","coordinate":{"lat":52.0175018310547,"lng":4.70444440841675},"countryCode":"NL"}],"direction":"BOTH"},"consequence":{"section":{"stations":[{"uicCode":"8400530","stationCode":"RTD","name":"Rotterdam Centraal","coordinate":{"lat":51.9249992370605,"lng":4.46888875961304},"countryCode":"NL"}],"direction":"ONE_WAY"},"description":"dienstregeling aangepast","level":"LESS_TRAINS"},"sectionType":"NL"},{"section":{"stations":[{"uicCode":"8400280","stationCode":"GV","name":"Den Haag HS","coordinate":{"lat":52.0697212219238,"lng":4.32250022888184},"countryCode":"NL"},{"uicCode":"8400279","stationCode":"GVMW","name":"Den Haag Moerwijk","coordinate":{"lat":52.0538902282715,"lng":4.3086109161377},"countryCode":"NL"},{"uicCode":"8400505","stationCode":"RSW","name":"Rijswijk","coordinate":{"lat":52.039722442627,"lng":4.31916666030884},"countryCode":"NL"},{"uicCode":"8400170","stationCode":"DT","name":"Delft","coordinate":{"lat":52.0066680908203,"lng":4.35638904571533},"countryCode":"NL"},{"uicCode":"8400166","stationCode":"DTCP","name":"Delft Campus","coordinate":{"lat":51.9908332824707,"lng":4.36472225189209},"countryCode":"NL"},{"uicCode":"8400553","stationCode":"SDM","name":"Schiedam Centrum","coordinate":{"lat":51.9212438128032,"lng":4.4089937210083},"countryCode":"NL"},{"uicCode":"8400530","stationCode":"RTD","name":"Rotterdam Centraal","coordinate":{"lat":51.9249992370605,"lng":4.46888875961304},"countryCode":"NL"}],"direction":"BOTH"},"consequence":{"section":{"stations":[{"uicCode":"8400530","stationCode":"RTD","name":"Rotterdam Centraal","coordinate":{"lat":51.9249992370605,"lng":4.46888875961304},"countryCode":"NL"}],"direction":"ONE_WAY"},"description":"dienstregeling aangepast","level":"LESS_TRAINS"},"sectionType":"NL"},{"section":{"stations":[{"uicCode":"8400058","stationCode":"ASD","name":"Amsterdam Centraal","coordinate":{"lat":52.3788871765137,"lng":4.90027761459351},"countryCode":"NL"},{"uicCode":"8400059","stationCode":"ASS","name":"Amsterdam Sloterdijk","coordinate":{"lat":52.3888893127441,"lng":4.83777761459351},"countryCode":"NL"},{"uicCode":"8400079","stationCode":"ASDL","name":"Amsterdam Lelylaan","coordinate":{"lat":52.3577766418457,"lng":4.83388900756836},"countryCode":"NL"},{"uicCode":"8400561","stationCode":"SHL","name":"Schiphol Airport","coordinate":{"lat":52.3094444274902,"lng":4.76194429397583},"countryCode":"NL"},{"uicCode":"8400332","stationCode":"HFD","name":"Hoofddorp","coordinate":{"lat":52.2933349609375,"lng":4.70055532455444},"countryCode":"NL"},{"uicCode":"8400530","stationCode":"RTD","name":"Rotterdam Centraal","coordinate":{"lat":51.9249992370605,"lng":4.46888875961304},"countryCode":"NL"},{"uicCode":"8400529","stationCode":"RTB","name":"Rotterdam Blaak","coordinate":{"lat":51.9202766418457,"lng":4.48888874053955},"countryCode":"NL"},{"uicCode":"8400533","stationCode":"RTZ","name":"Rotterdam Zuid","coordinate":{"lat":51.9044456481934,"lng":4.51027774810791},"countryCode":"NL"},{"uicCode":"8400542","stationCode":"RLB","name":"Rotterdam Lombardijen","coordinate":{"lat":51.8800010681152,"lng":4.53138875961304},"countryCode":"NL"},{"uicCode":"8400132","stationCode":"BDPB","name":"Breda-Prinsenbeek","coordinate":{"lat":51.606388092041,"lng":4.72083330154419},"countryCode":"NL"},{"uicCode":"8400131","stationCode":"BD","name":"Breda","coordinate":{"lat":51.5955543518066,"lng":4.78000020980835},"countryCode":"NL"}],"direction":"BOTH"},"consequence":{"section":{"stations":[{"uicCode":"8400058","stationCode":"ASD","name":"Amsterdam Centraal","coordinate":{"lat":52.3788871765137,"lng":4.90027761459351},"countryCode":"NL"},{"uicCode":"8400059","stationCode":"ASS","name":"Amsterdam Sloterdijk","coordinate":{"lat":52.3888893127441,"lng":4.83777761459351},"countryCode":"NL"},{"uicCode":"8400079","stationCode":"ASDL","name":"Amsterdam Lelylaan","coordinate":{"lat":52.3577766418457,"lng":4.83388900756836},"countryCode":"NL"},{"uicCode":"8400561","stationCode":"SHL","name":"Schiphol Airport","coordinate":{"lat":52.3094444274902,"lng":4.76194429397583},"countryCode":"NL"},{"uicCode":"8400332","stationCode":"HFD","name":"Hoofddorp","coordinate":{"lat":52.2933349609375,"lng":4.70055532455444},"countryCode":"NL"},{"uicCode":"8400530","stationCode":"RTD","name":"Rotterdam Centraal","coordinate":{"lat":51.9249992370605,"lng":4.46888875961304},"countryCode":"NL"},{"uicCode":"8400529","stationCode":"RTB","name":"Rotterdam Blaak","coordinate":{"lat":51.9202766418457,"lng":4.48888874053955},"countryCode":"NL"},{"uicCode":"8400533","stationCode":"RTZ","name":"Rotterdam Zuid","coordinate":{"lat":51.9044456481934,"lng":4.51027774810791},"countryCode":"NL"},{"uicCode":"8400542","stationCode":"RLB","name":"Rotterdam Lombardijen","coordinate":{"lat":51.8800010681152,"lng":4.53138875961304},"countryCode":"NL"},{"uicCode":"8400132","stationCode":"BDPB","name":"Breda-Prinsenbeek","coordinate":{"lat":51.606388092041,"lng":4.72083330154419},"countryCode":"NL"},{"uicCode":"8400131","stationCode":"BD","name":"Breda","coordinate":{"lat":51.5955543518066,"lng":4.78000020980835},"countryCode":"NL"}],"direction":"ONE_WAY"},"description":"geen treinen op de HSL","level":"LESS_TRAINS"},"sectionType":"HSL"}],"timespans":[{"start":"2023-11-25T00:30:00+0100","end":"2023-11-27T05:00:00+0100","period":"Zaterdag 25-11-2023 00:30 uur t/m maandag 27-11-2023 05:00 uur.","situation":{"label":"Door werkzaamheden: van, via en naar Rotterdam Centraal is de dienstregeling aangepast en tussen Amsterdam Centraal en Breda rijden er op de hogesnelheidslijn geen treinen."},"cause":{"label":"werkzaamheden"},"additionalTravelTime":{"label":"De extra reistijd ligt tussen 30 en 45 minuten.","shortLabel":"extra reistijd: 30-45 min.","minimumDurationInMinutes":30,"maximumDurationInMinutes":45},"alternativeTransport":{"label":"maak gebruik van het vervangende vervoer","shortLabel":"gebruik het vervangende vervoer"},"advices":["Uw NS-vervoerbewijs is geldig in metro tussen Schiedam C, Beurs, Centraal, Blaak, Capelsebrug en Alexander.","tussen Amsterdam C. en Breda/Roosendaal reist u via 's-Hertogenbosch","tussen Den Haag C. en Tilburg/Eindhoven C. reist u via Utrecht C. en 's-Hertogenbosch"]}],"alternativeTransportTimespans":[{"start":"2023-11-25T00:30:00+0100","end":"2023-11-25T02:50:00+0100","alternativeTransport":{"location":[{"station":{"uicCode":"8400530","stationCode":"RTD","name":"Rotterdam Centraal","coordinate":{"lat":51.9249992370605,"lng":4.46888875961304},"countryCode":"NL"},"description":"vanaf de Conradstraat aan de centrumzijde"},{"station":{"uicCode":"8400180","stationCode":"DDR","name":"Dordrecht","coordinate":{"lat":51.8072204589844,"lng":4.66833353042603},"countryCode":"NL"},"description":"Burgemeester de Raadtsingel"}],"label":"Er rijden snelbussen tussen Rotterdam Centraal en Dordrecht.","shortLabel":"er rijden snelbussen Rotterdam C. - Dordrecht"}},{"start":"2023-11-25T00:30:00+0100","end":"2023-11-25T01:10:00+0100","alternativeTransport":{"location":[{"station":{"uicCode":"8400170","stationCode":"DT","name":"Delft","coordinate":{"lat":52.0066680908203,"lng":4.35638904571533},"countryCode":"NL"},"description":"vanaf de voorzijde van het station, aan de Coenderstraat"},{"station":{"uicCode":"8400166","stationCode":"DTCP","name":"Delft Campus","coordinate":{"lat":51.9908332824707,"lng":4.36472225189209},"countryCode":"NL"},"description":"vanaf het Stationsplein"},{"station":{"uicCode":"8400553","stationCode":"SDM","name":"Schiedam Centrum","coordinate":{"lat":51.9212438128032,"lng":4.4089937210083},"countryCode":"NL"},"description":"vanaf de Horvathweg"}],"label":"Er rijden stopbussen van Delft, Delft Campus, Schiedam Centrum naar Rotterdam Centraal.","shortLabel":"er rijden stopbussen Delft -> Delft Campus -> Schiedam C. -> Rotterdam C."}},{"start":"2023-11-25T00:30:00+0100","end":"2023-11-25T06:00:00+0100","alternativeTransport":{"location":[{"station":{"uicCode":"8400280","stationCode":"GV","name":"Den Haag HS","coordinate":{"lat":52.0697212219238,"lng":4.32250022888184},"countryCode":"NL"},"description":"vanaf de achterzijde van het station"},{"station":{"uicCode":"8400170","stationCode":"DT","name":"Delft","coordinate":{"lat":52.0066680908203,"lng":4.35638904571533},"countryCode":"NL"},"description":"vanaf het busplatform"},{"station":{"uicCode":"8400530","stationCode":"RTD","name":"Rotterdam Centraal","coordinate":{"lat":51.9249992370605,"lng":4.46888875961304},"countryCode":"NL"},"description":"vanaf de Conradstraat aan de centrumzijde"}],"label":"Er rijden snelbussen tussen Den Haag HS, Delft en Rotterdam Centraal.","shortLabel":"er rijden snelbussen Den Haag HS - Delft - Rotterdam C."}},{"start":"2023-11-25T00:30:00+0100","end":"2023-11-25T02:05:00+0100","alternativeTransport":{"location":[{"station":{"uicCode":"8400530","stationCode":"RTD","name":"Rotterdam Centraal","coordinate":{"lat":51.9249992370605,"lng":4.46888875961304},"countryCode":"NL"},"description":"vanaf de Conradstraat aan de centrumzijde"},{"station":{"uicCode":"8400507","stationCode":"RTA","name":"Rotterdam Alexander","coordinate":{"lat":51.9519462585449,"lng":4.55361127853394},"countryCode":"NL"},"description":"vanaf de Prins Alexanderlaan"},{"station":{"uicCode":"8400258","stationCode":"GD","name":"Gouda","coordinate":{"lat":52.0175018310547,"lng":4.70444440841675},"countryCode":"NL"},"description":"vanaf de Bloemendaalzijde"}],"label":"Er rijden snelbussen tussen Rotterdam Centraal, Rotterdam Alexander en Gouda.","shortLabel":"er rijden snelbussen Rotterdam C. - Alexander - Gouda"}},{"start":"2023-11-25T00:30:00+0100","end":"2023-11-25T01:35:00+0100","alternativeTransport":{"location":[{"station":{"uicCode":"8400258","stationCode":"GD","name":"Gouda","coordinate":{"lat":52.0175018310547,"lng":4.70444440841675},"countryCode":"NL"},"description":"vanaf de Bloemendaalzijde"},{"station":{"uicCode":"8400455","stationCode":"NWK","name":"Nieuwerkerk a/d IJssel","coordinate":{"lat":51.9652786254883,"lng":4.61694431304932},"countryCode":"NL"},"description":"vanaf de Kerklaan"},{"station":{"uicCode":"8400147","stationCode":"CPS","name":"Capelle Schollevaar","coordinate":{"lat":51.9541664123535,"lng":4.58416652679443},"countryCode":"NL"},"description":"vanaf het Stationsplein"},{"station":{"uicCode":"8400507","stationCode":"RTA","name":"Rotterdam Alexander","coordinate":{"lat":51.9519462585449,"lng":4.55361127853394},"countryCode":"NL"},"description":"vanaf de Prins Alexanderlaan"},{"station":{"uicCode":"8400531","stationCode":"RTN","name":"Rotterdam Noord","coordinate":{"lat":51.9422225952148,"lng":4.48166656494141},"countryCode":"NL"},"description":"vanaf de Bergweg onder het viaduct"}],"label":"Er rijden stopbussen van Gouda, Nieuwerkerk a/d IJssel, Capelle Schollevaar, Rotterdam Alexander, Rotterdam Noord naar Rotterdam Centraal.","shortLabel":"er rijden stopbussen Gouda -> Nieuwerkerk -> Schollevaar -> Alexander -> Rotterdam Noord -> Rotterdam C."}},{"start":"2023-11-25T00:35:00+0100","end":"2023-11-25T01:50:00+0100","alternativeTransport":{"location":[{"station":{"uicCode":"8400180","stationCode":"DDR","name":"Dordrecht","coordinate":{"lat":51.8072204589844,"lng":4.66833353042603},"countryCode":"NL"},"description":"Burgemeester de Raadtsingel"},{"station":{"uicCode":"8400752","stationCode":"ZWD","name":"Zwijndrecht","coordinate":{"lat":51.814998626709,"lng":4.64166688919067},"countryCode":"NL"},"description":"vanaf het Stationsplein"},{"station":{"uicCode":"8400090","stationCode":"BRD","name":"Barendrecht","coordinate":{"lat":51.8547210693359,"lng":4.5533332824707},"countryCode":"NL"},"description":"vanaf de achterzijde van het station"},{"station":{"uicCode":"8400542","stationCode":"RLB","name":"Rotterdam Lombardijen","coordinate":{"lat":51.8800010681152,"lng":4.53138875961304},"countryCode":"NL"},"description":"vanaf de bushalte"},{"station":{"uicCode":"8400533","stationCode":"RTZ","name":"Rotterdam Zuid","coordinate":{"lat":51.9044456481934,"lng":4.51027774810791},"countryCode":"NL"},"description":"vanaf de Rosestraat"},{"station":{"uicCode":"8400529","stationCode":"RTB","name":"Rotterdam Blaak","coordinate":{"lat":51.9202766418457,"lng":4.48888874053955},"countryCode":"NL"},"description":"vanaf de voorzijde van het station"}],"label":"Er rijden stopbussen van Dordrecht, Zwijndrecht, Barendrecht, Rotterdam Lombardijen, Rotterdam Zuid, Rotterdam Blaak naar Rotterdam Centraal.","shortLabel":"er rijden stopbussen Dordrecht -> Zwijndrecht -> Barendrecht -> Lombardijen -> Rotterdam Zuid -> Blaak -> Rotterdam C."}},{"start":"2023-11-25T00:50:00+0100","end":"2023-11-25T02:15:00+0100","alternativeTransport":{"location":[{"station":{"uicCode":"8400280","stationCode":"GV","name":"Den Haag HS","coordinate":{"lat":52.0697212219238,"lng":4.32250022888184},"countryCode":"NL"},"description":"vanaf de achterzijde van het station"},{"station":{"uicCode":"8400170","stationCode":"DT","name":"Delft","coordinate":{"lat":52.0066680908203,"lng":4.35638904571533},"countryCode":"NL"},"description":"vanaf de voorzijde van het station, aan de Coenderstraat"},{"station":{"uicCode":"8400553","stationCode":"SDM","name":"Schiedam Centrum","coordinate":{"lat":51.9212438128032,"lng":4.4089937210083},"countryCode":"NL"},"description":"vanaf de Horvathweg"}],"label":"Er rijden snelbussen van Den Haag HS, Delft, Schiedam Centrum naar Rotterdam Centraal.","shortLabel":"er rijden snelbussen Den Haag HS -> Delft -> Schiedam C. -> Rotterdam C."}},{"start":"2023-11-25T05:00:00+0100","end":"2023-11-25T07:05:00+0100","alternativeTransport":{"location":[{"station":{"uicCode":"8400166","stationCode":"DTCP","name":"Delft Campus","coordinate":{"lat":51.9908332824707,"lng":4.36472225189209},"countryCode":"NL"},"description":"vanaf het Stationsplein"},{"station":{"uicCode":"8400553","stationCode":"SDM","name":"Schiedam Centrum","coordinate":{"lat":51.9212438128032,"lng":4.4089937210083},"countryCode":"NL"},"description":"vanaf de Horvathweg"},{"station":{"uicCode":"8400530","stationCode":"RTD","name":"Rotterdam Centraal","coordinate":{"lat":51.9249992370605,"lng":4.46888875961304},"countryCode":"NL"},"description":"vanaf de Conradstraat aan de centrumzijde"}],"label":"Er rijden stopbussen tussen Delft Campus, Schiedam Centrum en Rotterdam Centraal.","shortLabel":"er rijden stopbussen Delft Campus - Schiedam C. - Rotterdam C."}},{"start":"2023-11-25T05:30:00+0100","end":"2023-11-25T07:15:00+0100","alternativeTransport":{"location":[{"station":{"uicCode":"8400180","stationCode":"DDR","name":"Dordrecht","coordinate":{"lat":51.8072204589844,"lng":4.66833353042603},"countryCode":"NL"},"description":"Burgemeester de Raadtsingel"},{"station":{"uicCode":"8400752","stationCode":"ZWD","name":"Zwijndrecht","coordinate":{"lat":51.814998626709,"lng":4.64166688919067},"countryCode":"NL"},"description":"vanaf het Stationsplein"},{"station":{"uicCode":"8400090","stationCode":"BRD","name":"Barendrecht","coordinate":{"lat":51.8547210693359,"lng":4.5533332824707},"countryCode":"NL"},"description":"vanaf de achterzijde van het station"},{"station":{"uicCode":"8400542","stationCode":"RLB","name":"Rotterdam Lombardijen","coordinate":{"lat":51.8800010681152,"lng":4.53138875961304},"countryCode":"NL"},"description":"vanaf de bushalte"},{"station":{"uicCode":"8400533","stationCode":"RTZ","name":"Rotterdam Zuid","coordinate":{"lat":51.9044456481934,"lng":4.51027774810791},"countryCode":"NL"},"description":"vanaf de Rosestraat"},{"station":{"uicCode":"8400529","stationCode":"RTB","name":"Rotterdam Blaak","coordinate":{"lat":51.9202766418457,"lng":4.48888874053955},"countryCode":"NL"},"description":"vanaf de voorzijde van het station"}],"label":"Er rijden stopbussen tussen Dordrecht, Zwijndrecht, Barendrecht, Rotterdam Lombardijen, Rotterdam Zuid, Rotterdam Blaak en Rotterdam Centraal.","shortLabel":"er rijden stopbussen Dordrecht - Zwijndrecht - Barendrecht - Lombardijen - Rotterdam Zuid - Blaak - Rotterdam C."}},{"start":"2023-11-25T06:00:00+0100","end":"2023-11-26T01:00:00+0100","alternativeTransport":{"location":[{"station":{"uicCode":"8400553","stationCode":"SDM","name":"Schiedam Centrum","coordinate":{"lat":51.9212438128032,"lng":4.4089937210083},"countryCode":"NL"},"description":"vanaf de Horvathweg"},{"station":{"uicCode":"8400534","stationCode":"RTST","name":"Rotterdam Stadion","coordinate":{"lat":51.8938903808594,"lng":4.51972198486328},"countryCode":"NL"},"description":"vanaf de Olympiaweg"}],"label":"Er rijden snelbussen tussen Schiedam Centrum en Rotterdam Stadion.","shortLabel":"er rijden snelbussen Schiedam C. - R'dam Stadion"}},{"start":"2023-11-25T06:00:00+0100","end":"2023-11-26T01:00:00+0100","alternativeTransport":{"location":[{"station":{"uicCode":"8400534","stationCode":"RTST","name":"Rotterdam Stadion","coordinate":{"lat":51.8938903808594,"lng":4.51972198486328},"countryCode":"NL"},"description":"vanaf de Olympiaweg"}],"label":"Er rijden snelbussen tussen Capelsebrug en Rotterdam Stadion.","shortLabel":"er rijden snelbussen Capelsebrug - R'dam Stadion"}},{"start":"2023-11-25T06:00:00+0100","end":"2023-11-26T01:00:00+0100","alternativeTransport":{"location":[{"station":{"uicCode":"8400533","stationCode":"RTZ","name":"Rotterdam Zuid","coordinate":{"lat":51.9044456481934,"lng":4.51027774810791},"countryCode":"NL"},"description":"vanaf de Rosestraat"},{"station":{"uicCode":"8400534","stationCode":"RTST","name":"Rotterdam Stadion","coordinate":{"lat":51.8938903808594,"lng":4.51972198486328},"countryCode":"NL"},"description":"vanaf de Olympiaweg"}],"label":"Er rijden taxibusjes tussen Rotterdam Zuid en Rotterdam Stadion.","shortLabel":"er rijden taxibusjes Rotterdam Zuid - R'dam Stadion"}},{"start":"2023-11-25T06:00:00+0100","end":"2023-11-26T01:00:00+0100","alternativeTransport":{"location":[{"station":{"uicCode":"8400531","stationCode":"RTN","name":"Rotterdam Noord","coordinate":{"lat":51.9422225952148,"lng":4.48166656494141},"countryCode":"NL"},"description":"vanaf de Bergweg onder het viaduct"},{"station":{"uicCode":"8400507","stationCode":"RTA","name":"Rotterdam Alexander","coordinate":{"lat":51.9519462585449,"lng":4.55361127853394},"countryCode":"NL"},