[{"id":"6023891","type":"DISRUPTION","registrationTime":"2023-06-20T05:09:23+0200","releaseTime":"2023-06-20T05:09:23+0200","local":false,"title":"Utrecht-Amersfoort; Hilversum-Amersfoort; Amersfoort-Amersfoort Vathorst; Amersfoort-Barneveld","titleSections":[[{"type":"STATION","value":"Amersfoort C."},{"type":"ICON","value":"DISRUPTION"},{"type":"STATION","value":"Hoevelaken"},{"type":"STATION","value":"Barneveld Zuid"}],[{"type":"STATION","value":"Hilversum"},{"type":"STATION","value":"Baarn"},{"type":"ICON","value":"DISRUPTION"},{"type":"STATION","value":"Amersfoort C."}],[{"type":"STATION","value":"Amersfoort C."},{"type":"ICON","value":"DISRUPTION"},{"type":"STATION","value":"Schothorst"},{"type":"STATION","value":"Vathorst"}],[{"type":"STATION","value":"Utrecht C."},{"type":"STATION","value":"Den Dolder"},{"type":"ICON","value":"DISRUPTION"},{"type":"STATION","value":"Amersfoort C."}]],"topic":"disruption_6023891_nl","isActive":true,"start":"2023-06-20T05:01:22+0200","end":"2023-06-20T06:45:00+0200","phase":{"id":"1b","label":"Gevolgen bekend"},"impact":{"value":5},"expectedDuration":{"description":"Dit duurt tot ongeveer 06:45 uur.","endTime":"2023-06-20T06:45:00+0200"},"publicationSections":[{"section":{"stations":[{"uicCode":"8400055","stationCode":"AMF","name":"Amersfoort Centraal","coordinate":{"lat":52.1538887023926,"lng":5.37055540084839},"countryCode":"NL"},{"uicCode":"8400490","stationCode":"HVL","name":"Hoevelaken","coordinate":{"lat":52.16652,"lng":5.45718},"countryCode":"NL"},{"uicCode":"8400092","stationCode":"BNN","name":"Barneveld Noord","coordinate":{"lat":52.1613883972168,"lng":5.59805536270142},"countryCode":"NL"},{"uicCode":"8400091","stationCode":"BNC","name":"Barneveld Centrum","coordinate":{"lat":52.1399993896484,"lng":5.59027767181396},"countryCode":"NL"},{"uicCode":"8400115","stationCode":"BNZ","name":"Barneveld Zuid","coordinate":{"lat":52.128853,"lng":5.60246},"countryCode":"NL"}],"direction":"BOTH"},"consequence":{"section":{"stations":[{"uicCode":"8400055","stationCode":"AMF","name":"Amersfoort Centraal","coordinate":{"lat":52.1538887023926,"lng":5.37055540084839},"countryCode":"NL"},{"uicCode":"8400490","stationCode":"HVL","name":"Hoevelaken","coordinate":{"lat":52.16652,"lng":5.45718},"countryCode":"NL"}],"direction":"ONE_WAY"},"description":"verstoring treindienst","level":"LESS_TRAINS"},"sectionType":"NL"},{"section":{"stations":[{"uicCode":"8400322","stationCode":"HVS","name":"Hilversum","coordinate":{"lat":52.2258338928223,"lng":5.18194437026978},"countryCode":"NL"},{"uicCode":"8400086","stationCode":"BRN","name":"Baarn","coordinate":{"lat":52.2083320617676,"lng":5.28083324432373},"countryCode":"NL"},{"uicCode":"8400055","stationCode":"AMF","name":"Amersfoort Centraal","coordinate":{"lat":52.1538887023926,"lng":5.37055540084839},"countryCode":"NL"}],"direction":"BOTH"},"consequence":{"section":{"stations":[{"uicCode":"8400086","stationCode":"BRN","name":"Baarn","coordinate":{"lat":52.2083320617676,"lng":5.28083324432373},"countryCode":"NL"},{"uicCode":"8400055","stationCode":"AMF","name":"Amersfoort Centraal","coordinate":{"lat":52.1538887023926,"lng":5.37055540084839},"countryCode":"NL"}],"direction":"ONE_WAY"},"description":"verstoring treindienst","level":"LESS_TRAINS"},"sectionType":"NL"},{"section":{"stations":[{"uicCode":"8400055","stationCode":"AMF","name":"Amersfoort Centraal","coordinate":{"lat":52.1538887023926,"lng":5.37055540084839},"countryCode":"NL"},{"uicCode":"8400054","stationCode":"AMFS","name":"Amersfoort Schothorst","coordinate":{"lat":52.1748221374512,"lng":5.40388870239258},"countryCode":"NL"},{"uicCode":"8400228","stationCode":"AVAT","name":"Amersfoort Vathorst","coordinate":{"lat":52.1927795410156,"lng":5.43388891220093},"countryCode":"NL"}],"direction":"BOTH"},"consequence":{"section":{"stations":[{"uicCode":"8400055","stationCode":"AMF","name":"Amersfoort Centraal","coordinate":{"lat":52.1538887023926,"lng":5.37055540084839},"countryCode":"NL"},{"uicCode":"8400054","stationCode":"AMFS","name":"Amersfoort Schothorst","coordinate":{"lat":52.1748221374512,"lng":5.40388870239258},"countryCode":"NL"}],"direction":"ONE_WAY"},"description":"verstoring treindienst","level":"LESS_TRAINS"},"sectionType":"NL"},{"section":{"stations":[{"uicCode":"8400621","stationCode":"UT","name":"Utrecht Centraal","coordinate":{"lat":52.0888900756836,"lng":5.11027765274048},"countryCode":"NL"},{"uicCode":"8400620","stationCode":"UTO","name":"Utrecht Overvecht","coordinate":{"lat":52.1100006103516,"lng":5.12472200393677},"countryCode":"NL"},{"uicCode":"8400114","stationCode":"BHV","name":"Bilthoven","coordinate":{"lat":52.1300010681152,"lng":5.20388889312744},"countryCode":"NL"},{"uicCode":"8400179","stationCode":"DLD","name":"Den Dolder","coordinate":{"lat":52.1402778625488,"lng":5.24277782440186},"countryCode":"NL"},{"uicCode":"8400055","stationCode":"AMF","name":"Amersfoort Centraal","coordinate":{"lat":52.1538887023926,"lng":5.37055540084839},"countryCode":"NL"}],"direction":"BOTH"},"consequence":{"section":{"stations":[{"uicCode":"8400179","stationCode":"DLD","name":"Den Dolder","coordinate":{"lat":52.1402778625488,"lng":5.24277782440186},"countryCode":"NL"},{"uicCode":"8400055","stationCode":"AMF","name":"Amersfoort Centraal","coordinate":{"lat":52.1538887023926,"lng":5.37055540084839},"countryCode":"NL"}],"direction":"ONE_WAY"},"description":"verstoring treindienst","level":"LESS_TRAINS"},"sectionType":"NL"}],"timespans":[{"start":"2023-06-20T05:01:22+0200","end":"2023-06-20T06:45:00+0200","situation":{"label":"Tussen Amersfoort Centraal en Hoevelaken is er een verstoring in de treindienst en tussen Baarn en Amersfoort Centraal is er een verstoring in de treindienst en tussen Amersfoort Centraal en Amersfoort Schothorst is er een verstoring in de treindienst en tussen Den Dolder en Amersfoort Centraal is er een verstoring in de treindienst door uitloop van werkzaamheden."},"cause":{"label":"Uitloop werkzaamheden"},"advices":[]}],"alternativeTransportTimespans":[]},{"id":"7003455","type":"MAINTENANCE","registrationTime":"2023-06-18T23:26:17+0200","releaseTime":"2023-06-18T23:26:17+0200","local":false,"title":"Zwolle - Groningen.","titleSections":[[{"type":"STATION","value":"Zwolle"},{"type":"STATION","value":"Meppel"},{"type":"ICON","value":"MAINTENANCE"},{"type":"STATION","value":"Assen"},{"type":"STATION","value":"Groningen"}]],"isActive":true,"start":"2023-06-08T04:00:00+0200","end":"2023-06-22T02:00:00+0200","period":"Donderdag 08-06-2023 04:00 uur t/m donderdag 22-06-2023 02:00 uur.","impact":{"value":5},"summaryAdditionalTravelTime":{"label":"De extra reistijd kan oplopen tot 45 minuten.","shortLabel":"Extra reistijd tot 45 min.","maximumDurationInMinutes":45},"publicationSections":[{"section":{"stations":[{"uicCode":"8400747","stationCode":"ZL","name":"Zwolle","coordinate":{"lat":52.5047225952148,"lng":6.09194421768188},"countryCode":"NL"},{"uicCode":"8400435","stationCode":"MP","name":"Meppel","coordinate":{"lat":52.6908340454102,"lng":6.19750022888184},"countryCode":"NL"},{"uicCode":"8400330","stationCode":"HGV","name":"Hoogeveen","coordinate":{"lat":52.7338905334473,"lng":6.47361087799072},"countryCode":"NL"},{"uicCode":"8400100","stationCode":"BL","name":"Beilen","coordinate":{"lat":52.8547210693359,"lng":6.52111101150513},"countryCode":"NL"},{"uicCode":"8400073","stationCode":"ASN","name":"Assen","coordinate":{"lat":52.9916648864746,"lng":6.57083320617676},"countryCode":"NL"},{"uicCode":"8400297","stationCode":"HRN","name":"Haren","coordinate":{"lat":53.1761093139648,"lng":6.61722230911255},"countryCode":"NL"},{"uicCode":"8400238","stationCode":"GERP","name":"Groningen Europapark","coordinate":{"lat":53.20480027,"lng":6.5854178},"countryCode":"NL"},{"uicCode":"8400263","stationCode":"GN","name":"Groningen","coordinate":{"lat":53.2105560302734,"lng":6.56472206115723},"countryCode":"NL"}],"direction":"BOTH"},"consequence":{"section":{"stations":[{"uicCode":"8400435","stationCode":"MP","name":"Meppel","coordinate":{"lat":52.6908340454102,"lng":6.19750022888184},"countryCode":"NL"},{"uicCode":"8400330","stationCode":"HGV","name":"Hoogeveen","coordinate":{"lat":52.7338905334473,"lng":6.47361087799072},"countryCode":"NL"},{"uicCode":"8400100","stationCode":"BL","name":"Beilen","coordinate":{"lat":52.8547210693359,"lng":6.52111101150513},"countryCode":"NL"},{"uicCode":"8400073","stationCode":"ASN","name":"Assen","coordinate":{"lat":52.9916648864746,"lng":6.57083320617676},"countryCode":"NL"}],"direction":"ONE_WAY"},"description":"rijden bussen","level":"LESS_TRAINS"},"sectionType":"NL"}],"timespans":[{"start":"2023-06-08T04:00:00+0200","end":"2023-06-22T02:00:00+0200","period":"Donderdag 08-06-2023 04:00 uur t/m donderdag 22-06-2023 02:00 uur.","situation":{"label":"Door werkzaamheden: tussen Meppel en Assen rijden er bussen."},"cause":{"label":"werkzaamheden"},"additionalTravelTime":{"label":"De extra reistijd kan oplopen tot 45 minuten.","shortLabel":"Extra reistijd tot 45 min.","maximumDurationInMinutes":45},"alternativeTransport":{"label":"er rijden stop- en snelbussen","shortLabel":"er rijden stop- en snelbussen"},"advices":["Uw NS-vervoerbewijs is geldig bij Arriva tussen Groningen en Leeuwarden. Uitchecken bij NS, inchecken bij Arrva voor omreizen is niet nodig."]}],"alternativeTransportTimespans":[{"start":"2023-06-08T04:00:00+0200","end":"2023-06-22T02:00:00+0200","alternativeTransport":{"location":[{"station":{"uicCode":"8400435","stationCode":"MP","name":"Meppel","coordinate":{"lat":52.6908340454102,"lng":6.19750022888184},"countryCode":"NL"},"description":"vanaf de voorzijde van het station"},{"station":{"uicCode":"8400330","stationCode":"HGV","name":"Hoogeveen","coordinate":{"lat":52.7338905334473,"lng":6.47361087799072},"countryCode":"NL"},"description":"vanaf de voorzijde van het station"},{"station":{"uicCode":"8400100","stationCode":"BL","name":"Beilen","coordinate":{"lat":52.8547210693359,"lng":6.52111101150513},"countryCode":"NL"},"description":"vanaf de voorzijde van het station"},{"station":{"uicCode":"8400073","stationCode":"ASN","name":"Assen","coordinate":{"lat":52.9916648864746,"lng":6.57083320617676},"countryCode":"NL"},"description":"vanaf het busstation"}],"label":"Er rijden stopbussen tussen Meppel, Hoogeveen, Beilen en Assen.","shortLabel":"Er rijden stopbussen Meppel - Hoogeveen - Beilen - Assen"}},{"start":"2023-06-08T04:00:00+0200","end":"2023-06-22T02:00:00+0200","alternativeTransport":{"location":[{"station":{"uicCode":"8400747","stationCode":"ZL","name":"Zwolle","coordinate":{"lat":52.5047225952148,"lng":6.09194421768188},"countryCode":"NL"},"description":"vanaf de Hanzelaan, aan de zuidzijde van het station"},{"station":{"uicCode":"8400073","stationCode":"ASN","name":"Assen","coordinate":{"lat":52.9916648864746,"lng":6.57083320617676},"countryCode":"NL"},"description":"vanaf het busstation"}],"label":"Er rijden snelbussen tussen Zwolle en Assen.","shortLabel":"Er rijden snelbussen Zwolle - Assen"}}]},{"id":"7003670","type":"MAINTENANCE","registrationTime":"2023-06-17T18:24:24+0200","releaseTime":"2023-06-17T18:24:24+0200","local":false,"title":"Amsterdam - Hannover - Berlin.","titleSections":[[{"type":"STATION","value":"Amsterdam C."},{"type":"STATION","value":"Bad Bentheim"},{"type":"ICON","value":"MAINTENANCE"},{"type":"STATION","value":"Berlin Hbf"}]],"isActive":true,"start":"2023-06-10T04:00:00+0200","end":"2023-07-02T02:00:00+0200","period":"Zaterdag 10-06-2023 04:00 uur t/m zondag 02-07-2023 02:00 uur.","impact":{"value":2},"summaryAdditionalTravelTime":{"label":"U heeft geen langere reistijd.","shortLabel":"Geen extra reistijd"},"publicationSections":[{"section":{"stations":[{"uicCode":"8400058","stationCode":"ASD","name":"Amsterdam Centraal","coordinate":{"lat":52.3788871765137,"lng":4.90027761459351},"countryCode":"NL"},{"uicCode":"8400060","stationCode":"ASDM","name":"Amsterdam Muiderpoort","coordinate":{"lat":52.3605537414551,"lng":4.93111133575439},"countryCode":"NL"},{"uicCode":"8400235","stationCode":"ASSP","name":"Amsterdam Science Park","coordinate":{"lat":52.35526,"lng":4.94651},"countryCode":"NL"},{"uicCode":"8400165","stationCode":"DMN","name":"Diemen","coordinate":{"lat":52.34515,"lng":4.967566},"countryCode":"NL"},{"uicCode":"8400685","stationCode":"WP","name":"Weesp","coordinate":{"lat":52.3127784729004,"lng":5.04305553436279},"countryCode":"NL"},{"uicCode":"8400452","stationCode":"NDB","name":"Naarden-Bussum","coordinate":{"lat":52.2802772521973,"lng":5.15694427490234},"countryCode":"NL"},{"uicCode":"8400145","stationCode":"BSMZ","name":"Bussum Zuid","coordinate":{"lat":52.2658348083496,"lng":5.16305541992188},"countryCode":"NL"},{"uicCode":"8400324","stationCode":"HVSM","name":"Hilversum Media Park","coordinate":{"lat":52.2380561828613,"lng":5.17388868331909},"countryCode":"NL"},{"uicCode":"8400322","stationCode":"HVS","name":"Hilversum","coordinate":{"lat":52.2258338928223,"lng":5.18194437026978},"countryCode":"NL"},{"uicCode":"8400086","stationCode":"BRN","name":"Baarn","coordinate":{"lat":52.2083320617676,"lng":5.28083324432373},"countryCode":"NL"},{"uicCode":"8400055","stationCode":"AMF","name":"Amersfoort Centraal","coordinate":{"lat":52.1538887023926,"lng":5.37055540084839},"countryCode":"NL"},{"uicCode":"8400490","stationCode":"HVL","name":"Hoevelaken","coordinate":{"lat":52.16652,"lng":5.45718},"countryCode":"NL"},{"uicCode":"8400066","stationCode":"APD","name":"Apeldoorn","coordinate":{"lat":52.2091674804687,"lng":5.97027778625488},"countryCode":"NL"},{"uicCode":"8400229","stationCode":"APDO","name":"Apeldoorn Osseveld","coordinate":{"lat":52.2152786254883,"lng":6.00444459915161},"countryCode":"NL"},{"uicCode":"8400599","stationCode":"TWL","name":"Twello","coordinate":{"lat":52.2377777099609,"lng":6.09861087799072},"countryCode":"NL"},{"uicCode":"8400173","stationCode":"DV","name":"Deventer","coordinate":{"lat":52.2574996948242,"lng":6.16055536270142},"countryCode":"NL"},{"uicCode":"8400185","stationCode":"DVC","name":"Deventer Colmschate","coordinate":{"lat":52.2502784729004,"lng":6.21444463729858},"countryCode":"NL"},{"uicCode":"8400328","stationCode":"HON","name":"Holten","coordinate":{"lat":52.2838897705078,"lng":6.42027759552002},"countryCode":"NL"},{"uicCode":"8400538","stationCode":"RSN","name":"Rijssen","coordinate":{"lat":52.3122215270996,"lng":6.52027797698975},"countryCode":"NL"},{"uicCode":"8400691","stationCode":"WDN","name":"Wierden","coordinate":{"lat":52.3613891601562,"lng":6.59166669845581},"countryCode":"NL"},{"uicCode":"8400051","stationCode":"AML","name":"Almelo","coordinate":{"lat":52.3580551147461,"lng":6.65388870239258},"countryCode":"NL"},{"uicCode":"8400520","stationCode":"AMRI","name":"Almelo de Riet","coordinate":{"lat":52.3419456481934,"lng":6.66666650772095},"countryCode":"NL"},{"uicCode":"8400124","stationCode":"BN","name":"Borne","coordinate":{"lat":52.2988891601562,"lng":6.74805545806885},"countryCode":"NL"},{"uicCode":"8400316","stationCode":"HGL","name":"Hengelo","coordinate":{"lat":52.2616653442383,"lng":6.79388904571533},"countryCode":"NL"},{"uicCode":"8400312","stationCode":"HGLO","name":"Hengelo Oost","coordinate":{"lat":52.2688903808594,"lng":6.81944465637207},"countryCode":"NL"},{"uicCode":"8400483","stationCode":"ODZ","name":"Oldenzaal","coordinate":{"lat":52.3063888549805,"lng":6.93472242355347},"countryCode":"NL"},{"uicCode":"8021156","stationCode":"BH","name":"Bad Bentheim","coordinate":{"lat":52.309685595156,"lng":7.15853691101074},"countryCode":"D"},{"uicCode":"8021067","stationCode":"RHEINE","name":"Rheine","coordinate":{"lat":52.276299,"lng":7.434255},"countryCode":"D"},{"uicCode":"8021025","stationCode":"OSNH","name":"Osnabrück Hbf","coordinate":{"lat":52.272851,"lng":8.061781},"countryCode":"D"},{"uicCode":"8013552","stationCode":"HANN","name":"Hannover Hbf","coordinate":{"lat":52.3770401,"lng":9.7416759},"countryCode":"D"},{"uicCode":"8065969","stationCode":"BERHBL","name":"Berlin Hbf","coordinate":{"lat":52.52503,"lng":13.36946},"countryCode":"D"}],"direction":"BOTH"},"consequence":{"section":{"stations":[{"uicCode":"8021156","stationCode":"BH","name":"Bad Bentheim","coordinate":{"lat":52.309685595156,"lng":7.15853691101074},"countryCode":"D"},{"uicCode":"8021067","stationCode":"RHEINE","name":"Rheine","coordinate":{"lat":52.276299,"lng":7.434255},"countryCode":"D"},{"uicCode":"8021025","stationCode":"OSNH","name":"Osnabrück Hbf","coordinate":{"lat":52.272851,"lng":8.061781},"countryCode":"D"},{"uicCode":"8013552","stationCode":"HANN","name":"Hannover Hbf","coordinate":{"lat":52.3770401,"lng":9.7416759},"countryCode":"D"},{"uicCode":"8065969","stationCode":"BERHBL","name":"Berlin Hbf","coordinate":{"lat":52.52503,"lng":13.36946},"countryCode":"D"}],"direction":"ONE_WAY"},"description":"aangepaste internationale dienstregeling","level":"LESS_TRAINS"},"sectionType":"NEIGHBORING_COUNTRY"}],"timespans":[{"start":"2023-06-10T04:00:00+0200","end":"2023-07-02T02:00:00+0200","period":"Zaterdag 10-06-2023 04:00 uur t/m zondag 02-07-2023 02:00 uur.","situation":{"label":"Door werkzaamheden: tussen Bad Bentheim en Berlin Hbf is de internationale dienstregeling aangepast."},"cause":{"label":"werkzaamheden"},"additionalTravelTime":{"label":"U heeft geen langere reistijd.","shortLabel":"Geen extra reistijd"},"advices":["Dit kan gevolgen hebben voor uw reis. Plan uw reis in de (Internationale) app."]}],"alternativeTransportTimespans":[]},{"id":"7003621","type":"MAINTENANCE","registrationTime":"2023-05-26T12:51:26+0200","releaseTime":"2023-05-26T12:51:26+0200","local":false,"title":"Den Haag - Rotterdam.","titleSections":[[{"type":"STATION","value":"Den Haag HS"},{"type":"STATION","value":"Schiedam C."},{"type":"ICON","value":"MAINTENANCE"},{"type":"STATION","value":"Rotterdam C."}]],"isActive":true,"start":"2023-06-20T00:15:00+0200","end":"2023-06-20T06:10:00+0200","period":"Dinsdag 20-06-2023 00:15 uur t/m dinsdag 20-06-2023 06:10 uur.","impact":{"value":3},"summaryAdditionalTravelTime":{"label":"De extra reistijd kan oplopen tot 15 minuten.","shortLabel":"Extra reistijd tot 15 min.","maximumDurationInMinutes":15},"publicationSections":[{"section":{"stations":[{"uicCode":"8400280","stationCode":"GV","name":"Den Haag HS","coordinate":{"lat":52.0697212219238,"lng":4.32250022888184},"countryCode":"NL"},{"uicCode":"8400279","stationCode":"GVMW","name":"Den Haag Moerwijk","coordinate":{"lat":52.0538902282715,"lng":4.3086109161377},"countryCode":"NL"},{"uicCode":"8400505","stationCode":"RSW","name":"Rijswijk","coordinate":{"lat":52.039722442627,"lng":4.31916666030884},"countryCode":"NL"},{"uicCode":"8400170","stationCode":"DT","name":"Delft","coordinate":{"lat":52.0066680908203,"lng":4.35638904571533},"countryCode":"NL"},{"uicCode":"8400166","stationCode":"DTCP","name":"Delft Campus","coordinate":{"lat":51.9908332824707,"lng":4.36472225189209},"countryCode":"NL"},{"uicCode":"8400553","stationCode":"SDM","name":"Schiedam Centrum","coordinate":{"lat":51.9212438128032,"lng":4.4089937210083},"countryCode":"NL"},{"uicCode":"8400530","stationCode":"RTD","name":"Rotterdam Centraal","coordinate":{"lat":51.9249992370605,"lng":4.46888875961304},"countryCode":"NL"}],"direction":"BOTH"},"consequence":{"section":{"stations":[{"uicCode":"8400553","stationCode":"SDM","name":"Schiedam Centrum","coordinate":{"lat":51.9212438128032,"lng":4.4089937210083},"countryCode":"NL"},{"uicCode":"8400530","stationCode":"RTD","name":"Rotterdam Centraal","coordinate":{"lat":51.9249992370605,"lng":4.46888875961304},"countryCode":"NL"}],"direction":"ONE_WAY"},"description":"rijden bussen","level":"LESS_TRAINS"},"sectionType":"NL"}],"timespans":[{"start":"2023-06-20T00:15:00+0200","end":"2023-06-20T06:10:00+0200","period":"Dinsdag 20-06-2023 00:15 uur t/m dinsdag 20-06-2023 06:10 uur.","situation":{"label":"Door werkzaamheden: tussen Schiedam Centrum en Rotterdam Centraal rijden er bussen."},"cause":{"label":"werkzaamheden"},"additionalTravelTime":{"label":"De extra reistijd kan oplopen tot 15 minuten.","shortLabel":"Extra reistijd tot 15 min.","maximumDurationInMinutes":15},"alternativeTransport":{"label":"er rijden bussen","shortLabel":"er rijden bussen"},"advices":[]}],"alternativeTransportTimespans":[{"start":"2023-06-20T00:15:00+0200","end":"2023-06-20T03:50:00+0200","alternativeTransport":{"location":[{"station":{"uicCode":"8400530","stationCode":"RTD","name":"Rotterdam Centraal","coordinate":{"lat":51.9249992370605,"lng":4.46888875961304},"countryCode":"NL"},"description":"vanaf de Conradstraat aan de centrumzijde"},{"station":{"uicCode":"8400553","stationCode":"SDM","name":"Schiedam Centrum","coordinate":{"lat":51.9212438128032,"lng":4.4089937210083},"countryCode":"NL"},"description":"vanaf de Horvathweg"}],"label":"Er rijden bussen van Rotterdam Centraal naar Schiedam Centrum.","shortLabel":"Er rijden bussen Rotterdam C. -> Schiedam C."}},{"start":"2023-06-20T00:25:00+0200","end":"2023-06-20T00:50:00+0200","alternativeTransport":{"location":[{"station":{"uicCode":"8400553","stationCode":"SDM","name":"Schiedam Centrum","coordinate":{"lat":51.9212438128032,"lng":4.4089937210083},"countryCode":"NL"},"description":"vanaf de Horvathweg"}],"label":"Er rijden bussen van Schiedam Centrum naar Rotterdam Centraal.","shortLabel":"Er rijden bussen Schiedam C. -> Rotterdam C."}},{"start":"2023-06-20T02:45:00+0200","end":"2023-06-20T06:10:00+0200","alternativeTransport":{"location":[{"station":{"uicCode":"8400553","stationCode":"SDM","name":"Schiedam Centrum","coordinate":{"lat":51.9212438128032,"lng":4.4089937210083},"countryCode":"NL"},"description":"vanaf de Horvathweg"}],"label":"Er rijden bussen van Schiedam Centrum naar Rotterdam Centraal.","shortLabel":"Er rijden bussen Schiedam C. -> Rotterdam C."}}]},{"id":"7003657","type":"MAINTENANCE","registrationTime":"2023-06-06T11:18:52+0200","releaseTime":"2023-06-06T11:18:52+0200","local":false,"title":"Enschede - Gronau - Münster.","titleSections":[[{"type":"STATION","value":"Enschede"},{"type":"STATION","value":"Altenberge"},{"type":"ICON","value":"MAINTENANCE"},{"type":"STATION","value":"Münster (Westf)"}]],"isActive":false,"start":"2023-06-20T21:20:00+0200","end":"2023-06-20T22:25:00+0200","period":"Dinsdag 20-06-2023 21:20 uur t/m dinsdag 20-06-2023 22:25 uur.","impact":{"value":2},"summaryAdditionalTravelTime":{"label":"U heeft geen langere reistijd.","shortLabel":"Geen extra reistijd"},"publicationSections":[{"section":{"stations":[{"uicCode":"8400212","stationCode":"ES","name":"Enschede","coordinate":{"lat":52.2224998474121,"lng":6.8899998664856},"countryCode":"NL"},{"uicCode":"8400217","stationCode":"ESE","name":"Enschede De Eschmarke","coordinate":{"lat":52.2213897705078,"lng":6.95111131668091},"countryCode":"NL"},{"uicCode":"8400262","stationCode":"GBR","name":"Glanerbrug","coordinate":{"lat":52.2186126708984,"lng":6.97444438934326},"countryCode":"NL"},{"uicCode":"8021128","stationCode":"G","name":"Gronau (Westf.)","coordinate":{"lat":52.21521,"lng":7.022109},"countryCode":"D"},{"uicCode":"8021152","stationCode":"EOP","name":"Ochtrup","coordinate":{"lat":52.201703,"lng":7.182643},"countryCode":"D"},{"uicCode":"8021151","stationCode":"EMTE","name":"Metelen Land","coordinate":{"lat":52.162444,"lng":7.254423},"countryCode":"D"},{"uicCode":"8021143","stationCode":"EBFT","name":"Steinfurt-Burgsteinfurt","coordinate":{"lat":52.147384,"lng":7.32934},"countryCode":"D"},{"uicCode":"8071069","stationCode":"EGRK","name":"Steinfurt-Grottenkamp","coordinate":{"lat":52.123439,"lng":7.376031},"countryCode":"D"},{"uicCode":"8021150","stationCode":"EBGO","name":"Steinfurt-Borghorst","coordinate":{"lat":52.118791,"lng":7.397581},"countryCode":"D"},{"uicCode":"8021149","stationCode":"ENOW","name":"Nordwalde","coordinate":{"lat":52.077618,"lng":7.461706},"countryCode":"D"},{"uicCode":"8021148","stationCode":"EABG","name":"Altenberge","coordinate":{"lat":52.05223,"lng":7.481202},"countryCode":"D"},{"uicCode":"8021147","stationCode":"ENBE","name":"Münster-Häger","coordinate":{"lat":52.022327,"lng":7.562668},"countryCode":"D"},{"uicCode":"8023783","stationCode":"ENHF","name":"Münster (W) Zentrum Nord","coordinate":{"lat":51.984987,"lng":7.63861},"countryCode":"D"},{"uicCode":"8021011","stationCode":"MUNST","name":"Münster (Westf) Hbf","coordinate":{"lat":51.956892,"lng":7.635895},"countryCode":"D"}],"direction":"BOTH"},"consequence":{"section":{"stations":[{"uicCode":"8021148","stationCode":"EABG","name":"Altenberge","coordinate":{"lat":52.05223,"lng":7.481202},"countryCode":"D"},{"uicCode":"8021147","stationCode":"ENBE","name":"Münster-Häger","coordinate":{"lat":52.022327,"lng":7.562668},"countryCode":"D"},{"uicCode":"8023783","stationCode":"ENHF","name":"Münster (W) Zentrum Nord","coordinate":{"lat":51.984987,"lng":7.63861},"countryCode":"D"},{"uicCode":"8021011","stationCode":"MUNST","name":"Münster (Westf) Hbf","coordinate":{"lat":51.956892,"lng":7.635895},"countryCode":"D"}],"direction":"ONE_WAY"},"description":"aangepaste internationale dienstregeling","level":"LESS_TRAINS"},"sectionType":"NEIGHBORING_COUNTRY"}],"timespans":[{"start":"2023-06-20T21:20:00+0200","end":"2023-06-20T22:25:00+0200","period":"Dinsdag 20-06-2023 21:20 uur t/m dinsdag 20-06-2023 22:25 uur.","situation":{"label":"Door werkzaamheden: tussen Altenberge en Münster (Westf) Hbf is de internationale dienstregeling aangepast."},"cause":{"label":"werkzaamheden"},"additionalTravelTime":{"label":"U heeft geen langere reistijd.","shortLabel":"Geen extra reistijd"},"alternativeTransport":{"label":"er rijden stopbussen","shortLabel":"er rijden stopbussen"},"advices":["Dit kan gevolgen hebben voor uw reis. Plan uw reis in de (Internationale) app."]}],"alternativeTransportTimespans":[{"start":"2023-06-20T21:20:00+0200","end":"2023-06-20T22:25:00+0200","alternativeTransport":{"location":[],"label":"Er rijden stopbussen tussen Altenberge, München Hbf en Münster (Westf) Hbf.","shortLabel":"Er rijden stopbussen Altenberge - München Hbf - Münster (Westf)"}}]},{"id":"7003622","type":"MAINTENANCE","registrationTime":"2023-05-26T12:50:07+0200","releaseTime":"2023-05-26T12:50:07+0200","local":false,"title":"Rotterdam - Gouda.","titleSections":[[{"type":"STATION","value":"Rotterdam C."},{"type":"ICON","value":"MAINTENANCE"},{"type":"STATION","value":"Gouda"}]],"isActive":false,"start":"2023-06-21T00:00:00+0200","end":"2023-06-21T01:40:00+0200","period":"Woensdag 21-06-2023 00:00 uur t/m woensdag 21-06-2023 01:40 uur.","impact":{"value":3},"summaryAdditionalTravelTime":{"label":"De extra reistijd kan oplopen tot 30 minuten.","shortLabel":"Extra reistijd tot 30 min.","maximumDurationInMinutes":30},"publicationSections":[{"section":{"stations":[{"uicCode":"8400530","stationCode":"RTD","name":"Rotterdam Centraal","coordinate":{"lat":51.9249992370605,"lng":4.46888875961304},"countryCode":"NL"},{"uicCode":"8400531","stationCode":"RTN","name":"Rotterdam Noord","coordinate":{"lat":51.9422225952148,"lng":4.48166656494141},"countryCode":"NL"},{"uicCode":"8400507","stationCode":"RTA","name":"Rotterdam Alexander","coordinate":{"lat":51.9519462585449,"lng":4.55361127853394},"countryCode":"NL"},{"uicCode":"8400147","stationCode":"CPS","name":"Capelle Schollevaar","coordinate":{"lat":51.9541664123535,"lng":4.58416652679443},"countryCode":"NL"},{"uicCode":"8400455","stationCode":"NWK","name":"Nieuwerkerk a/d IJssel","coordinate":{"lat":51.9652786254883,"lng":4.61694431304932},"countryCode":"NL"},{"uicCode":"8400258","stationCode":"GD","name":"Gouda","coordinate":{"lat":52.0175018310547,"lng":4.70444440841675},"countryCode":"NL"}],"direction":"ONE_WAY"},"consequence":{"section":{"stations":[{"uicCode":"8400530","stationCode":"RTD","name":"Rotterdam Centraal","coordinate":{"lat":51.9249992370605,"lng":4.46888875961304},"countryCode":"NL"},{"uicCode":"8400531","stationCode":"RTN","name":"Rotterdam Noord","coordinate":{"lat":51.9422225952148,"lng":4.48166656494141},"countryCode":"NL"},{"uicCode":"8400507","stationCode":"RTA","name":"Rotterdam Alexander","coordinate":{"lat":51.9519462585449,"lng":4.55361127853394},"countryCode":"NL"},{"uicCode":"8400147","stationCode":"CPS","name":"Capelle Schollevaar","coordinate":{"lat":51.9541664123535,"lng":4.58416652679443},"countryCode":"NL"},{"uicCode":"8400455","stationCode":"NWK","name":"Nieuwerkerk a/d IJssel","coordinate":{"lat":51.9652786254883,"lng":4.61694431304932},"countryCode":"NL"},{"uicCode":"8400258","stationCode":"GD","name":"Gouda","coordinate":{"lat":52.0175018310547,"lng":4.70444440841675},"countryCode":"NL"}],"direction":"ONE_WAY"},"description":"rijden bussen","level":"LESS_TRAINS"},"sectionType":"NL"}],"timespans":[{"start":"2023-06-21T00:00:00+0200","end":"2023-06-21T01:40:00+0200","period":"Woensdag 21-06-2023 00:00 uur t/m woensdag 21-06-2023 01:40 uur.","situation":{"label":"Door werkzaamheden: van Gouda naar Rotterdam Centraal rijden er bussen."},"cause":{"label":"werkzaamheden"},"additionalTravelTime":{"label":"De extra reistijd kan oplopen tot 30 minuten.","shortLabel":"Extra reistijd tot 30 min.","maximumDurationInMinutes":30},"alternativeTransport":{"label":"er rijden stop- en snelbussen","shortLabel":"er rijden stop- en snelbussen"},"advices":[]}],"alternativeTransportTimespans":[{"start":"2023-06-21T00:00:00+0200","end":"2023-06-21T01:40:00+0200","alternativeTransport":{"location":[{"station":{"uicCode":"8400258","stationCode":"GD","name":"Gouda","coordinate":{"lat":52.0175018310547,"lng":4.70444440841675},"countryCode":"NL"},"description":"vanaf de Bloemendaalzijde"},{"station":{"uicCode":"8400507","stationCode":"RTA","name":"Rotterdam Alexander","coordinate":{"lat":51.9519462585449,"lng":4.55361127853394},"countryCode":"NL"},"description":"vanaf de Prins Alexanderlaan"}],"label":"Er rijden snelbussen van Gouda, Rotterdam Alexander naar Rotterdam Centraal.","shortLabel":"Er rijden snelbussen Gouda -> Alexander -> Rotterdam C."}},{"start":"2023-06-21T00:00:00+0200","end":"2023-06-21T01:40:00+0200","alternativeTransport":{"location":[{"station":{"uicCode":"8400258","stationCode":"GD","name":"Gouda","coordinate":{"lat":52.0175018310547,"lng":4.70444440841675},"countryCode":"NL"},"description":"vanaf de Bloemendaalzijde"},{"station":{"uicCode":"8400455","stationCode":"NWK","name":"Nieuwerkerk a/d IJssel","coordinate":{"lat":51.9652786254883,"lng":4.61694431304932},"countryCode":"NL"},"description":"vanaf de Kerklaan"},{"station":{"uicCode":"8400147","stationCode":"CPS","name":"Capelle Schollevaar","coordinate":{"lat":51.9541664123535,"lng":4.58416652679443},"countryCode":"NL"},"description":"vanaf het Stationsplein"},{"station":{"uicCode":"8400507","stationCode":"RTA","name":"Rotterdam Alexander","coordinate":{"lat":51.9519462585449,"lng":4.55361127853394},"countryCode":"NL"},"description":"vanaf de Prins Alexanderlaan"},{"station":{"uicCode":"8400531","stationCode":"RTN","name":"Rotterdam Noord","coordinate":{"lat":51.9422225952148,"lng":4.48166656494141},"countryCode":"NL"},"description":"vanaf de Bergweg onder het viaduct"}],"label":"Er rijden stopbussen van Gouda, Nieuwerkerk a/d IJssel, Capelle Schollevaar, Rotterdam Alexander, Rotterdam Noord naar Rotterdam Centraal.","shortLabel":"Er rijden stopbussen Gouda -> Nieuwerkerk -> Schollevaar -> Alexander -> Rotterdam Noord -> Rotterdam C."}}]},{"id":"7003624","type":"MAINTENANCE","registrationTime":"2023-05-26T12:51:45+0200","releaseTime":"2023-05-26T12:51:45+0200","local":false,"title":"Den Haag - Rotterdam.","titleSections":[[{"type":"STATION","value":"Den Haag HS"},{"type":"STATION","value":"Schiedam C."},{"type":"ICON","value":"MAINTENANCE"},{"type":"STATION","value":"Rotterdam C."}]],"isActive":false,"start":"2023-06-21T00:15:00+0200","end":"2023-06-21T06:10:00+0200","period":"Woensdag 21-06-2023 00:15 uur t/m woensdag 21-06-2023 06:10 uur.","impact":{"value":3},"summaryAdditionalTravelTime":{"label":"De extra reistijd kan oplopen tot 15 minuten.","shortLabel":"Extra reistijd tot 15 min.","maximumDurationInMinutes":15},"publicationSections":[{"section":{"stations":[{"uicCode":"8400280","stationCode":"GV","name":"Den Haag HS","coordinate":{"lat":52.0697212219238,"lng":4.32250022888184},"countryCode":"NL"},{"uicCode":"8400279","stationCode":"GVMW","name":"Den Haag Moerwijk","coordinate":{"lat":52.0538902282715,"lng":4.3086109161377},"countryCode":"NL"},{"uicCode":"8400505","stationCode":"RSW","name":"Rijswijk","coordinate":{"lat":52.039722442627,"lng":4.31916666030884},"countryCode":"NL"},{"uicCode":"8400170","stationCode":"DT","name":"Delft","coordinate":{"lat":52.0066680908203,"lng":4.35638904571533},"countryCode":"NL"},{"uicCode":"8400166","stationCode":"DTCP","name":"Delft Campus","coordinate":{"lat":51.9908332824707,"lng":4.36472225189209},"countryCode":"NL"},{"uicCode":"8400553","stationCode":"SDM","name":"Schiedam Centrum","coordinate":{"lat":51.9212438128032,"lng":4.4089937210083},"countryCode":"NL"},{"uicCode":"8400530","stationCode":"RTD","name":"Rotterdam Centraal","coordinate":{"lat":51.9249992370605,"lng":4.46888875961304},"countryCode":"NL"}],"direction":"BOTH"},"consequence":{"section":{"stations":[{"uicCode":"8400553","stationCode":"SDM","name":"Schiedam Centrum","coordinate":{"lat":51.9212438128032,"lng":4.4089937210083},"countryCode":"NL"},{"uicCode":"8400530","stationCode":"RTD","name":"Rotterdam Centraal","coordinate":{"lat":51.9249992370605,"lng":4.46888875961304},"countryCode":"NL"}],"direction":"ONE_WAY"},"description":"rijden bussen","level":"LESS_TRAINS"},"sectionType":"NL"}],"timespans":[{"start":"2023-06-21T00:15:00+0200","end":"2023-06-21T06:10:00+0200","period":"Woensdag 21-06-2023 00:15 uur t/m woensdag 21-06-2023 06:10 uur.","situation":{"label":"Door werkzaamheden: tussen Schiedam Centrum en Rotterdam Centraal rijden er bussen."},"cause":{"label":"werkzaamheden"},"additionalTravelTime":{"label":"De extra reistijd kan oplopen tot 15 minuten.","shortLabel":"Extra reistijd tot 15 min.","maximumDurationInMinutes":15},"alternativeTransport":{"label":"er rijden bussen","shortLabel":"er rijden bussen"},"advices":[]}],"alternativeTransportTimespans":[{"start":"2023-06-21T00:15:00+0200","end":"2023-06-21T03:50:00+0200","alternativeTransport":{"location":[{"station":{"uicCode":"8400530","stationCode":"RTD","name":"Rotterdam Centraal","coordinate":{"lat":51.9249992370605,"lng":4.46888875961304},"countryCode":"NL"},"description":"vanaf de Conradstraat aan de centrumzijde"},{"station":{"uicCode":"8400553","stationCode":"SDM","name":"Schiedam Centrum","coordinate":{"lat":51.9212438128032,"lng":4.4089937210083},"countryCode":"NL"},"description":"vanaf de Horvathweg"}],"label":"Er rijden bussen van Rotterdam Centraal naar Schiedam Centrum.","shortLabel":"Er rijden bussen Rotterdam C. -> Schiedam C."}},{"start":"2023-06-21T00:25:00+0200","end":"2023-06-21T00:50:00+0200","alternativeTransport":{"location":[{"station":{"uicCode":"8400553","stationCode":"SDM","name":"Schiedam Centrum","coordinate":{"lat":51.9212438128032,"lng":4.4089937210083},"countryCode":"NL"},"description":"vanaf de Horvathweg"}],"label":"Er rijden bussen van Schiedam Centrum naar Rotterdam Centraal.","shortLabel":"Er rijden bussen Schiedam C. -> Rotterdam C."}},{"start":"2023-06-21T02:45:00+0200","end":"2023-06-21T06:10:00+0200","alternativeTransport":{"location":[{"station":{"uicCode":"8400553","stationCode":"SDM","name":"Schiedam Centrum","coordinate":{"lat":51.9212438128032,"lng":4.4089937210083},"countryCode":"NL"},"description":"vanaf de Horvathweg"}],"label":"Er rijden bussen van Schiedam Centrum naar Rotterdam Centraal.","shortLabel":"Er rijden bussen Schiedam C. -> Rotterdam C."}}]},{"id":"7003623","type":"MAINTENANCE","registrationTime":"2023-05-26T12:51:12+0200","releaseTime":"2023-05-26T12:51:12+0200","local":false,"title":"Rotterdam - Dordrecht; Rotterdam - Breda (HSL).","titleSections":[[{"type":"STATION","value":"Rotterdam C."},{"type":"ICON","value":"MAINTENANCE"},{"type":"STATION","value":"Breda"}],[{"type":"STATION","value":"Rotterdam C."},{"type":"ICON","value":"MAINTENANCE"},{"type":"STATION","value":"Dordrecht"}]],"isActive":false,"start":"2023-06-21T00:30:00+0200","end":"2023-06-21T02:15:00+0200","period":"Woensdag 21-06-2023 00:30 uur t/m woensdag 21-06-2023 02:15 uur.","impact":{"value":3},"summaryAdditionalTravelTime":{"label":"De extra reistijd kan oplopen tot 30 minuten.","shortLabel":"Extra reistijd tot 30 min.","maximumDurationInMinutes":30},"publicationSections":[{"section":{"stations":[{"uicCode":"8400530","stationCode":"RTD","name":"Rotterdam Centraal","coordinate":{"lat":51.9249992370605,"lng":4.46888875961304},"countryCode":"NL"},{"uicCode":"8400529","stationCode":"RTB","name":"Rotterdam Blaak","coordinate":{"lat":51.9202766418457,"lng":4.48888874053955},"countryCode":"NL"},{"uicCode":"8400533","stationCode":"RTZ","name":"Rotterdam Zuid","coordinate":{"lat":51.9044456481934,"lng":4.51027774810791},"countryCode":"NL"},{"uicCode":"8400542","stationCode":"RLB","name":"Rotterdam Lombardijen","coordinate":{"lat":51.8800010681152,"lng":4.53138875961304},"countryCode":"NL"},{"uicCode":"8400132","stationCode":"BDPB","name":"Breda-Prinsenbeek","coordinate":{"lat":51.606388092041,"lng":4.72083330154419},"countryCode":"NL"},{"uicCode":"8400131","stationCode":"BD","name":"Breda","coordinate":{"lat":51.5955543518066,"lng":4.78000020980835},"countryCode":"NL"}],"direction":"ONE_WAY"},"consequence":{"section":{"stations":[{"uicCode":"8400530","stationCode":"RTD","name":"Rotterdam Centraal","coordinate":{"lat":51.9249992370605,"lng":4.46888875961304},"countryCode":"NL"},{"uicCode":"8400529","stationCode":"RTB","name":"Rotterdam Blaak","coordinate":{"lat":51.9202766418457,"lng":4.48888874053955},"countryCode":"NL"},{"uicCode":"8400533","stationCode":"RTZ","name":"Rotterdam Zuid","coordinate":{"lat":51.9044456481934,"lng":4.51027774810791},"countryCode":"NL"},{"uicCode":"8400542","stationCode":"RLB","name":"Rotterdam Lombardijen","coordinate":{"lat":51.8800010681152,"lng":4.53138875961304},"countryCode":"NL"},{"uicCode":"8400132","stationCode":"BDPB","name":"Breda-Prinsenbeek","coordinate":{"lat":51.606388092041,"lng":4.72083330154419},"countryCode":"NL"},{"uicCode":"8400131","stationCode":"BD","name":"Breda","coordinate":{"lat":51.5955543518066,"lng":4.78000020980835},"countryCode":"NL"}],"direction":"ONE_WAY"},"description":"geen treinen op de HSL","level":"LESS_TRAINS"},"sectionType":"HSL"},{"section":{"stations":[{"uicCode":"8400530","stationCode":"RTD","name":"Rotterdam Centraal","coordinate":{"lat":51.9249992370605,"lng":4.46888875961304},"countryCode":"NL"},{"uicCode":"8400529","stationCode":"RTB","name":"Rotterdam Blaak","coordinate":{"lat":51.9202766418457,"lng":4.48888874053955},"countryCode":"NL"},{"uicCode":"8400533","stationCode":"RTZ","name":"Rotterdam Zuid","coordinate":{"lat":51.9044456481934,"lng":4.51027774810791},"countryCode":"NL"},{"uicCode":"8400542","stationCode":"RLB","name":"Rotterdam Lombardijen","coordinate":{"lat":51.8800010681152,"lng":4.53138875961304},"countryCode":"NL"},{"uicCode":"8400090","stationCode":"BRD","name":"Barendrecht","coordinate":{"lat":51.8547210693359,"lng":4.5533332824707},"countryCode":"NL"},{"uicCode":"8400752","stationCode":"ZWD","name":"Zwijndrecht","coordinate":{"lat":51.814998626709,"lng":4.64166688919067},"countryCode":"NL"},{"uicCode":"8400180","stationCode":"DDR","name":"Dordrecht","coordinate":{"lat":51.8072204589844,"lng":4.66833353042603},"countryCode":"NL"}],"direction":"BOTH"},"consequence":{"section":{"stations":[{"uicCode":"8400530","stationCode":"RTD","name":"Rotterdam Centraal","coordinate":{"lat":51.9249992370605,"lng":4.46888875961304},"countryCode":"NL"},{"uicCode":"8400529","stationCode":"RTB","name":"Rotterdam Blaak","coordinate":{"lat":51.9202766418457,"lng":4.48888874053955},"countryCode":"NL"},{"uicCode":"8400533","stationCode":"RTZ","name":"Rotterdam Zuid","coordinate":{"lat":51.9044456481934,"lng":4.51027774810791},"countryCode":"NL"},{"uicCode":"8400542","stationCode":"RLB","name":"Rotterdam Lombardijen","coordinate":{"lat":51.8800010681152,"lng":4.53138875961304},"countryCode":"NL"},{"uicCode":"8400090","stationCode":"BRD","name":"Barendrecht","coordinate":{"lat":51.8547210693359,"lng":4.5533332824707},"countryCode":"NL"},{"uicCode":"8400752","stationCode":"ZWD","name":"Zwijndrecht","coordinate":{"lat":51.814998626709,"lng":4.64166688919067},"countryCode":"NL"},{"uicCode":"8400180","stationCode":"DDR","name":"Dordrecht","coordinate":{"lat":51.8072204589844,"lng":4.66833353042603},"countryCode":"NL"}],"direction":"ONE_WAY"},"description":"rijden bussen","level":"LESS_TRAINS"},"sectionType":"NL"}],"timespans":[{"start":"2023-06-21T00:30:00+0200","end":"2023-06-21T02:15:00+0200","period":"Woensdag 21-06-2023 00:30 uur t/m woensdag 21-06-2023 02:15 uur.","situation":{"label":"Door werkzaamheden: van Breda naar Rotterdam Centraal rijden er op de hogesnelheidslijn geen treinen en tussen Rotterdam Centraal en Dordrecht rijden er bussen."},"cause":{"label":"werkzaamheden"},"additionalTravelTime":{"label":"De extra reistijd kan oplopen tot 30 minuten.","shortLabel":"Extra reistijd tot 30 min.","maximumDurationInMinutes":30},"alternativeTransport":{"label":"er rijden stop- en snelbussen","shortLabel":"er rijden stop- en snelbussen"},"advices":[]}],"alternativeTransportTimespans":[{"start":"2023-06-21T00:30:00+0200","end":"2023-06-21T02:15:00+0200","alternativeTransport":{"location":[{"station":{"uicCode":"8400530","stationCode":"RTD","name":"Rotterdam Centraal","coordinate":{"lat":51.9249992370605,"lng":4.46888875961304},"countryCode":"NL"},"description":"vanaf de Conradstraat aan de centrumzijde"},{"station":{"uicCode":"8400529","stationCode":"RTB","name":"Rotterdam Blaak","coordinate":{"lat":51.9202766418457,"lng":4.48888874053955},"countryCode":"NL"},"description":"vanaf de voorzijde van het station"},{"station":{"uicCode":"8400533","stationCode":"RTZ","name":"Rotterdam Zuid","coordinate":{"lat":51.9044456481934,"lng":4.51027774810791},"countryCode":"NL"},"description":"vanaf de Rosestraat"},{"station":{"uicCode":"8400542","stationCode":"RLB","name":"Rotterdam Lombardijen","coordinate":{"lat":51.8800010681152,"lng":4.53138875961304},"countryCode":"NL"},"description":"vanaf de bushalte"},{"station":{"uicCode":"8400090","stationCode":"BRD","name":"Barendrecht","coordinate":{"lat":51.8547210693359,"lng":4.5533332824707},"countryCode":"NL"},"description":"vanaf de achterzijde van het station"},{"station":{"uicCode":"8400752","stationCode":"ZWD","name":"Zwijndrecht","coordinate":{"lat":51.814998626709,"lng":4.64166688919067},"countryCode":"NL"},"description":"vanaf het Stationsplein"}],"label":"Er rijden stopbussen van Rotterdam Centraal, Rotterdam Blaak, Rotterdam Zuid, Rotterdam Lombardijen, Barendrecht, Zwijndrecht naar Dordrecht.","shortLabel":"Er rijden stopbussen Rotterdam C. -> Blaak -> Rotterdam Zuid -> Lombardijen -> Barendrecht -> Zwijndrecht -> Dordrecht"}},{"start":"2023-06-21T00:30:00+0200","end":"2023-06-21T01:15:00+0200","alternativeTransport":{"location":[{"station":{"uicCode":"8400180","stationCode":"DDR","name":"Dordrecht","coordinate":{"lat":51.8072204589844,"lng":4.66833353042603},"countryCode":"NL"},"description":"vanaf de voorzijde van het station"}],"label":"Er rijden stopbussen van Dordrecht naar Rotterdam Centraal.","shortLabel":"Er rijden stopbussen Dordrecht -> Rotterdam C."}},{"start":"2023-06-21T00:40:00+0200","end":"2023-06-21T01:30:00+0200","alternativeTransport":{"location":[{"station":{"uicCode":"8400553","stationCode":"SDM","name":"Schiedam Centrum","coordinate":{"lat":51.9212438128032,"lng":4.4089937210083},"countryCode":"NL"},"description":"vanaf de Horvathweg"},{"station":{"uicCode":"8400530","stationCode":"RTD","name":"Rotterdam Centraal","coordinate":{"lat":51.9249992370605,"lng":4.46888875961304},"countryCode":"NL"},"description":"vanaf de Conradstraat aan de centrumzijde"}],"label":"Er rijden snelbussen van Schiedam Centrum, Rotterdam Centraal naar Dordrecht.","shortLabel":"Er rijden snelbussen Schiedam C. -> Rotterdam C. -> Dordrecht"}}]},{"id":"7003661","type":"MAINTENANCE","registrationTime":"2023-06-06T11:23:34+0200","releaseTime":"2023-06-06T11:23:34+0200","local":false,"title":"Enschede - Gronau - Münster.","titleSections":[[{"type":"STATION","value":"Enschede"},{"type":"STATION","value":"Steinfurt-Burgst"},{"type":"ICON","value":"MAINTENANCE"},{"type":"STATION","value":"Steinfurt-Borgh"},{"type":"STATION","value":"Münster (Westf)"}]],"isActive":false,"start":"2023-06-21T21:40:00+0200","end":"2023-06-22T02:00:00+0200","period":"Woensdag 21-06-2023 21:40 uur t/m donderdag 22-06-2023 02:00 uur.","impact":{"value":2},"summaryAdditionalTravelTime":{"label":"U heeft geen langere reistijd.","shortLabel":"Geen extra reistijd"},"publicationSections":[{"section":{"stations":[{"uicCode":"8400212","stationCode":"ES","name":"Enschede","coordinate":{"lat":52.2224998474121,"lng":6.8899998664856},"countryCode":"NL"},{"uicCode":"8400217","stationCode":"ESE","name":"Enschede De Eschmarke","coordinate":{"lat":52.2213897705078,"lng":6.95111131668091},"countryCode":"NL"},{"uicCode":"8400262","stationCode":"GBR","name":"Glanerbrug","coordinate":{"lat":52.2186126708984,"lng":6.97444438934326},"countryCode":"NL"},{"uicCode":"8021128","stationCode":"G","name":"Gronau (Westf.)","coordinate":{"lat":52.21521,"lng":7.022109},"countryCode":"D"},{"uicCode":"8021152","stationCode":"EOP","name":"Ochtrup","coordinate":{"lat":52.201703,"lng":7.182643},"countryCode":"D"},{"uicCode":"8021151","stationCode":"EMTE","name":"Metelen Land","coordinate":{"lat":52.162444,"lng":7.254423},"countryCode":"D"},{"uicCode":"8021143","stationCode":"EBFT","name":"Steinfurt-Burgsteinfurt","coordinate":{"lat":52.147384,"lng":7.32934},"countryCode":"D"},{"uicCode":"8071069","stationCode":"EGRK","name":"Steinfurt-Grottenkamp","coordinate":{"lat":52.123439,"lng":7.376031},"countryCode":"D"},{"uicCode":"8021150","stationCode":"EBGO","name":"Steinfurt-Borghorst","coordinate":{"lat":52.118791,"lng":7.397581},"countryCode":"D"},{"uicCode":"8021149","stationCode":"ENOW","name":"Nordwalde","coordinate":{"lat":52.077618,"lng":7.461706},"countryCode":"D"},{"uicCode":"8021148","stationCode":"EABG","name":"Altenberge","coordinate":{"lat":52.05223,"lng":7.481202},"countryCode":"D"},{"uicCode":"8021147","stationCode":"ENBE","name":"Münster-Häger","coordinate":{"lat":52.022327,"lng":7.562668},"countryCode":"D"},{"uicCode":"8023783","stationCode":"ENHF","name":"Münster (W) Zentrum Nord","coordinate":{"lat":51.984987,"lng":7.63861},"countryCode":"D"},{"uicCode":"8021011","stationCode":"MUNST","name":"Münster (Westf) Hbf","coordinate":{"lat":51.956892,"lng":7.635895},"countryCode":"D"}],"direction":"BOTH"},"consequence":{"section":{"stations":[{"uicCode":"8021143","stationCode":"EBFT","name":"Steinfurt-Burgsteinfurt","coordinate":{"lat":52.147384,"lng":7.32934},"countryCode":"D"},{"uicCode":"8071069","stationCode":"EGRK","name":"Steinfurt-Grottenkamp","coordinate":{"lat":52.123439,"lng":7.376031},"countryCode":"D"},{"uicCode":"8021150","stationCode":"EBGO","name":"Steinfurt-Borghorst","coordinate":{"lat":52.118791,"lng":7.397581},"countryCode":"D"}],"direction":"ONE_WAY"},"description":"aangepaste internationale dienstregeling","level":"LESS_TRAINS"},"sectionType":"NEIGHBORING_COUNTRY"}],"timespans":[{"start":"2023-06-21T21:40:00+0200","end":"2023-06-22T02:00:00+0200","period":"Woensdag 21-06-2023 21:40 uur t/m donderdag 22-06-2023 02:00 uur.","situation":{"label":"Door werkzaamheden: tussen Steinfurt-Burgsteinfurt en Steinfurt-Borghorst is de internationale dienstregeling aangepast."},"cause":{"label":"werkzaamheden"},"additionalTravelTime":{"label":"U heeft geen langere reistijd.","shortLabel":"Geen extra reistijd"},"alternativeTransport":{"label":"er rijden stopbussen","shortLabel":"er rijden stopbussen"},"advices":["Dit kan gevolgen hebben voor uw reis. Plan uw reis in de (Internationale) app."]}],"alternativeTransportTimespans":[{"start":"2023-06-21T21:40:00+0200","end":"2023-06-22T02:00:00+0200","alternativeTransport":{"location":[],"label":"Er rijden stopbussen tussen Steinfurt-Burgsteinfurt, Steinfurt-Grottenkamp en Steinfurt-Borghorst.","shortLabel":"Er rijden stopbussen Steinfurt-Burgst - Steinfurt-Grotte - Steinfurt-Borgh"}}]},{"id":"7003662","type":"MAINTENANCE","registrationTime":"2023-06-06T11:25:14+0200","releaseTime":"2023-06-06T11:25:14+0200","local":false,"title":"Enschede - Gronau - Münster.","titleSections":[[{"type":"STATION","value":"Enschede"},{"type":"STATION","value":"Steinfurt-Burgst"},{"type":"ICON","value":"MAINTENANCE"},{"type":"STATION","value":"Steinfurt-Borgh"},{"type":"STATION","value":"Münster (Westf)"}]],"isActive":false,"start":"2023-06-22T21:40:00+0200","end":"2023-06-23T02:00:00+0200","period":"Donderdag 22-06-2023 21:40 uur t/m vrijdag 23-06-2023 02:00 uur.","impact":{"value":2},"summaryAdditionalTravelTime":{"label":"U heeft geen langere reistijd.","shortLabel":"Geen extra reistijd"},"publicationSections":[{"section":{"stations":[{"uicCode":"8400212","stationCode":"ES","name":"Enschede","coordinate":{"lat":52.2224998474121,"lng":6.8899998664856},"countryCode":"NL"},{"uicCode":"8400217","stationCode":"ESE","name":"Enschede De Eschmarke","coordinate":{"lat":52.2213897705078,"lng":6.95111131668091},"countryCode":"NL"},{"uicCode":"8400262","stationCode":"GBR","name":"Glanerbrug","coordinate":{"lat":52.2186126708984,"lng":6.97444438934326},"countryCode":"NL"},{"uicCode":"8021128","stationCode":"G","name":"Gronau (Westf.)","coordinate":{"lat":52.21521,"lng":7.022109},"countryCode":"D"},{"uicCode":"8021152","stationCode":"EOP","name":"Ochtrup","coordinate":{"lat":52.201703,"lng":7.182643},"countryCode":"D"},{"uicCode":"8021151","stationCode":"EMTE","name":"Metelen Land","coordinate":{"lat":52.162444,"lng":7.254423},"countryCode":"D"},{"uicCode":"8021143","stationCode":"EBFT","name":"Steinfurt-Burgsteinfurt","coordinate":{"lat":52.147384,"lng":7.32934},"countryCode":"D"},{"uicCode":"8071069","stationCode":"EGRK","name":"Steinfurt-Grottenkamp","coordinate":{"lat":52.123439,"lng":7.376031},"countryCode":"D"},{"uicCode":"8021150","stationCode":"EBGO","name":"Steinfurt-Borghorst","coordinate":{"lat":52.118791,"lng":7.397581},"countryCode":"D"},{"uicCode":"8021149","stationCode":"ENOW","name":"Nordwalde","coordinate":{"lat":52.077618,"lng":7.461706},"countryCode":"D"},{"uicCode":"8021148","stationCode":"EABG","name":"Altenberge","coordinate":{"lat":52.05223,"lng":7.481202},"countryCode":"D"},{"uicCode":"8021147","stationCode":"ENBE","name":"Münster-Häger","coordinate":{"lat":52.022327,"lng":7.562668},"countryCode":"D"},{"uicCode":"8023783","stationCode":"ENHF","name":"Münster (W) Zentrum Nord","coordinate":{"lat":51.984987,"lng":7.63861},"countryCode":"D"},{"uicCode":"8021011","stationCode":"MUNST","name":"Münster (Westf) Hbf","coordinate":{"lat":51.956892,"lng":7.635895},"countryCode":"D"}],"direction":"BOTH"},"consequence":{"section":{"stations":[{"uicCode":"8021143","stationCode":"EBFT","name":"Steinfurt-Burgsteinfurt","coordinate":{"lat":52.147384,"lng":7.32934},"countryCode":"D"},{"uicCode":"8071069","stationCode":"EGRK","name":"Steinfurt-Grottenkamp","coordinate":{"lat":52.123439,"lng":7.376031},"countryCode":"D"},{"uicCode":"8021150","stationCode":"EBGO","name":"Steinfurt-Borghorst","coordinate":{"lat":52.118791,"lng":7.397581},"countryCode":"D"}],"direction":"ONE_WAY"},"description":"aangepaste internationale dienstregeling","level":"LESS_TRAINS"},"sectionType":"NEIGHBORING_COUNTRY"}],"timespans":[{"start":"2023-06-22T21:40:00+0200","end":"2023-06-23T02:00:00+0200","period":"Donderdag 22-06-2023 21:40 uur t/m vrijdag 23-06-2023 02:00 uur.","situation":{"label":"Door werkzaamheden: tussen Steinfurt-Burgsteinfurt en Steinfurt-Borghorst is de internationale dienstregeling aangepast."},"cause":{"label":"werkzaamheden"},"additionalTravelTime":{"label":"U heeft geen langere reistijd.","shortLabel":"Geen extra reistijd"},"alternativeTransport":{"label":"er rijden stopbussen","shortLabel":"er rijden stopbussen"},"advices":["Dit kan gevolgen hebben voor uw reis. Plan uw reis in de (Internationale) app."]}],"alternativeTransportTimespans":[{"start":"2023-06-22T21:40:00+0200","end":"2023-06-23T02:00:00+0200","alternativeTransport":{"location":[],"label":"Er rijden stopbussen tussen Steinfurt-Burgsteinfurt, Steinfurt-Grottenkamp en Steinfurt-Borghorst.","shortLabel":"Er rijden stopbussen Steinfurt-Burgst - Steinfurt-Grotte - Steinfurt-Borgh"}}]},{"id":"7003612","type":"MAINTENANCE","registrationTime":"2023-05-26T09:50:28+0200","releaseTime":"2023-05-26T09:50:28+0200","local":false,"title":"Amsterdam - Hannover - Berlin.","titleSections":[[{"type":"STATION","value":"Amsterdam C."},{"type":"ICON","value":"MAINTENANCE"},{"type":"STATION","value":"Amersfoort C."},{"type":"STATION","value":"Berlin Hbf"}]],"isActive":false,"start":"2023-06-23T14:50:00+0200","end":"2023-06-23T20:30:00+0200","period":"Vrijdag 23-06-2023 14:50 uur t/m vrijdag 23-06-2023 20:30 uur.","impact":{"value":2},"summaryAdditionalTravelTime":{"label":"U heeft geen langere reistijd.","shortLabel":"Geen extra reistijd"},"publicationSections":[{"section":{"stations":[{"uicCode":"8400058","stationCode":"ASD","name":"Amsterdam Centraal","coordinate":{"lat":52.3788871765137,"lng":4.90027761459351},"countryCode":"NL"},{"uicCode":"8400060","stationCode":"ASDM","name":"Amsterdam Muiderpoort","coordinate":{"lat":52.3605537414551,"lng":4.93111133575439},"countryCode":"NL"},{"uicCode":"8400235","stationCode":"ASSP","name":"Amsterdam Science Park","coordinate":{"lat":52.35526,"lng":4.94651},"countryCode":"NL"},{"uicCode":"8400165","stationCode":"DMN","name":"Diemen","coordinate":{"lat":52.34515,"lng":4.967566},"countryCode":"NL"},{"uicCode":"8400685","stationCode":"WP","name":"Weesp","coordinate":{"lat":52.3127784729004,"lng":5.04305553436279},"countryCode":"NL"},{"uicCode":"8400452","stationCode":"NDB","name":"Naarden-Bussum","coordinate":{"lat":52.2802772521973,"lng":5.15694427490234},"countryCode":"NL"},{"uicCode":"8400145","stationCode":"BSMZ","name":"Bussum Zuid","coordinate":{"lat":52.2658348083496,"lng":5.16305541992188},"countryCode":"NL"},{"uicCode":"8400324","stationCode":"HVSM","name":"Hilversum Media Park","coordinate":{"lat":52.2380561828613,"lng":5.17388868331909},"countryCode":"NL"},{"uicCode":"8400322","stationCode":"HVS","name":"Hilversum","coordinate":{"lat":52.2258338928223,"lng":5.18194437026978},"countryCode":"NL"},{"uicCode":"8400086","stationCode":"BRN","name":"Baarn","coordinate":{"lat":52.2083320617676,"lng":5.28083324432373},"countryCode":"NL"},{"uicCode":"8400055","stationCode":"AMF","name":"Amersfoort Centraal","coordinate":{"lat":52.1538887023926,"lng":5.37055540084839},"countryCode":"NL"},{"uicCode":"8400490","stationCode":"HVL","name":"Hoevelaken","coordinate":{"lat":52.16652,"lng":5.45718},"countryCode":"NL"},{"uicCode":"8400066","stationCode":"APD","name":"Apeldoorn","coordinate":{"lat":52.2091674804687,"lng":5.97027778625488},"countryCode":"NL"},{"uicCode":"8400229","stationCode":"APDO","name":"Apeldoorn Osseveld","coordinate":{"lat":52.2152786254883,"lng":6.00444459915161},"countryCode":"NL"},{"uicCode":"8400599","stationCode":"TWL","name":"Twello","coordinate":{"lat":52.2377777099609,"lng":6.09861087799072},"countryCode":"NL"},{"uicCode":"8400173","stationCode":"DV","name":"Deventer","coordinate":{"lat":52.2574996948242,"lng":6.16055536270142},"countryCode":"NL"},{"uicCode":"8400185","stationCode":"DVC","name":"Deventer Colmschate","coordinate":{"lat":52.2502784729004,"lng":6.21444463729858},"countryCode":"NL"},{"uicCode":"8400328","stationCode":"HON","name":"Holten","coordinate":{"lat":52.2838897705078,"lng":6.42027759552002},"countryCode":"NL"},{"uicCode":"8400538","stationCode":"RSN","name":"Rijssen","coordinate":{"lat":52.3122215270996,"lng":6.52027797698975},"countryCode":"NL"},{"uicCode":"8400691","stationCode":"WDN","name":"Wierden","coordinate":{"lat":52.3613891601562,"lng":6.59166669845581},"countryCode":"NL"},{"uicCode":"8400051","stationCode":"AML","name":"Almelo","coordinate":{"lat":52.3580551147461,"lng":6.65388870239258},"countryCode":"NL"},{"uicCode":"8400520","stationCode":"AMRI","name":"Almelo de Riet","coordinate":{"lat":52.3419456481934,"lng":6.66666650772095},"countryCode":"NL"},{"uicCode":"8400124","stationCode":"BN","name":"Borne","coordinate":{"lat":52.2988891601562,"lng":6.74805545806885},"countryCode":"NL"},{"uicCode":"8400316","stationCode":"HGL","name":"Hengelo","coordinate":{"lat":52.2616653442383,"lng":6.79388904571533},"countryCode":"NL"},{"uicCode":"8400312","stationCode":"HGLO","name":"Hengelo Oost","coordinate":{"lat":52.2688903808594,"lng":6.81944465637207},"countryCode":"NL"},{"uicCode":"8400483","stationCode":"ODZ","name":"Oldenzaal","coordinate":{"lat":52.3063888549805,"lng":6.93472242355347},"countryCode":"NL"},{"uicCode":"8021156","stationCode":"BH","name":"Bad Bentheim","coordinate":{"lat":52.309685595156,"lng":7.15853691101074},"countryCode":"D"},{"uicCode":"8021067","stationCode":"RHEINE","name":"Rheine","coordinate":{"lat":52.276299,"lng":7.434255},"countryCode":"D"},{"uicCode":"8021025","stationCode":"OSNH","name":"Osnabrück Hbf","coordinate":{"lat":52.272851,"lng":8.061781},"countryCode":"D"},{"uicCode":"8013552","stationCode":"HANN","name":"Hannover Hbf","coordinate":{"lat":52.3770401,"lng":9.7416759},"countryCode":"D"},{"uicCode":"8065969","stationCode":"BERHBL","name":"Berlin Hbf","coordinate":{"lat":52.52503,"lng":13.36946},"countryCode":"D"}],"direction":"ONE_WAY"},"consequence":{"section":{"stations":[{"uicCode":"8400058","stationCode":"ASD","name":"Amsterdam Centraal","coordinate":{"lat":52.3788871765137,"lng":4.90027761459351},"countryCode":"NL"},{"uicCode":"8400060","stationCode":"ASDM","name":"Amsterdam Muiderpoort","coordinate":{"lat":52.3605537414551,"lng":4.93111133575439},"countryCode":"NL"},{"uicCode":"8400235","stationCode":"ASSP","name":"Amsterdam Science Park","coordinate":{"lat":52.35526,"lng":4.94651},"countryCode":"NL"},{"uicCode":"8400165","stationCode":"DMN","name":"Diemen","coordinate":{"lat":52.34515,"lng":4.967566},"countryCode":"NL"},{"uicCode":"8400685","stationCode":"WP","name":"Weesp","coordinate":{"lat":52.3127784729004,"lng":5.04305553436279},"countryCode":"NL"},{"uicCode":"8400452","stationCode":"NDB","name":"Naarden-Bussum","coordinate":{"lat":52.2802772521973,"lng":5.15694427490234},"countryCode":"NL"},{"uicCode":"8400145","stationCode":"BSMZ","name":"Bussum Zuid","coordinate":{"lat":52.2658348083496,"lng":5.16305541992188},"countryCode":"NL"},{"uicCode":"8400324","stationCode":"HVSM","name":"Hilversum Media Park","coordinate":{"lat":52.2380561828613,"lng":5.17388868331909},"countryCode":"NL"},{"uicCode":"8400322","stationCode":"HVS","name":"Hilversum","coordinate":{"lat":52.2258338928223,"lng":5.18194437026978},"countryCode":"NL"},{"uicCode":"8400086","stationCode":"BRN","name":"Baarn","coordinate":{"lat":52.2083320617676,"lng":5.28083324432373},"countryCode":"NL"},{"uicCode":"8400055","stationCode":"AMF","name":"Amersfoort Centraal","coordinate":{"lat":52.1538887023926,"lng":5.37055540084839},"countryCode":"NL"}],"direction":"ONE_WAY"},"description":"aangepaste internationale dienstregeling","level":"LESS_TRAINS"},"sectionType":"NEIGHBORING_COUNTRY"}],"timespans":[{"start":"2023-06-23T14:50:00+0200","end":"2023-06-23T20:30:00+0200","period":"Vrijdag 23-06-2023 14:50 uur t/m vrijdag 23-06-2023 20:30 uur.","situation":{"label":"Door werkzaamheden: van Amersfoort Centraal naar Amsterdam Centraal is de internationale dienstregeling aangepast."},"cause":{"label":"werkzaamheden"},"additionalTravelTime":{"label":"U heeft geen langere reistijd.","shortLabel":"Geen extra reistijd"},"advices":["Dit kan gevolgen hebben voor uw reis. Plan uw reis in de (Internationale) app."]}],"alternativeTransportTimespans":[]},{"id":"7003663","type":"MAINTENANCE","registrationTime":"2023-06-06T11:27:56+0200","releaseTime":"2023-06-06T11:27:56+0200","local":false,"title":"Enschede - Gronau - Münster.","titleSections":[[{"type":"STATION","value":"Enschede"},{"type":"STATION","value":"Gronau (Westf.)"},{"type":"ICON","value":"MAINTENANCE"},{"type":"STATION","value":"Ochtrup"},{"type":"STATION","value":"Münster (Westf)"}]],"isActive":false,"start":"2023-06-23T21:40:00+0200","end":"2023-06-24T02:00:00+0200","period":"Vrijdag 23-06-2023 21:40 uur t/m zaterdag 24-06-2023 02:00 uur.","impact":{"value":2},"summaryAdditionalTravelTime":{"label":"U heeft geen langere reistijd.","shortLabel":"Geen extra reistijd"},"publicationSections":[{"section":{"stations":[{"uicCode":"8400212","stationCode":"ES","name":"Enschede","coordinate":{"lat":52.2224998474121,"lng":6.8899998664856},"countryCode":"NL"},{"uicCode":"8400217","stationCode":"ESE","name":"Enschede De Eschmarke","coordinate":{"lat":52.2213897705078,"lng":6.95111131668091},"countryCode":"NL"},{"uicCode":"8400262","stationCode":"GBR","name":"Glanerbrug","coordinate":{"lat":52.2186126708984,"lng":6.97444438934326},"countryCode":"NL"},{"uicCode":"8021128","stationCode":"G","name":"Gronau (Westf.)","coordinate":{"lat":52.21521,"lng":7.022109},"countryCode":"D"},{"uicCode":"8021152","stationCode":"EOP","name":"Ochtrup","coordinate":{"lat":52.201703,"lng":7.182643},"countryCode":"D"},{"uicCode":"8021151","stationCode":"EMTE","name":"Metelen Land","coordinate":{"lat":52.162444,"lng":7.254423},"countryCode":"D"},{"uicCode":"8021143","stationCode":"EBFT","name":"Steinfurt-Burgsteinfurt","coordinate":{"lat":52.147384,"lng":7.32934},"countryCode":"D"},{"uicCode":"8071069","stationCode":"EGRK","name":"Steinfurt-Grottenkamp","coordinate":{"lat":52.123439,"lng":7.376031},"countryCode":"D"},{"uicCode":"8021150","stationCode":"EBGO","name":"Steinfurt-Borghorst","coordinate":{"lat":52.118791,"lng":7.397581},"countryCode":"D"},{"uicCode":"8021149","stationCode":"ENOW","name":"Nordwalde","coordinate":{"lat":52.077618,"lng":7.461706},"countryCode":"D"},{"uicCode":"8021148","stationCode":"EABG","name":"Altenberge","coordinate":{"lat":52.05223,"lng":7.481202},"countryCode":"D"},{"uicCode":"8021147","stationCode":"ENBE","name":"Münster-Häger","coordinate":{"lat":52.022327,"lng":7.562668},"countryCode":"D"},{"uicCode":"8023783","stationCode":"ENHF","name":"Münster (W) Zentrum Nord","coordinate":{"lat":51.984987,"lng":7.63861},"countryCode":"D"},{"uicCode":"8021011","stationCode":"MUNST","name":"Münster (Westf) Hbf","coordinate":{"lat":51.956892,"lng":7.635895},"countryCode":"D"}],"direction":"BOTH"},"consequence":{"section":{"stations":[{"uicCode":"8021128","stationCode":"G","name":"Gronau (Westf.)","coordinate":{"lat":52.21521,"lng":7.022109},"countryCode":"D"},{"uicCode":"8021152","stationCode":"EOP","name":"Ochtrup","coordinate":{"lat":52.201703,"lng":7.182643},"countryCode":"D"}],"direction":"ONE_WAY"},"description":"aangepaste internationale dienstregeling","level":"LESS_TRAINS"},"sectionType":"NEIGHBORING_COUNTRY"}],"timespans":[{"start":"2023-06-23T21:40:00+0200","end":"2023-06-24T02:00:00+0200","period":"Vrijdag 23-06-2023 21:40 uur t/m zaterdag 24-06-2023 02:00 uur.","situation":{"label":"Door werkzaamheden: tussen Gronau (Westf.) en Ochtrup is de internationale dienstregeling aangepast."},"cause":{"label":"werkzaamheden"},"additionalTravelTime":{"label":"U heeft geen langere reistijd.","shortLabel":"Geen extra reistijd"},"alternativeTransport":{"label":"er rijden stopbussen","shortLabel":"er rijden stopbussen"},"advices":["Dit kan gevolgen hebben voor uw reis. Plan uw reis in de (Internationale) app."]}],"alternativeTransportTimespans":[{"start":"2023-06-23T21:40:00+0200","end":"2023-06-24T02:00:00+0200","alternativeTransport":{"location":[],"label":"Er rijden stopbussen tussen Gronau (Westf.) en Ochtrup.","shortLabel":"Er rijden stopbussen Gronau (Westf.) - Ochtrup"}}]},{"id":"7003635","type":"MAINTENANCE","registrationTime":"2023-05-31T14:15:40+0200","releaseTime":"2023-05-31T14:15:40+0200","local":false,"title":"Den Haag - Rotterdam; Rotterdam - Dordrecht; Rotterdam - Gouda.","titleSections":[[{"type":"STATION","value":"Den Haag HS"},{"type":"ICON","value":"MAINTENANCE"},{"type":"STATION","value":"Rotterdam C."}],[{"type":"STATION","value":"Rotterdam C."},{"type":"ICON","value":"MAINTENANCE"},{"type":"STATION","value":"Dordrecht"}],[{"type":"STATION","value":"Rotterdam C."},{"type":"ICON","value":"MAINTENANCE"},{"type":"STATION","value":"Gouda"}]],"isActive":false,"start":"2023-06-24T00:30:00+0200","end":"2023-06-24T06:00:00+0200","period":"Zaterdag 24-06-2023 00:30 uur t/m zaterdag 24-06-2023 06:00 uur.","impact":{"value":3},"summaryAdditionalTravelTime":{"label":"De extra reistijd is ongeveer 30 minuten.","shortLabel":"Extra reistijd 30 min.","minimumDurationInMinutes":30,"maximumDurationInMinutes":30},"publicationSections":[{"section":{"stations":[{"uicCode":"8400280","stationCode":"GV","name":"Den Haag HS","coordinate":{"lat":52.0697212219238,"lng":4.32250022888184},"countryCode":"NL"},{"uicCode":"8400279","stationCode":"GVMW","name":"Den Haag Moerwijk","coordinate":{"lat":52.0538902282715,"lng":4.3086109161377},"countryCode":"NL"},{"uicCode":"8400505","stationCode":"RSW","name":"Rijswijk","coordinate":{"lat":52.039722442627,"lng":4.31916666030884},"countryCode":"NL"},{"uicCode":"8400170","stationCode":"DT","name":"Delft","coordinate":{"lat":52.0066680908203,"lng":4.35638904571533},"countryCode":"NL"},{"uicCode":"8400166","stationCode":"DTCP","name":"Delft Campus","coordinate":{"lat":51.9908332824707,"lng":4.36472225189209},"countryCode":"NL"},{"uicCode":"8400553","stationCode":"SDM","name":"Schiedam Centrum","coordinate":{"lat":51.9212438128032,"lng":4.4089937210083},"countryCode":"NL"},{"uicCode":"8400530","stationCode":"RTD","name":"Rotterdam Centraal","coordinate":{"lat":51.9249992370605,"lng":4.46888875961304},"countryCode":"NL"}],"direction":"BOTH"},"consequence":{"section":{"stations":[{"uicCode":"8400280","stationCode":"GV","name":"Den Haag HS","coordinate":{"lat":52.0697212219238,"lng":4.32250022888184},"countryCode":"NL"},{"uicCode":"8400279","stationCode":"GVMW","name":"Den Haag Moerwijk","coordinate":{"lat":52.0538902282715,"lng":4.3086109161377},"countryCode":"NL"},{"uicCode":"8400505","stationCode":"RSW","name":"Rijswijk","coordinate":{"lat":52.039722442627,"lng":4.31916666030884},"countryCode":"NL"},{"uicCode":"8400170","stationCode":"DT","name":"Delft","coordinate":{"lat":52.0066680908203,"lng":4.35638904571533},"countryCode":"NL"},{"uicCode":"8400166","stationCode":"DTCP","name":"Delft Campus","coordinate":{"lat":51.9908332824707,"lng":4.36472225189209},"countryCode":"NL"},{"uicCode":"8400553","stationCode":"SDM","name":"Schiedam Centrum","coordinate":{"lat":51.9212438128032,"lng":4.4089937210083},"countryCode":"NL"},{"uicCode":"8400530","stationCode":"RTD","name":"Rotterdam Centraal","coordinate":{"lat":51.9249992370605,"lng":4.46888875961304},"countryCode":"NL"}],"direction":"ONE_WAY"},"description":"rijden bussen","level":"LESS_TRAINS"},"sectionType":"NL"},{"section":{"stations":[{"uicCode":"8400530","stationCode":"RTD","name":"Rotterdam Centraal","coordinate":{"lat":51.9249992370605,"lng":4.46888875961304},"countryCode":"NL"},{"uicCode":"8400529","stationCode":"RTB","name":"Rotterdam Blaak","coordinate":{"lat":51.9202766418457,"lng":4.48888874053955},"countryCode":"NL"},{"uicCode":"8400533","stationCode":"RTZ","name":"Rotterdam Zuid","coordinate":{"lat":51.9044456481934,"lng":4.51027774810791},"countryCode":"NL"},{"uicCode":"8400542","stationCode":"RLB","name":"Rotterdam Lombardijen","coordinate":{"lat":51.8800010681152,"lng":4.53138875961304},"countryCode":"NL"},{"uicCode":"8400090","stationCode":"BRD","name":"Barendrecht","coordinate":{"lat":51.8547210693359,"lng":4.5533332824707},"countryCode":"NL"},{"uicCode":"8400752","stationCode":"ZWD","name":"Zwijndrecht","coordinate":{"lat":51.814998626709,"lng":4.64166688919067},"countryCode":"NL"},{"uicCode":"8400180","stationCode":"DDR","name":"Dordrecht","coordinate":{"lat":51.8072204589844,"lng":4.66833353042603},"countryCode":"NL"}],"direction":"BOTH"},"consequence":{"section":{"stations":[{"uicCode":"8400530","stationCode":"RTD","name":"Rotterdam Centraal","coordinate":{"lat":51.9249992370605,"lng":4.46888875961304},"countryCode":"NL"},{"uicCode":"8400529","stationCode":"RTB","name":"Rotterdam Blaak","coordinate":{"lat":51.9202766418457,"lng":4.48888874053955},"countryCode":"NL"},{"uicCode":"8400533","stationCode":"RTZ","name":"Rotterdam Zuid","coordinate":{"lat":51.9044456481934,"lng":4.51027774810791},"countryCode":"NL"},{"uicCode":"8400542","stationCode":"RLB","name":"Rotterdam Lombardijen","coordinate":{"lat":51.8800010681152,"lng":4.53138875961304},"countryCode":"NL"},{"uicCode":"8400090","stationCode":"BRD","name":"Barendrecht","coordinate":{"lat":51.8547210693359,"lng":4.5533332824707},"countryCode":"NL"},{"uicCode":"8400752","stationCode":"ZWD","name":"Zwijndrecht","coordinate":{"lat":51.814998626709,"lng":4.64166688919067},"countryCode":"NL"},{"uicCode":"8400180","stationCode":"DDR","name":"Dordrecht","coordinate":{"lat":51.8072204589844,"lng":4.66833353042603},"countryCode":"NL"}],"direction":"ONE_WAY"},"description":"rijden bussen","level":"LESS_TRAINS"},"sectionType":"NL"},{"section":{"stations":[{"uicCode":"8400530","stationCode":"RTD","name":"Rotterdam Centraal","coordinate":{"lat":51.9249992370605,"lng":4.46888875961304},"countryCode":"NL"},{"uicCode":"8400531","stationCode":"RTN","name":"Rotterdam Noord","coordinate":{"lat":51.9422225952148,"lng":4.48166656494141},"countryCode":"NL"},{"uicCode":"8400507","stationCode":"RTA","name":"Rotterdam Alexander","coordinate":{"lat":51.9519462585449,"lng":4.55361127853394},"countryCode":"NL"},{"uicCode":"8400147","stationCode":"CPS","name":"Capelle Schollevaar","coordinate":{"lat":51.9541664123535,"lng":4.58416652679443},"countryCode":"NL"},{"uicCode":"8400455","stationCode":"NWK","name":"Nieuwerkerk a/d IJssel","coordinate":{"lat":51.9652786254883,"lng":4.61694431304932},"countryCode":"NL"},{"uicCode":"8400258","stationCode":"GD","name":"Gouda","coordinate":{"lat":52.0175018310547,"lng":4.70444440841675},"countryCode":"NL"}],"direction":"BOTH"},"consequence":{"section":{"stations":[{"uicCode":"8400530","stationCode":"RTD","name":"Rotterdam Centraal","coordinate":{"lat":51.9249992370605,"lng":4.46888875961304},"countryCode":"NL"},{"uicCode":"8400531","stationCode":"RTN","name":"Rotterdam Noord","coordinate":{"lat":51.9422225952148,"lng":4.48166656494141},"countryCode":"NL"},{"uicCode":"8400507","stationCode":"RTA","name":"Rotterdam Alexander","coordinate":{"lat":51.9519462585449,"lng":4.55361127853394},"countryCode":"NL"},{"uicCode":"8400147","stationCode":"CPS","name":"Capelle Schollevaar","coordinate":{"lat":51.9541664123535,"lng":4.58416652679443},"countryCode":"NL"},{"uicCode":"8400455","stationCode":"NWK","name":"Nieuwerkerk a/d IJssel","coordinate":{"lat":51.9652786254883,"lng":4.61694431304932},"countryCode":"NL"},{"uicCode":"8400258","stationCode":"GD","name":"Gouda","coordinate":{"lat":52.0175018310547,"lng":4.70444440841675},"countryCode":"NL"}],"direction":"ONE_WAY"},"description":"rijden bussen","level":"LESS_TRAINS"},"sectionType":"NL"}],"timespans":[{"start":"2023-06-24T00:30:00+0200","end":"2023-06-24T06:00:00+0200","period":"Zaterdag 24-06-2023 00:30 uur t/m zaterdag 24-06-2023 06:00 uur.","situation":{"label":"Door werkzaamheden: tussen Den Haag HS en Rotterdam Centraal rijden er bussen en tussen Dordrecht en Rotterdam Centraal rijden er bussen en tussen Gouda en Rotterdam Centraal rijden er bussen."},"cause":{"label":"werkzaamheden"},"additionalTravelTime":{"label":"De extra reistijd is ongeveer 30 minuten.","shortLabel":"Extra reistijd 30 min.","minimumDurationInMinutes":30,"maximumDurationInMinutes":30},"alternativeTransport":{"label":"er rijden stop- en snelbussen","shortLabel":"er rijden stop- en snelbussen"},"advices":["Aansluitend  in het weekend geen treinverkeer van/naar Rotterdam Centraal."]}],"alternativeTransportTimespans":[{"start":"2023-06-24T00:30:00+0200","end":"2023-06-24T06:00:00+0200","alternativeTransport":{"location":[{"station":{"uicCode":"8400530","stationCode":"RTD","name":"Rotterdam Centraal","coordinate":{"lat":51.9249992370605,"lng":4.46888875961304},"countryCode":"NL"},"description":"vanaf de Conradstraat aan de centrumzijde"},{"station":{"uicCode":"8400180","stationCode":"DDR","name":"Dordrecht","coordinate":{"lat":51.8072204589844,"lng":4.66833353042603},"countryCode":"NL"},"description":"vanaf de voorzijde van het station"}],"label":"Er rijden snelbussen tussen Rotterdam Centraal en Dordrecht.","shortLabel":"Er rijden snelbussen Rotterdam C. - Dordrecht"}},{"start":"2023-06-24T00:30:00+0200","end":"2023-06-24T01:10:00+0200","alternativeTransport":{"location":[{"station":{"uicCode":"8400170","stationCode":"DT","name":"Delft","coordinate":{"lat":52.0066680908203,"lng":4.35638904571533},"countryCode":"NL"},"description":"vanaf de voorzijde van het station"},{"station":{"uicCode":"8400166","stationCode":"DTCP","name":"Delft Campus","coordinate":{"lat":51.9908332824707,"lng":4.36472225189209},"countryCode":"NL"},"description":"vanaf het Stationsplein"},{"station":{"uicCode":"8400553","stationCode":"SDM","name":"Schiedam Centrum","coordinate":{"lat":51.9212438128032,"lng":4.4089937210083},"countryCode":"NL"},"description":"vanaf de Horvathweg"}],"label":"Er rijden stopbussen van Delft, Delft Campus, Schiedam Centrum naar Rotterdam Centraal.","shortLabel":"Er rijden stopbussen Delft -> Delft Campus -> Schiedam C. -> Rotterdam C."}},{"start":"2023-06-24T00:30:00+0200","end":"2023-06-24T06:00:00+0200","alternativeTransport":{"location":[{"station":{"uicCode":"8400530","stationCode":"RTD","name":"Rotterdam Centraal","coordinate":{"lat":51.9249992370605,"lng":4.46888875961304},"countryCode":"NL"},"description":"vanaf de Conradstraat aan de centrumzijde"},{"station":{"uicCode":"8400170","stationCode":"DT","name":"Delft","coordinate":{"lat":52.0066680908203,"lng":4.35638904571533},"countryCode":"NL"},"description":"vanaf de voorzijde van het station"},{"station":{"uicCode":"8400280","stationCode":"GV","name":"Den Haag HS","coordinate":{"lat":52.0697212219238,"lng":4.32250022888184},"countryCode":"NL"},"description":"vanaf de achterzijde van het station"}],"label":"Er rijden snelbussen tussen Rotterdam Centraal, Delft en Den Haag HS.","shortLabel":"Er rijden snelbussen Rotterdam C. - Delft - Den Haag HS"}},{"start":"2023-06-24T00:50:00+0200","end":"2023-06-24T02:20:00+0200","alternativeTransport":{"location":[{"station":{"uicCode":"8400280","stationCode":"GV","name":"Den Haag HS","coordinate":{"lat":52.0697212219238,"lng":4.32250022888184},"countryCode":"NL"},"description":"vanaf de achterzijde van het station"},{"station":{"uicCode":"8400170","stationCode":"DT","name":"Delft","coordinate":{"lat":52.0066680908203,"lng":4.35638904571533},"countryCode":"NL"},"description":"vanaf de voorzijde van het station"},{"station":{"uicCode":"8400553","stationCode":"SDM","name":"Schiedam Centrum","coordinate":{"lat":51.9212438128032,"lng":4.4089937210083},"countryCode":"NL"},"description":"vanaf de Horvathweg"}],"label":"Er rijden snelbussen van Den Haag HS, Delft, Schiedam Centrum naar Rotterdam Centraal.","shortLabel":"Er rijden snelbussen Den Haag HS -> Delft -> Schiedam C. -> Rotterdam C."}}]},{"id":"7003571","type":"MAINTENANCE","registrationTime":"2023-06-19T09:38:56+0200","releaseTime":"2023-06-19T09:38:56+0200","local":false,"title":"Arnhem - Nijmegen.","titleSections":[[{"type":"STATION","value":"Arnhem C."},{"type":"ICON","value":"MAINTENANCE"},{"type":"STATION","value":"Nijmegen"}]],"isActive":false,"start":"2023-06-24T01:10:00+0200","end":"2023-06-26T02:00:00+0200","period":"Zaterdag 24-06-2023 01:10 uur t/m maandag 26-06-2023 02:00 uur.","impact":{"value":3},"summaryAdditionalTravelTime":{"label":"De extra reistijd is ongeveer 30 minuten.","shortLabel":"Extra reistijd 30 min.","minimumDurationInMinutes":30,"maximumDurationInMinutes":30},"publicationSections":[{"section":{"stations":[{"uicCode":"8400071","stationCode":"AH","name":"Arnhem Centraal","coordinate":{"lat":51.9850006103516,"lng":5.89916658401489},"countryCode":"NL"},{"uicCode":"8400227","stationCode":"AHZ","name":"Arnhem Zuid","coordinate":{"lat":51.9550018310547,"lng":5.85194444656372},"countryCode":"NL"},{"uicCode":"8400207","stationCode":"EST","name":"Elst","coordinate":{"lat":51.9169425964355,"lng":5.85500001907349},"countryCode":"NL"},{"uicCode":"8400451","stationCode":"NML","name":"Nijmegen Lent","coordinate":{"lat":51.863154,"lng":5.859625},"countryCode":"NL"},{"uicCode":"8400470","stationCode":"NM","name":"Nijmegen","coordinate":{"lat":51.8436126708984,"lng":5.85222244262695},"countryCode":"NL"}],"direction":"BOTH"},"consequence":{"section":{"stations":[{"uicCode":"8400071","stationCode":"AH","name":"Arnhem Centraal","coordinate":{"lat":51.9850006103516,"lng":5.89916658401489},"countryCode":"NL"},{"uicCode":"8400227","stationCode":"AHZ","name":"Arnhem Zuid","coordinate":{"lat":51.9550018310547,"lng":5.85194444656372},"countryCode":"NL"},{"uicCode":"8400207","stationCode":"EST","name":"Elst","coordinate":{"lat":51.9169425964355,"lng":5.85500001907349},"countryCode":"NL"},{"uicCode":"8400451","stationCode":"NML","name":"Nijmegen Lent","coordinate":{"lat":51.863154,"lng":5.859625},"countryCode":"NL"},{"uicCode":"8400470","stationCode":"NM","name":"Nijmegen","coordinate":{"lat":51.8436126708984,"lng":5.85222244262695},"countryCode":"NL"}],"direction":"ONE_WAY"},"description":"rijden bussen","level":"LESS_TRAINS"},"sectionType":"NL"}],"timespans":[{"start":"2023-06-24T01:10:00+0200","end":"2023-06-26T02:00:00+0200","period":"Zaterdag 24-06-2023 01:10 uur t/m maandag 26-06-2023 02:00 uur.","situation":{"label":"Door werkzaamheden: tussen Arnhem Centraal en Nijmegen rijden er bussen."},"cause":{"label":"werkzaamheden"},"additionalTravelTime":{"label":"De extra reistijd is ongeveer 30 minuten.","shortLabel":"Extra reistijd 30 min.","minimumDurationInMinutes":30,"maximumDurationInMinutes":30},"alternativeTransport":{"label":"er rijden stop- en snelbussen","shortLabel":"er rijden stop- en snelbussen"},"advices":[]}],"alternativeTransportTimespans":[{"start":"2023-06-24T01:10:00+0200","end":"2023-06-26T02:00:00+0200","alternativeTransport":{"location":[{"station":{"uicCode":"8400071","stationCode":"AH","name":"Arnhem Centraal","coordinate":{"lat":51.9850006103516,"lng":5.89916658401489},"countryCode":"NL"},"description":"vanaf de bus-terminal"},{"station":{"uicCode":"8400227","stationCode":"AHZ","name":"Arnhem Zuid","coordinate":{"lat":51.9550018310547,"lng":5.85194444656372},"countryCode":"NL"},"description":"vanaf de bushalte"},{"station":{"uicCode":"8400207","stationCode":"EST","name":"Elst","coordinate":{"lat":51.9169425964355,"lng":5.85500001907349},"countryCode":"NL"},"description":"vanaf de voorzijde van het station"},{"station":{"uicCode":"8400451","stationCode":"NML","name":"Nijmegen Lent","coordinate":{"lat":51.863154,"lng":5.859625},"countryCode":"NL"},"description":"vanaf het Hertog Eduardplein"},{"station":{"uicCode":"8400470","stationCode":"NM","name":"Nijmegen","coordinate":{"lat":51.8436126708984,"lng":5.85222244262695},"countryCode":"NL"},"description":"vanaf het busstation"}],"label":"Er rijden stopbussen tussen Arnhem Centraal, Arnhem Zuid, Elst, Nijmegen Lent en Nijmegen.","shortLabel":"Er rijden stopbussen Arnhem C. - Arnhem Zuid - Elst - Lent - Nijmegen"}},{"start":"2023-06-24T01:10:00+0200","end":"2023-06-26T02:00:00+0200","alternativeTransport":{"location":[{"station":{"uicCode":"8400071","stationCode":"AH","name":"Arnhem Centraal","coordinate":{"lat":51.9850006103516,"lng":5.89916658401489},"countryCode":"NL"},"description":"vanaf de bus-terminal"},{"station":{"uicCode":"8400470","stationCode":"NM","name":"Nijmegen","coordinate":{"lat":51.8436126708984,"lng":5.85222244262695},"countryCode":"NL"},"description":"vanaf het busstation"}],"label":"Er rijden snelbussen tussen Arnhem Centraal en Nijmegen.","shortLabel":"Er rijden snelbussen Arnhem C. - Nijmegen"}},{"start":"2023-06-24T01:10:00+0200","end":"2023-06-24T03:00:00+0200","alternativeTransport":{"location":[{"station":{"uicCode":"8400071","stationCode":"AH","name":"Arnhem Centraal","coordinate":{"lat":51.9850006103516,"lng":5.89916658401489},"countryCode":"NL"},"description":"vanaf de bus-terminal"},{"station":{"uicCode":"8400207","stationCode":"EST","name":"Elst","coordinate":{"lat":51.9169425964355,"lng":5.85500001907349},"countryCode":"NL"},"description":"vanaf de voorzijde van het station"},{"station":{"uicCode":"8400470","stationCode":"NM","name":"Nijmegen","coordinate":{"lat":51.8436126708984,"lng":5.85222244262695},"countryCode":"NL"},"description":"vanaf het busstation"}],"label":"Er rijden bussen tussen Arnhem Centraal, Elst en Nijmegen.","shortLabel":"Er rijden bussen Arnhem C. - Elst - Nijmegen"}},{"start":"2023-06-25T00:10:00+0200","end":"2023-06-25T03:00:00+0200","alternativeTransport":{"location":[{"station":{"uicCode":"8400071","stationCode":"AH","name":"Arnhem Centraal","coordinate":{"lat":51.9850006103516,"lng":5.89916658401489},"countryCode":"NL"},"description":"vanaf de bus-terminal"},{"station":{"uicCode":"8400207","stationCode":"EST","name":"Elst","coordinate":{"lat":51.9169425964355,"lng":5.85500001907349},"countryCode":"NL"},"description":"vanaf de voorzijde van het station"},{"station":{"uicCode":"8400470","stationCode":"NM","name":"Nijmegen","coordinate":{"lat":51.8436126708984,"lng":5.85222244262695},"countryCode":"NL"},"description":"vanaf het busstation"}],"label":"Er rijden bussen tussen Arnhem Centraal, Elst en Nijmegen.","shortLabel":"Er rijden bussen Arnhem C. - Elst - Nijmegen"}},{"start":"2023-06-26T00:30:00+0200","end":"2023-06-26T02:00:00+0200","alternativeTransport":{"location":[{"station":{"uicCode":"8400071","stationCode":"AH","name":"Arnhem Centraal","coordinate":{"lat":51.9850006103516,"lng":5.89916658401489},"countryCode":"NL"},"description":"vanaf de bus-terminal"},{"station":{"uicCode":"8400207","stationCode":"EST","name":"Elst","coordinate":{"lat":51.9169425964355,"lng":5.85500001907349},"countryCode":"NL"},"description":"vanaf de voorzijde van het station"},{"station":{"uicCode":"8400470","stationCode":"NM","name":"Nijmegen","coordinate":{"lat":51.8436126708984,"lng":5.85222244262695},"countryCode":"NL"},"description":"vanaf het busstation"}],"label":"Er rijden bussen van Arnhem Centraal, Elst naar Nijmegen.","shortLabel":"Er rijden bussen Arnhem C. -> Elst -> Nijmegen"}}]},{"id":"7003469","type":"MAINTENANCE","registrationTime":"2023-06-19T09:39:37+0200","releaseTime":"2023-06-19T09:39:37+0200","local":false,"title":"Amsterdam - Brussel - Paris (HSL).","titleSections":[[{"type":"STATION","value":"Amsterdam C."},{"type":"ICON","value":"MAINTENANCE"},{"type":"STATION","value":"Paris-Nord"}]],"isActive":false,"start":"2023-06-24T04:00:00+0200","end":"2023-06-25T23:59:00+0200","period":"Zaterdag 24-06-2023 04:00 uur t/m zondag 25-06-2023 23:59 uur.","impact":{"value":2},"summaryAdditionalTravelTime":{"label":"U heeft geen langere reistijd.","shortLabel":"Geen extra reistijd"},"publicationSections":[{"section":{"stations":[{"uicCode":"8400058","stationCode":"ASD","name":"Amsterdam Centraal","coordinate":{"lat":52.3788871765137,"lng":4.90027761459351},"countryCode":"NL"},{"uicCode":"8400059","stationCode":"ASS","name":"Amsterdam Sloterdijk","coordinate":{"lat":52.3888893127441,"lng":4.83777761459351},"countryCode":"NL"},{"uicCode":"8400079","stationCode":"ASDL","name":"Amsterdam Lelylaan","coordinate":{"lat":52.3577766418457,"lng":4.83388900756836},"countryCode":"NL"},{"uicCode":"8400561","stationCode":"SHL","name":"Schiphol Airport","coordinate":{"lat":52.3094444274902,"lng":4.76194429397583},"countryCode":"NL"},{"uicCode":"8400332","stationCode":"HFD","name":"Hoofddorp","coordinate":{"lat":52.2933349609375,"lng":4.70055532455444},"countryCode":"NL"},{"uicCode":"8400530","stationCode":"RTD","name":"Rotterdam Centraal","coordinate":{"lat":51.9249992370605,"lng":4.46888875961304},"countryCode":"NL"},{"uicCode":"8400529","stationCode":"RTB","name":"Rotterdam Blaak","coordinate":{"lat":51.9202766418457,"lng":4.48888874053955},"countryCode":"NL"},{"uicCode":"8400533","stationCode":"RTZ","name":"Rotterdam Zuid","coordinate":{"lat":51.9044456481934,"lng":4.51027774810791},"countryCode":"NL"},{"uicCode":"8400542","stationCode":"RLB","name":"Rotterdam Lombardijen","coordinate":{"lat":51.8800010681152,"lng":4.53138875961304},"countryCode":"NL"},{"uicCode":"8821105","stationCode":"NDKP","name":"Noorderkempen","coordinate":{"lat":51.358088,"lng":4.633977},"countryCode":"B"},{"uicCode":"8821063","stationCode":"ATWLB","name":"Antwerpen-Luchtbal","coordinate":{"lat":51.2449375,"lng":4.4251543},"countryCode":"B"},{"uicCode":"8821006","stationCode":"ATW","name":"Antwerpen-Centraal","coordinate":{"lat":51.21686,"lng":4.421242},"countryCode":"B"},{"uicCode":"8821121","stationCode":"BERCH","name":"Antwerpen-Berchem","coordinate":{"lat":51.198914,"lng":4.4332},"countryCode":"B"},{"uicCode":"8822004","stationCode":"MECH","name":"Mechelen","coordinate":{"lat":51.01758,"lng":4.48313},"countryCode":"B"},{"uicCode":"8812005","stationCode":"BRUSN","name":"Brussel-Noord","coordinate":{"lat":50.859658,"lng":4.360854},"countryCode":"B"},{"uicCode":"8813003","stationCode":"BRUSC","name":"Brussel-Centraal","coordinate":{"lat":50.845175,"lng":4.357131},"countryCode":"B"},{"uicCode":"8814001","stationCode":"BRUSZ","name":"Brussel-Zuid Midi","coordinate":{"lat":50.836782,"lng":4.336922},"countryCode":"B"},{"uicCode":"8727100","stationCode":"PARIS","name":"Paris-Nord","coordinate":{"lat":48.87977,"lng":2.35575},"countryCode":"F"}],"direction":"BOTH"},"consequence":{"section":{"stations":[{"uicCode":"8400058","stationCode":"ASD","name":"Amsterdam Centraal","coordinate":{"lat":52.3788871765137,"lng":4.90027761459351},"countryCode":"NL"},{"uicCode":"8400059","stationCode":"ASS","name":"Amsterdam Sloterdijk","coordinate":{"lat":52.3888893127441,"lng":4.83777761459351},"countryCode":"NL"},{"uicCode":"8400079","stationCode":"ASDL","name":"Amsterdam Lelylaan","coordinate":{"lat":52.3577766418457,"lng":4.83388900756836},"countryCode":"NL"},{"uicCode":"8400561","stationCode":"SHL","name":"Schiphol Airport","coordinate":{"lat":52.3094444274902,"lng":4.76194429397583},"countryCode":"NL"},{"uicCode":"8400332","stationCode":"HFD","name":"Hoofddorp","coordinate":{"lat":52.2933349609375,"lng":4.70055532455444},"countryCode":"NL"},{"uicCode":"8400530","stationCode":"RTD","name":"Rotterdam Centraal","coordinate":{"lat":51.9249992370605,"lng":4.46888875961304},"countryCode":"NL"},{"uicCode":"8400529","stationCode":"RTB","name":"Rotterdam Blaak","coordinate":{"lat":51.9202766418457,"lng":4.48888874053955},"countryCode":"NL"},{"uicCode":"8400533","stationCode":"RTZ","name":"Rotterdam Zuid","coordinate":{"lat":51.9044456481934,"lng":4.51027774810791},"countryCode":"NL"},{"uicCode":"8400542","stationCode":"RLB","name":"Rotterdam Lombardijen","coordinate":{"lat":51.8800010681152,"lng":4.53138875961304},"countryCode":"NL"},{"uicCode":"8821105","stationCode":"NDKP","name":"Noorderkempen","coordinate":{"lat":51.358088,"lng":4.633977},"countryCode":"B"},{"uicCode":"8821063","stationCode":"ATWLB","name":"Antwerpen-Luchtbal","coordinate":{"lat":51.2449375,"lng":4.4251543},"countryCode":"B"},{"uicCode":"8821006","stationCode":"ATW","name":"Antwerpen-Centraal","coordinate":{"lat":51.21686,"lng":4.421242},"countryCode":"B"},{"uicCode":"8821121","stationCode":"BERCH","name":"Antwerpen-Berchem","coordinate":{"lat":51.198914,"lng":4.4332},"countryCode":"B"},{"uicCode":"8822004","stationCode":"MECH","name":"Mechelen","coordinate":{"lat":51.01758,"lng":4.48313},"countryCode":"B"},{"uicCode":"8812005","stationCode":"BRUSN","name":"Brussel-Noord","coordinate":{"lat":50.859658,"lng":4.360854},"countryCode":"B"},{"uicCode":"8813003","stationCode":"BRUSC","name":"Brussel-Centraal","coordinate":{"lat":50.845175,"lng":4.357131},"countryCode":"B"},{"uicCode":"8814001","stationCode":"BRUSZ","name":"Brussel-Zuid Midi","coordinate":{"lat":50.836782,"lng":4.336922},"countryCode":"B"},{"uicCode":"8727100","stationCode":"PARIS","name":"Paris-Nord","coordinate":{"lat":48.87977,"lng":2.35575},"countryCode":"F"}],"direction":"ONE_WAY"},"description":"aangepaste internationale dienstregeling","level":"LESS_TRAINS"},"sectionType":"HSL"}],"timespans":[{"start":"2023-06-24T04:00:00+0200","end":"2023-06-25T23:59:00+0200","period":"Zaterdag 24-06-2023 04:00 uur t/m zondag 25-06-2023 23:59 uur.","situation":{"label":"Door werkzaamheden: tussen Amsterdam Centraal en Paris-Nord is de internationale dienstregeling aangepast."},"cause":{"label":"werkzaamheden"},"additionalTravelTime":{"label":"U heeft geen langere reistijd.","shortLabel":"Geen extra reistijd"},"advices":["Thalys stopt niet in Schiphol Airport en Rotterdam Centraal."]}],"alternativeTransportTimespans":[]},{"id":"7003620","type":"MAINTENANCE","registrationTime":"2023-06-19T09:38:15+0200","releaseTime":"2023-06-19T09:38:15+0200","local":false,"title":"Arnhem - Tiel.","titleSections":[[{"type":"STATION","value":"Arnhem C."},{"type":"STATION","value":"Elst"},{"type":"ICON","value":"MAINTENANCE"},{"type":"STATION","value":"Tiel"}]],"isActive":false,"start":"2023-06-24T04:00:00+0200","end":"2023-06-26T02:00:00+0200","period":"Zaterdag 24-06-2023 04:00 uur t/m maandag 26-06-2023 02:00 uur.","impact":{"value":3},"summaryAdditionalTravelTime":{"label":"De extra reistijd kan oplopen tot 15 minuten.","shortLabel":"Extra reistijd tot 15 min.","maximumDurationInMinutes":15},"publicationSections":[{"section":{"stations":[{"uicCode":"8400071","stationCode":"AH","name":"Arnhem Centraal","coordinate":{"lat":51.9850006103516,"lng":5.89916658401489},"countryCode":"NL"},{"uicCode":"8400227","stationCode":"AHZ","name":"Arnhem Zuid","coordinate":{"lat":51.9550018310547,"lng":5.85194444656372},"countryCode":"NL"},{"uicCode":"8400207","stationCode":"EST","name":"Elst","coordinate":{"lat":51.9169425964355,"lng":5.85500001907349},"countryCode":"NL"},{"uicCode":"8400734","stationCode":"ZA","name":"Zetten-Andelst","coordinate":{"lat":51.920056,"lng":5.7228408},"countryCode":"NL"},{"uicCode":"8400315","stationCode":"HMN","name":"Hemmen-Dodewaard","coordinate":{"lat":51.9222129,"lng":5.6737254},"countryCode":"NL"},{"uicCode":"8400494","stationCode":"OP","name":"Opheusden","coordinate":{"lat":51.9261615,"lng":5.6371145},"countryCode":"NL"},{"uicCode":"8400359","stationCode":"KTR","name":"Kesteren","coordinate":{"lat":51.9313869,"lng":5.5833465},"countryCode":"NL"},{"uicCode":"8400596","stationCode":"TL","name":"Tiel","coordinate":{"lat":51.8894462585449,"lng":5.42222213745117},"countryCode":"NL"}],"direction":"BOTH"},"consequence":{"section":{"stations":[{"uicCode":"8400207","stationCode":"EST","name":"Elst","coordinate":{"lat":51.9169425964355,"lng":5.85500001907349},"countryCode":"NL"},{"uicCode":"8400734","stationCode":"ZA","name":"Zetten-Andelst","coordinate":{"lat":51.920056,"lng":5.7228408},"countryCode":"NL"},{"uicCode":"8400315","stationCode":"HMN","name":"Hemmen-Dodewaard","coordinate":{"lat":51.9222129,"lng":5.6737254},"countryCode":"NL"},{"uicCode":"8400494","stationCode":"OP","name":"Opheusden","coordinate":{"lat":51.9261615,"lng":5.6371145},"countryCode":"NL"},{"uicCode":"8400359","stationCode":"KTR","name":"Kesteren","coordinate":{"lat":51.9313869,"lng":5.5833465},"countryCode":"NL"},{"uicCode":"8400596","stationCode":"TL","name":"Tiel","coordinate":{"lat":51.8894462585449,"lng":5.42222213745117},"countryCode":"NL"}],"direction":"ONE_WAY"},"description":"rijden bussen","level":"LESS_TRAINS"},"sectionType":"NL"}],"timespans":[{"start":"2023-06-24T04:00:00+0200","end":"2023-06-26T02:00:00+0200","period":"Zaterdag 24-06-2023 04:00 uur t/m maandag 26-06-2023 02:00 uur.","situation":{"label":"Door werkzaamheden: tussen Elst en Tiel rijden er bussen."},"cause":{"label":"werkzaamheden"},"additionalTravelTime":{"label":"De extra reistijd kan oplopen tot 15 minuten.","shortLabel":"Extra reistijd tot 15 min.","maximumDurationInMinutes":15},"alternativeTransport":{"label":"er rijden stopbussen","shortLabel":"er rijden stopbussen"},"advices":["Maak tussen Arnhem CS en Elst gebruik van de NS bus."]}],"alternativeTransportTimespans":[{"start":"2023-06-24T04:00:00+0200","end":"2023-06-26T02:00:00+0200","alternativeTransport":{"location":[{"station":{"uicCode":"8400207","stationCode":"EST","name":"Elst","coordinate":{"lat":51.9169425964355,"lng":5.85500001907349},"countryCode":"NL"},"description":"vanaf de bushalte"},{"station":{"uicCode":"8400734","stationCode":"ZA","name":"Zetten-Andelst","coordinate":{"lat":51.920056,"lng":5.7228408},"countryCode":"NL"},"description":"vanaf de bushalte"},{"station":{"uicCode":"8400494","stationCode":"OP","name":"Opheusden","coordinate":{"lat":51.9261615,"lng":5.6371145},"countryCode":"NL"},"description":"vanaf de bushalte aan de overkant van de brug"},{"station":{"uicCode":"8400359","stationCode":"KTR","name":"Kesteren","coordinate":{"lat":51.9313869,"lng":5.5833465},"countryCode":"NL"},"description":"vanaf de voorzijde van het station"},{"station":{"uicCode":"8400596","stationCode":"TL","name":"Tiel","coordinate":{"lat":51.8894462585449,"lng":5.42222213745117},"countryCode":"NL"},"description":"vanaf het busstation, aan de treinvervangend vervoer halte"}],"label":"Er rijden stopbussen tussen Elst, Zetten-Andelst, Opheusden, Kesteren en Tiel.","shortLabel":"Er rijden stopbussen Elst - Zetten-Andelst - Opheusden - Kesteren - Tiel"}}]},{"id":"7003671","type":"MAINTENANCE","registrationTime":"2023-06-07T13:28:56+0200","releaseTime":"2023-06-07T13:28:56+0200","local":false,"title":"Amsterdam - Hannover - Berlin.","titleSections":[[{"type":"STATION","value":"Amsterdam C."},{"type":"ICON","value":"MAINTENANCE"},{"type":"STATION","value":"Amersfoort C."},{"type":"STATION","value":"Berlin Hbf"}]],"isActive":false,"start":"2023-06-24T04:00:00+0200","end":"2023-06-26T02:00:00+0200","period":"Zaterdag 24-06-2023 04:00 uur t/m maandag 26-06-2023 02:00 uur.","impact":{"value":2},"summaryAdditionalTravelTime":{"label":"U heeft geen langere reistijd.","shortLabel":"Geen extra reistijd"},"publicationSections":[{"section":{"stations":[{"uicCode":"8400058","stationCode":"ASD","name":"Amsterdam Centraal","coordinate":{"lat":52.3788871765137,"lng":4.90027761459351},"countryCode":"NL"},{"uicCode":"8400060","stationCode":"ASDM","name":"Amsterdam Muiderpoort","coordinate":{"lat":52.3605537414551,"lng":4.93111133575439},"countryCode":"NL"},{"uicCode":"8400235","stationCode":"ASSP","name":"Amsterdam Science Park","coordinate":{"lat":52.35526,"lng":4.94651},"countryCode":"NL"},{"uicCode":"8400165","stationCode":"DMN","name":"Diemen","coordinate":{"lat":52.34515,"lng":4.967566},"countryCode":"NL"},{"uicCode":"8400685","stationCode":"WP","name":"Weesp","coordinate":{"lat":52.3127784729004,"lng":5.04305553436279},"countryCode":"NL"},{"uicCode":"8400452","stationCode":"NDB","name":"Naarden-Bussum","coordinate":{"lat":52.2802772521973,"lng":5.15694427490234},"countryCode":"NL"},{"uicCode":"8400145","stationCode":"BSMZ","name":"Bussum Zuid","coordinate":{"lat":52.2658348083496,"lng":5.16305541992188},"countryCode":"NL"},{"uicCode":"8400324","stationCode":"HVSM","name":"Hilversum Media Park","coordinate":{"lat":52.2380561828613,"lng":5.17388868331909},"countryCode":"NL"},{"uicCode":"8400322","stationCode":"HVS","name":"Hilversum","coordinate":{"lat":52.2258338928223,"lng":5.18194437026978},"countryCode":"NL"},{"uicCode":"8400086","stationCode":"BRN","name":"Baarn","coordinate":{"lat":52.2083320617676,"lng":5.28083324432373},"countryCode":"NL"},{"uicCode":"8400055","stationCode":"AMF","name":"Amersfoort Centraal","coordinate":{"lat":52.1538887023926,"lng":5.37055540084839},"countryCode":"NL"},{"uicCode":"8400490","stationCode":"HVL","name":"Hoevelaken","coordinate":{"lat":52.16652,"lng":5.45718},"countryCode":"NL"},{"uicCode":"8400066","stationCode":"APD","name":"Apeldoorn","coordinate":{"lat":52.2091674804687,"lng":5.97027778625488},"countryCode":"NL"},{"uicCode":"8400229","stationCode":"APDO","name":"Apeldoorn Osseveld","coordinate":{"lat":52.2152786254883,"lng":6.00444459915161},"countryCode":"NL"},{"uicCode":"8400599","stationCode":"TWL","name":"Twello","coordinate":{"lat":52.2377777099609,"lng":6.09861087799072},"countryCode":"NL"},{"uicCode":"8400173","stationCode":"DV","name":"Deventer","coordinate":{"lat":52.2574996948242,"lng":6.16055536270142},"countryCode":"NL"},{"uicCode":"8400185","stationCode":"DVC","name":"Deventer Colmschate","coordinate":{"lat":52.2502784729004,"lng":6.21444463729858},"countryCode":"NL"},{"uicCode":"8400328","stationCode":"HON","name":"Holten","coordinate":{"lat":52.2838897705078,"lng":6.42027759552002},"countryCode":"NL"},{"uicCode":"8400538","stationCode":"RSN","name":"Rijssen","coordinate":{"lat":52.3122215270996,"lng":6.52027797698975},"countryCode":"NL"},{"uicCode":"8400691","stationCode":"WDN","name":"Wierden","coordinate":{"lat":52.3613891601562,"lng":6.59166669845581},"countryCode":"NL"},{"uicCode":"8400051","stationCode":"AML","name":"Almelo","coordinate":{"lat":52.3580551147461,"lng":6.65388870239258},"countryCode":"NL"},{"uicCode":"8400520","stationCode":"AMRI","name":"Almelo de Riet","coordinate":{"lat":52.3419456481934,"lng":6.66666650772095},"countryCode":"NL"},{"uicCode":"8400124","stationCode":"BN","name":"Borne","coordinate":{"lat":52.2988891601562,"lng":6.74805545806885},"countryCode":"NL"},{"uicCode":"8400316","stationCode":"HGL","name":"Hengelo","coordinate":{"lat":52.2616653442383,"lng":6.79388904571533},"countryCode":"NL"},{"uicCode":"8400312","stationCode":"HGLO","name":"Hengelo Oost","coordinate":{"lat":52.2688903808594,"lng":6.81944465637207},"countryCode":"NL"},{"uicCode":"8400483","stationCode":"ODZ","name":"Oldenzaal","coordinate":{"lat":52.3063888549805,"lng":6.93472242355347},"countryCode":"NL"},{"uicCode":"8021156","stationCode":"BH","name":"Bad Bentheim","coordinate":{"lat":52.309685595156,"lng":7.15853691101074},"countryCode":"D"},{"uicCode":"8021067","stationCode":"RHEINE","name":"Rheine","coordinate":{"lat":52.276299,"lng":7.434255},"countryCode":"D"},{"uicCode":"8021025","stationCode":"OSNH","name":"Osnabrück Hbf","coordinate":{"lat":52.272851,"lng":8.061781},"countryCode":"D"},{"uicCode":"8013552","stationCode":"HANN","name":"Hannover Hbf","coordinate":{"lat":52.3770401,"lng":9.7416759},"countryCode":"D"},{"uicCode":"8065969","stationCode":"BERHBL","name":"Berlin Hbf","coordinate":{"lat":52.52503,"lng":13.36946},"countryCode":"D"}],"direction":"BOTH"},"consequence":{"section":{"stations":[{"uicCode":"8400058","stationCode":"ASD","name":"Amsterdam Centraal","coordinate":{"lat":52.3788871765137,"lng":4.90027761459351},"countryCode":"NL"},{"uicCode":"8400060","stationCode":"ASDM","name":"Amsterdam Muiderpoort","coordinate":{"lat":52.3605537414551,"lng":4.93111133575439},"countryCode":"NL"},{"uicCode":"8400235","stationCode":"ASSP","name":"Amsterdam Science Park","coordinate":{"lat":52.35526,"lng":4.94651},"countryCode":"NL"},{"uicCode":"8400165","stationCode":"DMN","name":"Diemen","coordinate":{"lat":52.34515,"lng":4.967566},"countryCode":"NL"},{"uicCode":"8400685","stationCode":"WP","name":"Weesp","coordinate":{"lat":52.3127784729004,"lng":5.04305553436279},"countryCode":"NL"},{"uicCode":"8400452","stationCode":"NDB","name":"Naarden-Bussum","coordinate":{"lat":52.2802772521973,"lng":5.15694427490234},"countryCode":"NL"},{"uicCode":"8400145","stationCode":"BSMZ","name":"Bussum Zuid","coordinate":{"lat":52.2658348083496,"lng":5.16305541992188},"countryCode":"NL"},{"uicCode":"8400324","stationCode":"HVSM","name":"Hilversum Media Park","coordinate":{"lat":52.2380561828613,"lng":5.17388868331909},"countryCode":"NL"},{"uicCode":"8400322","stationCode":"HVS","name":"Hilversum","coordinate":{"lat":52.2258338928223,"lng":5.18194437026978},"countryCode":"NL"},