[{"id":"6029517","isActive":true,"topic":"disruption_6029517_nl","title":"Schiphol Airport","type":"DISRUPTION","registrationTime":"2024-03-11T14:54:23+0100","releaseTime":"2024-03-11T14:54:23+0100","local":false,"titleSections":[[{"type":"STATION","value":"Schiphol Airport"}]],"start":"2024-03-11T11:29:32+0100","end":"2024-03-11T17:00:00+0100","phase":{"id":"3","label":"Vervangend vervoer"},"impact":{"value":4},"expectedDuration":{"description":"Dit duurt tot ongeveer 17:00 uur.","endTime":"2024-03-11T17:00:00+0100"},"publicationSections":[{"section":{"stations":[{"coordinate":{"lat":52.3788871765137,"lng":4.90027761459351},"countryCode":"NL","name":"Amsterdam Centraal","stationCode":"ASD","uicCode":"8400058"},{"coordinate":{"lat":52.3888893127441,"lng":4.83777761459351},"countryCode":"NL","name":"Amsterdam Sloterdijk","stationCode":"ASS","uicCode":"8400059"},{"coordinate":{"lat":52.3577766418457,"lng":4.83388900756836},"countryCode":"NL","name":"Amsterdam Lelylaan","stationCode":"ASDL","uicCode":"8400079"},{"coordinate":{"lat":52.3094444274902,"lng":4.76194429397583},"countryCode":"NL","name":"Schiphol Airport","stationCode":"SHL","uicCode":"8400561"}],"direction":"BOTH"},"consequence":{"section":{"stations":[{"coordinate":{"lat":52.3094444274902,"lng":4.76194429397583},"countryCode":"NL","name":"Schiphol Airport","stationCode":"SHL","uicCode":"8400561"}],"direction":"ONE_WAY"},"description":"veel minder treinen","level":"LESS_TRAINS"},"sectionType":"NL"},{"section":{"stations":[{"coordinate":{"lat":52.3094444274902,"lng":4.76194429397583},"countryCode":"NL","name":"Schiphol Airport","stationCode":"SHL","uicCode":"8400561"},{"coordinate":{"lat":52.338889,"lng":4.872356},"countryCode":"NL","name":"Amsterdam Zuid","stationCode":"ASDZ","uicCode":"8400061"},{"coordinate":{"lat":52.3372230529785,"lng":4.89027786254883},"countryCode":"NL","name":"Amsterdam RAI","stationCode":"RAI","uicCode":"8400056"},{"coordinate":{"lat":52.3233337402344,"lng":4.93638896942139},"countryCode":"NL","name":"Duivendrecht","stationCode":"DVD","uicCode":"8400194"},{"coordinate":{"lat":52.3302764892578,"lng":4.95583343505859},"countryCode":"NL","name":"Diemen Zuid","stationCode":"DMNZ","uicCode":"8400163"},{"coordinate":{"lat":52.3127784729004,"lng":5.04305553436279},"countryCode":"NL","name":"Weesp","stationCode":"WP","uicCode":"8400685"},{"coordinate":{"lat":52.342778,"lng":5.151944},"countryCode":"NL","name":"Almere Poort","stationCode":"AMPO","uicCode":"8400450"},{"coordinate":{"lat":52.3675003051758,"lng":5.19027757644653},"countryCode":"NL","name":"Almere Muziekwijk","stationCode":"ALMM","uicCode":"8400082"},{"coordinate":{"lat":52.37503,"lng":5.21764},"countryCode":"NL","name":"Almere Centrum","stationCode":"ALM","uicCode":"8400080"},{"coordinate":{"lat":52.3766670227051,"lng":5.24472236633301},"countryCode":"NL","name":"Almere Parkwijk","stationCode":"ALMP","uicCode":"8400104"},{"coordinate":{"lat":52.3941650390625,"lng":5.2780556678772},"countryCode":"NL","name":"Almere Buiten","stationCode":"ALMB","uicCode":"8400081"},{"coordinate":{"lat":52.4033317565918,"lng":5.30055570602417},"countryCode":"NL","name":"Almere Oostvaarders","stationCode":"ALMO","uicCode":"8400226"},{"coordinate":{"lat":52.5077781677246,"lng":5.47277784347534},"countryCode":"NL","name":"Lelystad Centrum","stationCode":"LLS","uicCode":"8400394"}],"direction":"BOTH"},"consequence":{"section":{"stations":[{"coordinate":{"lat":52.3094444274902,"lng":4.76194429397583},"countryCode":"NL","name":"Schiphol Airport","stationCode":"SHL","uicCode":"8400561"}],"direction":"ONE_WAY"},"description":"veel minder treinen","level":"LESS_TRAINS"},"sectionType":"NL"},{"section":{"stations":[{"coordinate":{"lat":52.3094444274902,"lng":4.76194429397583},"countryCode":"NL","name":"Schiphol Airport","stationCode":"SHL","uicCode":"8400561"},{"coordinate":{"lat":52.2933349609375,"lng":4.70055532455444},"countryCode":"NL","name":"Hoofddorp","stationCode":"HFD","uicCode":"8400332"},{"coordinate":{"lat":52.2588882446289,"lng":4.64555549621582},"countryCode":"NL","name":"Nieuw Vennep","stationCode":"NVP","uicCode":"8400460"},{"coordinate":{"lat":52.215278,"lng":4.517222},"countryCode":"NL","name":"Sassenheim","stationCode":"SSH","uicCode":"8400603"},{"coordinate":{"lat":52.1661109924316,"lng":4.48166656494141},"countryCode":"NL","name":"Leiden Centraal","stationCode":"LEDN","uicCode":"8400390"}],"direction":"BOTH"},"consequence":{"section":{"stations":[{"coordinate":{"lat":52.3094444274902,"lng":4.76194429397583},"countryCode":"NL","name":"Schiphol Airport","stationCode":"SHL","uicCode":"8400561"}],"direction":"ONE_WAY"},"description":"veel minder treinen","level":"LESS_TRAINS"},"sectionType":"NL"},{"section":{"stations":[{"coordinate":{"lat":52.3094444274902,"lng":4.76194429397583},"countryCode":"NL","name":"Schiphol Airport","stationCode":"SHL","uicCode":"8400561"},{"coordinate":{"lat":52.2933349609375,"lng":4.70055532455444},"countryCode":"NL","name":"Hoofddorp","stationCode":"HFD","uicCode":"8400332"},{"coordinate":{"lat":51.9249992370605,"lng":4.46888875961304},"countryCode":"NL","name":"Rotterdam Centraal","stationCode":"RTD","uicCode":"8400530"}],"direction":"BOTH"},"consequence":{"section":{"stations":[{"coordinate":{"lat":52.3094444274902,"lng":4.76194429397583},"countryCode":"NL","name":"Schiphol Airport","stationCode":"SHL","uicCode":"8400561"}],"direction":"ONE_WAY"},"description":"veel minder treinen","level":"LESS_TRAINS"},"sectionType":"NL"}],"timespans":[{"start":"2024-03-11T11:29:32+0100","end":"2024-03-11T17:00:00+0100","situation":{"label":"Van en naar Schiphol Airport rijden er veel minder treinen door een seinstoring."},"cause":{"label":"Seinstoring"},"alternativeTransport":{"label":"Er rijden zeer beperkt bussen.","shortLabel":"Er rijden zeer beperkt bussen"},"advices":[]}],"alternativeTransportTimespans":[{"start":"2024-03-11T11:29:32+0100","end":"2024-03-11T17:00:00+0100","alternativeTransport":{"location":[{"station":{"coordinate":{"lat":52.1661109924316,"lng":4.48166656494141},"countryCode":"NL","name":"Leiden Centraal","stationCode":"LEDN","uicCode":"8400390"},"description":"vanaf het stadsbusstation"},{"station":{"coordinate":{"lat":52.2588882446289,"lng":4.64555549621582},"countryCode":"NL","name":"Nieuw Vennep","stationCode":"NVP","uicCode":"8400460"},"description":"vanaf de Venneperweg"},{"station":{"coordinate":{"lat":52.215278,"lng":4.517222},"countryCode":"NL","name":"Sassenheim","stationCode":"SSH","uicCode":"8400603"},"description":"vanaf het Stationsplein"},{"station":{"coordinate":{"lat":52.2933349609375,"lng":4.70055532455444},"countryCode":"NL","name":"Hoofddorp","stationCode":"HFD","uicCode":"8400332"},"description":"onder het spoorviaduct"}],"label":"Er rijden zeer beperkt bussen tussen Leiden Centraal, Nieuw Vennep, Sassenheim en Hoofddorp.","shortLabel":"Er rijden zeer beperkt bussen: Leiden C., Nieuw Vennep, Sassenheim, Hoofddorp"}}]},{"id":"6029523","isActive":true,"topic":"disruption_6029523_nl","title":"Schiphol-Utrecht","type":"DISRUPTION","registrationTime":"2024-03-11T15:15:32+0100","releaseTime":"2024-03-11T15:15:32+0100","local":false,"titleSections":[[{"type":"STATION","value":"Schiphol Airport"},{"type":"ICON","value":"DISRUPTION"},{"type":"STATION","value":"Utrecht C."}]],"start":"2024-03-11T14:33:50+0100","end":"2024-03-11T17:15:00+0100","phase":{"id":"2","label":"Impact bekend"},"impact":{"value":2},"expectedDuration":{"description":"Dit duurt tot ongeveer 17:15 uur.","endTime":"2024-03-11T17:15:00+0100"},"publicationSections":[{"section":{"stations":[{"coordinate":{"lat":52.3094444274902,"lng":4.76194429397583},"countryCode":"NL","name":"Schiphol Airport","stationCode":"SHL","uicCode":"8400561"},{"coordinate":{"lat":52.338889,"lng":4.872356},"countryCode":"NL","name":"Amsterdam Zuid","stationCode":"ASDZ","uicCode":"8400061"},{"coordinate":{"lat":52.3372230529785,"lng":4.89027786254883},"countryCode":"NL","name":"Amsterdam RAI","stationCode":"RAI","uicCode":"8400056"},{"coordinate":{"lat":52.3122215270996,"lng":4.94694423675537},"countryCode":"NL","name":"Amsterdam Bijlmer ArenA","stationCode":"ASB","uicCode":"8400074"},{"coordinate":{"lat":52.29844,"lng":4.95972},"countryCode":"NL","name":"Amsterdam Holendrecht","stationCode":"ASHD","uicCode":"8400231"},{"coordinate":{"lat":52.2785,"lng":4.977},"countryCode":"NL","name":"Abcoude","stationCode":"AC","uicCode":"8400047"},{"coordinate":{"lat":52.17149,"lng":4.9906},"countryCode":"NL","name":"Breukelen","stationCode":"BKL","uicCode":"8400133"},{"coordinate":{"lat":52.1352767944336,"lng":5.03361129760742},"countryCode":"NL","name":"Maarssen","stationCode":"MAS","uicCode":"8400419"},{"coordinate":{"lat":52.103055,"lng":5.09},"countryCode":"NL","name":"Utrecht Zuilen","stationCode":"UTZL","uicCode":"8400613"},{"coordinate":{"lat":52.0888900756836,"lng":5.11027765274048},"countryCode":"NL","name":"Utrecht Centraal","stationCode":"UT","uicCode":"8400621"}],"direction":"BOTH"},"consequence":{"section":{"stations":[{"coordinate":{"lat":52.3094444274902,"lng":4.76194429397583},"countryCode":"NL","name":"Schiphol Airport","stationCode":"SHL","uicCode":"8400561"},{"coordinate":{"lat":52.338889,"lng":4.872356},"countryCode":"NL","name":"Amsterdam Zuid","stationCode":"ASDZ","uicCode":"8400061"},{"coordinate":{"lat":52.3372230529785,"lng":4.89027786254883},"countryCode":"NL","name":"Amsterdam RAI","stationCode":"RAI","uicCode":"8400056"},{"coordinate":{"lat":52.3122215270996,"lng":4.94694423675537},"countryCode":"NL","name":"Amsterdam Bijlmer ArenA","stationCode":"ASB","uicCode":"8400074"},{"coordinate":{"lat":52.29844,"lng":4.95972},"countryCode":"NL","name":"Amsterdam Holendrecht","stationCode":"ASHD","uicCode":"8400231"},{"coordinate":{"lat":52.2785,"lng":4.977},"countryCode":"NL","name":"Abcoude","stationCode":"AC","uicCode":"8400047"},{"coordinate":{"lat":52.17149,"lng":4.9906},"countryCode":"NL","name":"Breukelen","stationCode":"BKL","uicCode":"8400133"},{"coordinate":{"lat":52.1352767944336,"lng":5.03361129760742},"countryCode":"NL","name":"Maarssen","stationCode":"MAS","uicCode":"8400419"},{"coordinate":{"lat":52.103055,"lng":5.09},"countryCode":"NL","name":"Utrecht Zuilen","stationCode":"UTZL","uicCode":"8400613"},{"coordinate":{"lat":52.0888900756836,"lng":5.11027765274048},"countryCode":"NL","name":"Utrecht Centraal","stationCode":"UT","uicCode":"8400621"}],"direction":"ONE_WAY"},"description":"minder Intercity's","level":"LESS_TRAINS"},"sectionType":"NL"}],"timespans":[{"start":"2024-03-11T14:33:50+0100","end":"2024-03-11T17:15:00+0100","situation":{"label":"Tussen Schiphol Airport en Utrecht Centraal rijden er minder Intercity's door een wisselstoring."},"cause":{"label":"Wisselstoring"},"additionalTravelTime":{"label":"De extra reistijd kan oplopen tot 15 minuten.","shortLabel":"Extra reistijd tot 15 min.","maximumDurationInMinutes":15},"advices":[]}],"alternativeTransportTimespans":[],"summaryAdditionalTravelTime":{"label":"De extra reistijd kan oplopen tot 15 minuten.","shortLabel":"Extra reistijd tot 15 min.","maximumDurationInMinutes":15}},{"id":"6029522","isActive":true,"topic":"disruption_6029522_nl","title":"Amsterdam-Utrecht","type":"DISRUPTION","registrationTime":"2024-03-11T15:15:36+0100","releaseTime":"2024-03-11T15:15:36+0100","local":false,"titleSections":[[{"type":"STATION","value":"Amsterdam C."},{"type":"ICON","value":"DISRUPTION"},{"type":"STATION","value":"Utrecht C."}]],"start":"2024-03-11T14:33:50+0100","end":"2024-03-11T17:15:00+0100","phase":{"id":"2","label":"Impact bekend"},"impact":{"value":2},"expectedDuration":{"description":"Dit duurt tot ongeveer 17:15 uur.","endTime":"2024-03-11T17:15:00+0100"},"publicationSections":[{"section":{"stations":[{"coordinate":{"lat":52.3788871765137,"lng":4.90027761459351},"countryCode":"NL","name":"Amsterdam Centraal","stationCode":"ASD","uicCode":"8400058"},{"coordinate":{"lat":52.3605537414551,"lng":4.93111133575439},"countryCode":"NL","name":"Amsterdam Muiderpoort","stationCode":"ASDM","uicCode":"8400060"},{"coordinate":{"lat":52.3466682434082,"lng":4.91777801513672},"countryCode":"NL","name":"Amsterdam Amstel","stationCode":"ASA","uicCode":"8400057"},{"coordinate":{"lat":52.3233337402344,"lng":4.93638896942139},"countryCode":"NL","name":"Duivendrecht","stationCode":"DVD","uicCode":"8400194"},{"coordinate":{"lat":52.3122215270996,"lng":4.94694423675537},"countryCode":"NL","name":"Amsterdam Bijlmer ArenA","stationCode":"ASB","uicCode":"8400074"},{"coordinate":{"lat":52.29844,"lng":4.95972},"countryCode":"NL","name":"Amsterdam Holendrecht","stationCode":"ASHD","uicCode":"8400231"},{"coordinate":{"lat":52.2785,"lng":4.977},"countryCode":"NL","name":"Abcoude","stationCode":"AC","uicCode":"8400047"},{"coordinate":{"lat":52.17149,"lng":4.9906},"countryCode":"NL","name":"Breukelen","stationCode":"BKL","uicCode":"8400133"},{"coordinate":{"lat":52.1352767944336,"lng":5.03361129760742},"countryCode":"NL","name":"Maarssen","stationCode":"MAS","uicCode":"8400419"},{"coordinate":{"lat":52.103055,"lng":5.09},"countryCode":"NL","name":"Utrecht Zuilen","stationCode":"UTZL","uicCode":"8400613"},{"coordinate":{"lat":52.0888900756836,"lng":5.11027765274048},"countryCode":"NL","name":"Utrecht Centraal","stationCode":"UT","uicCode":"8400621"}],"direction":"BOTH"},"consequence":{"section":{"stations":[{"coordinate":{"lat":52.3788871765137,"lng":4.90027761459351},"countryCode":"NL","name":"Amsterdam Centraal","stationCode":"ASD","uicCode":"8400058"},{"coordinate":{"lat":52.3605537414551,"lng":4.93111133575439},"countryCode":"NL","name":"Amsterdam Muiderpoort","stationCode":"ASDM","uicCode":"8400060"},{"coordinate":{"lat":52.3466682434082,"lng":4.91777801513672},"countryCode":"NL","name":"Amsterdam Amstel","stationCode":"ASA","uicCode":"8400057"},{"coordinate":{"lat":52.3233337402344,"lng":4.93638896942139},"countryCode":"NL","name":"Duivendrecht","stationCode":"DVD","uicCode":"8400194"},{"coordinate":{"lat":52.3122215270996,"lng":4.94694423675537},"countryCode":"NL","name":"Amsterdam Bijlmer ArenA","stationCode":"ASB","uicCode":"8400074"},{"coordinate":{"lat":52.29844,"lng":4.95972},"countryCode":"NL","name":"Amsterdam Holendrecht","stationCode":"ASHD","uicCode":"8400231"},{"coordinate":{"lat":52.2785,"lng":4.977},"countryCode":"NL","name":"Abcoude","stationCode":"AC","uicCode":"8400047"},{"coordinate":{"lat":52.17149,"lng":4.9906},"countryCode":"NL","name":"Breukelen","stationCode":"BKL","uicCode":"8400133"},{"coordinate":{"lat":52.1352767944336,"lng":5.03361129760742},"countryCode":"NL","name":"Maarssen","stationCode":"MAS","uicCode":"8400419"},{"coordinate":{"lat":52.103055,"lng":5.09},"countryCode":"NL","name":"Utrecht Zuilen","stationCode":"UTZL","uicCode":"8400613"},{"coordinate":{"lat":52.0888900756836,"lng":5.11027765274048},"countryCode":"NL","name":"Utrecht Centraal","stationCode":"UT","uicCode":"8400621"}],"direction":"ONE_WAY"},"description":"minder Intercity's","level":"LESS_TRAINS"},"sectionType":"NL"}],"timespans":[{"start":"2024-03-11T14:33:50+0100","end":"2024-03-11T17:15:00+0100","situation":{"label":"Tussen Amsterdam Centraal en Utrecht Centraal rijden er minder Intercity's door een wisselstoring."},"cause":{"label":"Wisselstoring"},"additionalTravelTime":{"label":"De extra reistijd kan oplopen tot 15 minuten.","shortLabel":"Extra reistijd tot 15 min.","maximumDurationInMinutes":15},"advices":[]}],"alternativeTransportTimespans":[],"summaryAdditionalTravelTime":{"label":"De extra reistijd kan oplopen tot 15 minuten.","shortLabel":"Extra reistijd tot 15 min.","maximumDurationInMinutes":15}},{"id":"6029521","isActive":true,"topic":"disruption_6029521_nl","title":"Utrecht-Tiel; Utrecht-Eindhoven","type":"DISRUPTION","registrationTime":"2024-03-11T15:15:46+0100","releaseTime":"2024-03-11T15:15:46+0100","local":false,"titleSections":[[{"type":"STATION","value":"Utrecht C."},{"type":"ICON","value":"DISRUPTION"},{"type":"STATION","value":"Geldermalsen"},{"type":"STATION","value":"Tiel"}],[{"type":"STATION","value":"Utrecht C."},{"type":"ICON","value":"DISRUPTION"},{"type":"STATION","value":"Geldermalsen"},{"type":"STATION","value":"Eindhoven C."}]],"start":"2024-03-11T14:33:50+0100","end":"2024-03-11T17:15:00+0100","phase":{"id":"2","label":"Impact bekend"},"impact":{"value":2},"expectedDuration":{"description":"Dit duurt tot ongeveer 17:15 uur.","endTime":"2024-03-11T17:15:00+0100"},"publicationSections":[{"section":{"stations":[{"coordinate":{"lat":52.0888900756836,"lng":5.11027765274048},"countryCode":"NL","name":"Utrecht Centraal","stationCode":"UT","uicCode":"8400621"},{"coordinate":{"lat":52.078889,"lng":5.121667},"countryCode":"NL","name":"Utrecht Vaartsche Rijn","stationCode":"UTVR","uicCode":"8400606"},{"coordinate":{"lat":52.0655555725098,"lng":5.14416646957397},"countryCode":"NL","name":"Utrecht Lunetten","stationCode":"UTLN","uicCode":"8400623"},{"coordinate":{"lat":52.03402,"lng":5.16821},"countryCode":"NL","name":"Houten","stationCode":"HTN","uicCode":"8400340"},{"coordinate":{"lat":52.01701,"lng":5.17949},"countryCode":"NL","name":"Houten Castellum","stationCode":"HTNC","uicCode":"8400335"},{"coordinate":{"lat":51.9466667175293,"lng":5.22694444656372},"countryCode":"NL","name":"Culemborg","stationCode":"CL","uicCode":"8400154"},{"coordinate":{"lat":51.88301,"lng":5.27127},"countryCode":"NL","name":"Geldermalsen","stationCode":"GDM","uicCode":"8400244"},{"coordinate":{"lat":51.8738899230957,"lng":5.39222240447998},"countryCode":"NL","name":"Tiel Passewaaij","stationCode":"TPSW","uicCode":"8400600"},{"coordinate":{"lat":51.8894462585449,"lng":5.42222213745117},"countryCode":"NL","name":"Tiel","stationCode":"TL","uicCode":"8400596"}],"direction":"BOTH"},"consequence":{"section":{"stations":[{"coordinate":{"lat":52.0888900756836,"lng":5.11027765274048},"countryCode":"NL","name":"Utrecht Centraal","stationCode":"UT","uicCode":"8400621"},{"coordinate":{"lat":52.078889,"lng":5.121667},"countryCode":"NL","name":"Utrecht Vaartsche Rijn","stationCode":"UTVR","uicCode":"8400606"},{"coordinate":{"lat":52.0655555725098,"lng":5.14416646957397},"countryCode":"NL","name":"Utrecht Lunetten","stationCode":"UTLN","uicCode":"8400623"},{"coordinate":{"lat":52.03402,"lng":5.16821},"countryCode":"NL","name":"Houten","stationCode":"HTN","uicCode":"8400340"},{"coordinate":{"lat":52.01701,"lng":5.17949},"countryCode":"NL","name":"Houten Castellum","stationCode":"HTNC","uicCode":"8400335"},{"coordinate":{"lat":51.9466667175293,"lng":5.22694444656372},"countryCode":"NL","name":"Culemborg","stationCode":"CL","uicCode":"8400154"},{"coordinate":{"lat":51.88301,"lng":5.27127},"countryCode":"NL","name":"Geldermalsen","stationCode":"GDM","uicCode":"8400244"}],"direction":"ONE_WAY"},"description":"veel minder treinen","level":"LESS_TRAINS"},"sectionType":"NL"},{"section":{"stations":[{"coordinate":{"lat":52.0888900756836,"lng":5.11027765274048},"countryCode":"NL","name":"Utrecht Centraal","stationCode":"UT","uicCode":"8400621"},{"coordinate":{"lat":52.078889,"lng":5.121667},"countryCode":"NL","name":"Utrecht Vaartsche Rijn","stationCode":"UTVR","uicCode":"8400606"},{"coordinate":{"lat":52.0655555725098,"lng":5.14416646957397},"countryCode":"NL","name":"Utrecht Lunetten","stationCode":"UTLN","uicCode":"8400623"},{"coordinate":{"lat":52.03402,"lng":5.16821},"countryCode":"NL","name":"Houten","stationCode":"HTN","uicCode":"8400340"},{"coordinate":{"lat":52.01701,"lng":5.17949},"countryCode":"NL","name":"Houten Castellum","stationCode":"HTNC","uicCode":"8400335"},{"coordinate":{"lat":51.9466667175293,"lng":5.22694444656372},"countryCode":"NL","name":"Culemborg","stationCode":"CL","uicCode":"8400154"},{"coordinate":{"lat":51.88301,"lng":5.27127},"countryCode":"NL","name":"Geldermalsen","stationCode":"GDM","uicCode":"8400244"},{"coordinate":{"lat":51.8088874816895,"lng":5.26333332061768},"countryCode":"NL","name":"Zaltbommel","stationCode":"ZBM","uicCode":"8400732"},{"coordinate":{"lat":51.69048,"lng":5.29362},"countryCode":"NL","name":"'s-Hertogenbosch","stationCode":"HT","uicCode":"8400319"},{"coordinate":{"lat":51.6555557250977,"lng":5.29194450378418},"countryCode":"NL","name":"Vught","stationCode":"VG","uicCode":"8400667"},{"coordinate":{"lat":51.58433,"lng":5.31912},"countryCode":"NL","name":"Boxtel","stationCode":"BTL","uicCode":"8400129"},{"coordinate":{"lat":51.5099983215332,"lng":5.38916683197022},"countryCode":"NL","name":"Best","stationCode":"BET","uicCode":"8400112"},{"coordinate":{"lat":51.4511108398438,"lng":5.45583343505859},"countryCode":"NL","name":"Eindhoven Strijp-S","stationCode":"EHS","uicCode":"8400196"},{"coordinate":{"lat":51.4433326721191,"lng":5.48138904571533},"countryCode":"NL","name":"Eindhoven Centraal","stationCode":"EHV","uicCode":"8400206"}],"direction":"BOTH"},"consequence":{"section":{"stations":[{"coordinate":{"lat":52.0888900756836,"lng":5.11027765274048},"countryCode":"NL","name":"Utrecht Centraal","stationCode":"UT","uicCode":"8400621"},{"coordinate":{"lat":52.078889,"lng":5.121667},"countryCode":"NL","name":"Utrecht Vaartsche Rijn","stationCode":"UTVR","uicCode":"8400606"},{"coordinate":{"lat":52.0655555725098,"lng":5.14416646957397},"countryCode":"NL","name":"Utrecht Lunetten","stationCode":"UTLN","uicCode":"8400623"},{"coordinate":{"lat":52.03402,"lng":5.16821},"countryCode":"NL","name":"Houten","stationCode":"HTN","uicCode":"8400340"},{"coordinate":{"lat":52.01701,"lng":5.17949},"countryCode":"NL","name":"Houten Castellum","stationCode":"HTNC","uicCode":"8400335"},{"coordinate":{"lat":51.9466667175293,"lng":5.22694444656372},"countryCode":"NL","name":"Culemborg","stationCode":"CL","uicCode":"8400154"},{"coordinate":{"lat":51.88301,"lng":5.27127},"countryCode":"NL","name":"Geldermalsen","stationCode":"GDM","uicCode":"8400244"}],"direction":"ONE_WAY"},"description":"veel minder treinen","level":"LESS_TRAINS"},"sectionType":"NL"}],"timespans":[{"start":"2024-03-11T14:33:50+0100","end":"2024-03-11T17:15:00+0100","situation":{"label":"Tussen Utrecht Centraal en Geldermalsen rijden er veel minder treinen door een wisselstoring."},"cause":{"label":"Wisselstoring"},"advices":[]}],"alternativeTransportTimespans":[]},{"id":"2544b243-cd76-4d97-821d-c95778f19d41","isActive":true,"title":"Staking Duitsland","topic":"disruption_2544b243-cd76-4d97-821d-c95778f19d41_nl","type":"CALAMITY","description":"Van dinsdag 12 maart t/m woensdag 13 maart zijn er stakingen aangekondigd in het openbaar vervoer in Duitsland. Houd rekening met uitval van treinen. Kijk voor meer informatie op de site van NS International.","priority":"PRIO_3","lastUpdated":"2024-03-11T11:04:00+0100","bodyItems":[],"buttons":{"position":["BOTTOM"],"items":[{"label":"Plan je reis","accessibilityLabel":"Plan je reis","url":"https://www.nsinternational.com/nl/actuele-reisinformatie#Staking_Duitsland","type":"EXTERNAL"}]},"url":"https://www.ns.nl/reisinformatie/calamiteiten/staking-duitsland.html"},{"id":"7004492","isActive":true,"title":"Groningen - Leer.","type":"MAINTENANCE","registrationTime":"2024-02-28T08:58:24+0100","releaseTime":"2024-02-28T08:58:24+0100","local":false,"titleSections":[[{"type":"STATION","value":"Groningen"},{"type":"STATION","value":"Bad Nieuweschans"},{"type":"ICON","value":"MAINTENANCE"},{"type":"STATION","value":"Weener"},{"type":"STATION","value":"Leer (Ostfr.)"}]],"start":"2024-02-01T04:00:00+0100","end":"2024-12-14T23:59:00+0100","period":"Donderdag 1 februari 4:00 uur t/m zaterdag 14 december 23:59 uur.","impact":{"value":3},"publicationSections":[{"section":{"stations":[{"coordinate":{"lat":53.2105560302734,"lng":6.56472206115723},"countryCode":"NL","name":"Groningen","stationCode":"GN","uicCode":"8400263"},{"coordinate":{"lat":53.20480027,"lng":6.5854178},"countryCode":"NL","name":"Groningen Europapark","stationCode":"GERP","uicCode":"8400238"},{"coordinate":{"lat":53.1617362,"lng":6.7220882},"countryCode":"NL","name":"Kropswolde","stationCode":"KW","uicCode":"8400369"},{"coordinate":{"lat":53.1607232,"lng":6.7402989},"countryCode":"NL","name":"Martenshoek","stationCode":"MTH","uicCode":"8400430"},{"coordinate":{"lat":53.1598181316756,"lng":6.77075386047363},"countryCode":"NL","name":"Hoogezand-Sappemeer","stationCode":"HGZ","uicCode":"8400331"},{"coordinate":{"lat":53.1596122800056,"lng":6.8679141998291},"countryCode":"NL","name":"Zuidbroek","stationCode":"ZB","uicCode":"8400742"},{"coordinate":{"lat":53.1655362,"lng":6.9777775},"countryCode":"NL","name":"Scheemda","stationCode":"SDA","uicCode":"8400551"},{"coordinate":{"lat":53.1392377,"lng":7.035101},"countryCode":"NL","name":"Winschoten","stationCode":"WS","uicCode":"8400696"},{"coordinate":{"lat":53.1844,"lng":7.19937},"countryCode":"NL","name":"Bad Nieuweschans","stationCode":"NSCH","uicCode":"8400457"},{"coordinate":{"lat":53.16311,"lng":7.3442},"countryCode":"D","name":"Weener","stationCode":"WR","uicCode":"8021239"},{"coordinate":{"lat":53.23165,"lng":7.465283},"countryCode":"D","name":"Leer (Ostfriesl)","stationCode":"LEER","uicCode":"8021091"}],"direction":"BOTH"},"consequence":{"section":{"stations":[{"coordinate":{"lat":53.1844,"lng":7.19937},"countryCode":"NL","name":"Bad Nieuweschans","stationCode":"NSCH","uicCode":"8400457"},{"coordinate":{"lat":53.16311,"lng":7.3442},"countryCode":"D","name":"Weener","stationCode":"WR","uicCode":"8021239"}],"direction":"ONE_WAY"},"description":"rijden bussen","level":"LESS_TRAINS"},"sectionType":"NEIGHBORING_COUNTRY"}],"timespans":[{"start":"2024-02-01T04:00:00+0100","end":"2024-12-14T23:59:00+0100","period":"Donderdag 1 februari 4:00 uur t/m zaterdag 14 december 23:59 uur.","situation":{"label":"Door werkzaamheden: tussen Bad Nieuweschans en Weener rijden er bussen."},"cause":{"label":"werkzaamheden"},"additionalTravelTime":{"label":"De extra reistijd kan oplopen tot 30 minuten.","shortLabel":"extra reistijd tot 30 min.","maximumDurationInMinutes":30},"alternativeTransport":{"label":"er rijden stopbussen","shortLabel":"er rijden stopbussen"},"advices":[]}],"alternativeTransportTimespans":[{"start":"2024-02-01T04:00:00+0100","end":"2024-12-14T23:59:00+0100","alternativeTransport":{"location":[{"station":{"coordinate":{"lat":53.1844,"lng":7.19937},"countryCode":"NL","name":"Bad Nieuweschans","stationCode":"NSCH","uicCode":"8400457"},"description":"vanaf de voorzijde van het station"},{"station":{"coordinate":{"lat":53.16311,"lng":7.3442},"countryCode":"D","name":"Weener","stationCode":"WR","uicCode":"8021239"},"description":"vanaf de voorzijde van het station"},{"station":{"coordinate":{"lat":53.23165,"lng":7.465283},"countryCode":"D","name":"Leer (Ostfriesl)","stationCode":"LEER","uicCode":"8021091"},"description":"vanaf het busstation"}],"label":"Er rijden stopbussen tussen Bad Nieuweschans, Weener en Leer (Ostfriesl).","shortLabel":"er rijden stopbussen Bad Nieuweschans - Weener - Leer (Ostfr.)"}}],"summaryAdditionalTravelTime":{"label":"De extra reistijd kan oplopen tot 30 minuten.","shortLabel":"extra reistijd tot 30 min.","maximumDurationInMinutes":30}},{"id":"7004650","isActive":true,"title":"Amsterdam - Rotterdam - Breda.","type":"MAINTENANCE","registrationTime":"2024-03-11T02:03:36+0100","releaseTime":"2024-03-11T02:03:36+0100","local":false,"titleSections":[[{"type":"STATION","value":"Amsterdam C."},{"type":"ICON","value":"MAINTENANCE"},{"type":"STATION","value":"Breda"}]],"start":"2024-02-27T16:45:00+0100","end":"2024-04-15T02:00:00+0200","period":"Dinsdag 27 februari 16:45 uur t/m maandag 15 april 2:00 uur.","impact":{"value":2},"publicationSections":[{"section":{"stations":[{"coordinate":{"lat":52.3788871765137,"lng":4.90027761459351},"countryCode":"NL","name":"Amsterdam Centraal","stationCode":"ASD","uicCode":"8400058"},{"coordinate":{"lat":52.3888893127441,"lng":4.83777761459351},"countryCode":"NL","name":"Amsterdam Sloterdijk","stationCode":"ASS","uicCode":"8400059"},{"coordinate":{"lat":52.3577766418457,"lng":4.83388900756836},"countryCode":"NL","name":"Amsterdam Lelylaan","stationCode":"ASDL","uicCode":"8400079"},{"coordinate":{"lat":52.3094444274902,"lng":4.76194429397583},"countryCode":"NL","name":"Schiphol Airport","stationCode":"SHL","uicCode":"8400561"},{"coordinate":{"lat":52.2933349609375,"lng":4.70055532455444},"countryCode":"NL","name":"Hoofddorp","stationCode":"HFD","uicCode":"8400332"},{"coordinate":{"lat":51.9249992370605,"lng":4.46888875961304},"countryCode":"NL","name":"Rotterdam Centraal","stationCode":"RTD","uicCode":"8400530"},{"coordinate":{"lat":51.9202766418457,"lng":4.48888874053955},"countryCode":"NL","name":"Rotterdam Blaak","stationCode":"RTB","uicCode":"8400529"},{"coordinate":{"lat":51.9044456481934,"lng":4.51027774810791},"countryCode":"NL","name":"Rotterdam Zuid","stationCode":"RTZ","uicCode":"8400533"},{"coordinate":{"lat":51.8800010681152,"lng":4.53138875961304},"countryCode":"NL","name":"Rotterdam Lombardijen","stationCode":"RLB","uicCode":"8400542"},{"coordinate":{"lat":51.606388092041,"lng":4.72083330154419},"countryCode":"NL","name":"Breda-Prinsenbeek","stationCode":"BDPB","uicCode":"8400132"},{"coordinate":{"lat":51.5955543518066,"lng":4.78000020980835},"countryCode":"NL","name":"Breda","stationCode":"BD","uicCode":"8400131"}],"direction":"BOTH"},"consequence":{"section":{"stations":[{"coordinate":{"lat":52.3788871765137,"lng":4.90027761459351},"countryCode":"NL","name":"Amsterdam Centraal","stationCode":"ASD","uicCode":"8400058"},{"coordinate":{"lat":52.3888893127441,"lng":4.83777761459351},"countryCode":"NL","name":"Amsterdam Sloterdijk","stationCode":"ASS","uicCode":"8400059"},{"coordinate":{"lat":52.3577766418457,"lng":4.83388900756836},"countryCode":"NL","name":"Amsterdam Lelylaan","stationCode":"ASDL","uicCode":"8400079"},{"coordinate":{"lat":52.3094444274902,"lng":4.76194429397583},"countryCode":"NL","name":"Schiphol Airport","stationCode":"SHL","uicCode":"8400561"},{"coordinate":{"lat":52.2933349609375,"lng":4.70055532455444},"countryCode":"NL","name":"Hoofddorp","stationCode":"HFD","uicCode":"8400332"},{"coordinate":{"lat":51.9249992370605,"lng":4.46888875961304},"countryCode":"NL","name":"Rotterdam Centraal","stationCode":"RTD","uicCode":"8400530"},{"coordinate":{"lat":51.9202766418457,"lng":4.48888874053955},"countryCode":"NL","name":"Rotterdam Blaak","stationCode":"RTB","uicCode":"8400529"},{"coordinate":{"lat":51.9044456481934,"lng":4.51027774810791},"countryCode":"NL","name":"Rotterdam Zuid","stationCode":"RTZ","uicCode":"8400533"},{"coordinate":{"lat":51.8800010681152,"lng":4.53138875961304},"countryCode":"NL","name":"Rotterdam Lombardijen","stationCode":"RLB","uicCode":"8400542"},{"coordinate":{"lat":51.606388092041,"lng":4.72083330154419},"countryCode":"NL","name":"Breda-Prinsenbeek","stationCode":"BDPB","uicCode":"8400132"},{"coordinate":{"lat":51.5955543518066,"lng":4.78000020980835},"countryCode":"NL","name":"Breda","stationCode":"BD","uicCode":"8400131"}],"direction":"ONE_WAY"},"description":"minder IC direct treinen","level":"LESS_TRAINS"},"sectionType":"HSL"}],"timespans":[{"start":"2024-02-27T16:45:00+0100","end":"2024-04-15T02:00:00+0200","period":"Dinsdag 27 februari 16:45 uur t/m maandag 15 april 2:00 uur.","situation":{"label":"Door beperkingen in de materieelinzet: tussen Amsterdam Centraal en Breda rijden er minder IC direct treinen."},"cause":{"label":"beperkingen materieel"},"additionalTravelTime":{"label":"De extra reistijd kan oplopen tot 30 minuten.","shortLabel":"extra reistijd tot 30 min.","maximumDurationInMinutes":30},"advices":["De reisplanner wordt per dag bijgewerkt. Plan uw reis in de app."]}],"alternativeTransportTimespans":[],"summaryAdditionalTravelTime":{"label":"De extra reistijd kan oplopen tot 30 minuten.","shortLabel":"extra reistijd tot 30 min.","maximumDurationInMinutes":30}},{"id":"7004506","isActive":true,"title":"Eindhoven - Venlo.","type":"MAINTENANCE","registrationTime":"2024-02-06T10:57:03+0100","releaseTime":"2024-02-06T10:57:03+0100","local":false,"titleSections":[[{"type":"STATION","value":"Eindhoven C."},{"type":"ICON","value":"MAINTENANCE"},{"type":"STATION","value":"Venlo"}]],"start":"2024-03-09T04:00:00+0100","end":"2024-03-18T02:00:00+0100","period":"Zaterdag 9 maart 4:00 uur t/m maandag 18 maart 2:00 uur.","impact":{"value":5},"publicationSections":[{"section":{"stations":[{"coordinate":{"lat":51.4433326721191,"lng":5.48138904571533},"countryCode":"NL","name":"Eindhoven Centraal","stationCode":"EHV","uicCode":"8400206"},{"coordinate":{"lat":51.4622230529785,"lng":5.60722208023071},"countryCode":"NL","name":"Helmond Brandevoort","stationCode":"HMBV","uicCode":"8400242"},{"coordinate":{"lat":51.46794,"lng":5.63085},"countryCode":"NL","name":"Helmond 't Hout","stationCode":"HMH","uicCode":"8400300"},{"coordinate":{"lat":51.4755554199219,"lng":5.66194438934326},"countryCode":"NL","name":"Helmond","stationCode":"HM","uicCode":"8400313"},{"coordinate":{"lat":51.47068,"lng":5.70177},"countryCode":"NL","name":"Helmond Brouwhuis","stationCode":"HMBH","uicCode":"8400299"},{"coordinate":{"lat":51.4558334350586,"lng":5.78888893127441},"countryCode":"NL","name":"Deurne","stationCode":"DN","uicCode":"8400172"},{"coordinate":{"lat":51.4263877868652,"lng":6.04222202301025},"countryCode":"NL","name":"Horst-Sevenum","stationCode":"HRT","uicCode":"8400339"},{"coordinate":{"lat":51.372501373291,"lng":6.15500020980835},"countryCode":"NL","name":"Blerick","stationCode":"BR","uicCode":"8400117"},{"coordinate":{"lat":51.3636093139648,"lng":6.17277765274048},"countryCode":"NL","name":"Venlo","stationCode":"VL","uicCode":"8400644"}],"direction":"BOTH"},"consequence":{"section":{"stations":[{"coordinate":{"lat":51.4433326721191,"lng":5.48138904571533},"countryCode":"NL","name":"Eindhoven Centraal","stationCode":"EHV","uicCode":"8400206"},{"coordinate":{"lat":51.4622230529785,"lng":5.60722208023071},"countryCode":"NL","name":"Helmond Brandevoort","stationCode":"HMBV","uicCode":"8400242"},{"coordinate":{"lat":51.46794,"lng":5.63085},"countryCode":"NL","name":"Helmond 't Hout","stationCode":"HMH","uicCode":"8400300"},{"coordinate":{"lat":51.4755554199219,"lng":5.66194438934326},"countryCode":"NL","name":"Helmond","stationCode":"HM","uicCode":"8400313"},{"coordinate":{"lat":51.47068,"lng":5.70177},"countryCode":"NL","name":"Helmond Brouwhuis","stationCode":"HMBH","uicCode":"8400299"},{"coordinate":{"lat":51.4558334350586,"lng":5.78888893127441},"countryCode":"NL","name":"Deurne","stationCode":"DN","uicCode":"8400172"},{"coordinate":{"lat":51.4263877868652,"lng":6.04222202301025},"countryCode":"NL","name":"Horst-Sevenum","stationCode":"HRT","uicCode":"8400339"},{"coordinate":{"lat":51.372501373291,"lng":6.15500020980835},"countryCode":"NL","name":"Blerick","stationCode":"BR","uicCode":"8400117"},{"coordinate":{"lat":51.3636093139648,"lng":6.17277765274048},"countryCode":"NL","name":"Venlo","stationCode":"VL","uicCode":"8400644"}],"direction":"ONE_WAY"},"description":"rijden bussen","level":"LESS_TRAINS"},"sectionType":"NL"}],"timespans":[{"start":"2024-03-09T04:00:00+0100","end":"2024-03-18T02:00:00+0100","period":"Zaterdag 9 maart 4:00 uur t/m maandag 18 maart 2:00 uur.","situation":{"label":"Door werkzaamheden: tussen Eindhoven Centraal en Venlo rijden er bussen."},"cause":{"label":"werkzaamheden"},"additionalTravelTime":{"label":"De extra reistijd kan oplopen tot 30 minuten.","shortLabel":"extra reistijd tot 30 min.","maximumDurationInMinutes":30},"alternativeTransport":{"label":"er rijden stop- en snelbussen","shortLabel":"er rijden stop- en snelbussen"},"advices":[]}],"alternativeTransportTimespans":[{"start":"2024-03-09T04:00:00+0100","end":"2024-03-11T01:59:00+0100","alternativeTransport":{"location":[{"station":{"coordinate":{"lat":51.4755554199219,"lng":5.66194438934326},"countryCode":"NL","name":"Helmond","stationCode":"HM","uicCode":"8400313"},"description":"vanaf de achterzijde van het station"},{"station":{"coordinate":{"lat":51.46794,"lng":5.63085},"countryCode":"NL","name":"Helmond 't Hout","stationCode":"HMH","uicCode":"8400300"},"description":"vanaf de zijde Meester Stikkerplein"},{"station":{"coordinate":{"lat":51.4622230529785,"lng":5.60722208023071},"countryCode":"NL","name":"Helmond Brandevoort","stationCode":"HMBV","uicCode":"8400242"},"description":"vanaf de achterzijde van het station"}],"label":"Er rijden stopbussen tussen Helmond, Helmond 't Hout en Helmond Brandevoort.","shortLabel":"er rijden stopbussen Helmond - 't Hout - Brandevoort"}},{"start":"2024-03-09T04:00:00+0100","end":"2024-03-11T01:59:00+0100","alternativeTransport":{"location":[{"station":{"coordinate":{"lat":51.4433326721191,"lng":5.48138904571533},"countryCode":"NL","name":"Eindhoven Centraal","stationCode":"EHV","uicCode":"8400206"},"description":"vanaf het Beursplein, aan de achterzijde van het station"},{"station":{"coordinate":{"lat":51.4755554199219,"lng":5.66194438934326},"countryCode":"NL","name":"Helmond","stationCode":"HM","uicCode":"8400313"},"description":"vanaf de achterzijde van het station"}],"label":"Er rijden snelbussen tussen Eindhoven Centraal en Helmond.","shortLabel":"er rijden snelbussen Eindhoven C. - Helmond"}},{"start":"2024-03-09T04:00:00+0100","end":"2024-03-11T01:59:00+0100","alternativeTransport":{"location":[{"station":{"coordinate":{"lat":51.4433326721191,"lng":5.48138904571533},"countryCode":"NL","name":"Eindhoven Centraal","stationCode":"EHV","uicCode":"8400206"},"description":"vanaf het Beursplein, aan de achterzijde van het station"},{"station":{"coordinate":{"lat":51.4755554199219,"lng":5.66194438934326},"countryCode":"NL","name":"Helmond","stationCode":"HM","uicCode":"8400313"},"description":"vanaf de achterzijde van het station"},{"station":{"coordinate":{"lat":51.3636093139648,"lng":6.17277765274048},"countryCode":"NL","name":"Venlo","stationCode":"VL","uicCode":"8400644"},"description":"vanaf het busstation"}],"label":"Er rijden snelbussen tussen Eindhoven Centraal, Helmond en Venlo.","shortLabel":"er rijden snelbussen Eindhoven C. - Helmond - Venlo"}},{"start":"2024-03-09T04:00:00+0100","end":"2024-03-11T01:59:00+0100","alternativeTransport":{"location":[{"station":{"coordinate":{"lat":51.4755554199219,"lng":5.66194438934326},"countryCode":"NL","name":"Helmond","stationCode":"HM","uicCode":"8400313"},"description":"vanaf de achterzijde van het station"},{"station":{"coordinate":{"lat":51.47068,"lng":5.70177},"countryCode":"NL","name":"Helmond Brouwhuis","stationCode":"HMBH","uicCode":"8400299"},"description":"vanaf de voorzijde van het station"},{"station":{"coordinate":{"lat":51.4558334350586,"lng":5.78888893127441},"countryCode":"NL","name":"Deurne","stationCode":"DN","uicCode":"8400172"},"description":"vanaf de voorzijde, aan het stationsplein"},{"station":{"coordinate":{"lat":51.4263877868652,"lng":6.04222202301025},"countryCode":"NL","name":"Horst-Sevenum","stationCode":"HRT","uicCode":"8400339"},"description":"vanaf de achterzijde van het station"},{"station":{"coordinate":{"lat":51.372501373291,"lng":6.15500020980835},"countryCode":"NL","name":"Blerick","stationCode":"BR","uicCode":"8400117"},"description":"vanaf de bushalte, centrumzijde"},{"station":{"coordinate":{"lat":51.3636093139648,"lng":6.17277765274048},"countryCode":"NL","name":"Venlo","stationCode":"VL","uicCode":"8400644"},"description":"vanaf het busstation"}],"label":"Er rijden stopbussen tussen Helmond, Helmond Brouwhuis, Deurne, Horst-Sevenum, Blerick en Venlo.","shortLabel":"er rijden stopbussen Helmond - Brouwhuis - Deurne - Horst-Sevenum - Blerick - Venlo"}},{"start":"2024-03-11T02:00:00+0100","end":"2024-03-18T02:00:00+0100","alternativeTransport":{"location":[{"station":{"coordinate":{"lat":51.4433326721191,"lng":5.48138904571533},"countryCode":"NL","name":"Eindhoven Centraal","stationCode":"EHV","uicCode":"8400206"},"description":"vanaf het Beursplein, aan de achterzijde van het station"},{"station":{"coordinate":{"lat":51.4755554199219,"lng":5.66194438934326},"countryCode":"NL","name":"Helmond","stationCode":"HM","uicCode":"8400313"},"description":"vanaf de achterzijde van het station"},{"station":{"coordinate":{"lat":51.47068,"lng":5.70177},"countryCode":"NL","name":"Helmond Brouwhuis","stationCode":"HMBH","uicCode":"8400299"},"description":"vanaf de voorzijde van het station"},{"station":{"coordinate":{"lat":51.4558334350586,"lng":5.78888893127441},"countryCode":"NL","name":"Deurne","stationCode":"DN","uicCode":"8400172"},"description":"vanaf de voorzijde, aan het stationsplein"}],"label":"Er rijden stopbussen tussen Eindhoven Centraal, Helmond, Helmond Brouwhuis en Deurne.","shortLabel":"er rijden stopbussen Eindhoven C. - Helmond - Brouwhuis - Deurne"}},{"start":"2024-03-11T02:00:00+0100","end":"2024-03-18T02:00:00+0100","alternativeTransport":{"location":[{"station":{"coordinate":{"lat":51.4433326721191,"lng":5.48138904571533},"countryCode":"NL","name":"Eindhoven Centraal","stationCode":"EHV","uicCode":"8400206"},"description":"vanaf het Beursplein, aan de achterzijde van het station"},{"station":{"coordinate":{"lat":51.4755554199219,"lng":5.66194438934326},"countryCode":"NL","name":"Helmond","stationCode":"HM","uicCode":"8400313"},"description":"vanaf de achterzijde van het station"}],"label":"Er rijden snelbussen tussen Eindhoven Centraal en Helmond.","shortLabel":"er rijden snelbussen Eindhoven C. - Helmond"}},{"start":"2024-03-11T02:00:00+0100","end":"2024-03-18T02:00:00+0100","alternativeTransport":{"location":[{"station":{"coordinate":{"lat":51.4433326721191,"lng":5.48138904571533},"countryCode":"NL","name":"Eindhoven Centraal","stationCode":"EHV","uicCode":"8400206"},"description":"vanaf het Beursplein, aan de achterzijde van het station"},{"station":{"coordinate":{"lat":51.4755554199219,"lng":5.66194438934326},"countryCode":"NL","name":"Helmond","stationCode":"HM","uicCode":"8400313"},"description":"vanaf de achterzijde van het station"},{"station":{"coordinate":{"lat":51.3636093139648,"lng":6.17277765274048},"countryCode":"NL","name":"Venlo","stationCode":"VL","uicCode":"8400644"},"description":"vanaf het busstation"}],"label":"Er rijden snelbussen tussen Eindhoven Centraal, Helmond en Venlo.","shortLabel":"er rijden snelbussen Eindhoven C. - Helmond - Venlo"}},{"start":"2024-03-11T02:00:00+0100","end":"2024-03-18T02:00:00+0100","alternativeTransport":{"location":[{"station":{"coordinate":{"lat":51.4755554199219,"lng":5.66194438934326},"countryCode":"NL","name":"Helmond","stationCode":"HM","uicCode":"8400313"},"description":"vanaf de achterzijde van het station"},{"station":{"coordinate":{"lat":51.46794,"lng":5.63085},"countryCode":"NL","name":"Helmond 't Hout","stationCode":"HMH","uicCode":"8400300"},"description":"vanaf de zijde Meester Stikkerplein"},{"station":{"coordinate":{"lat":51.4622230529785,"lng":5.60722208023071},"countryCode":"NL","name":"Helmond Brandevoort","stationCode":"HMBV","uicCode":"8400242"},"description":"vanaf de achterzijde van het station"}],"label":"Er rijden stopbussen tussen Helmond, Helmond 't Hout en Helmond Brandevoort.","shortLabel":"er rijden stopbussen Helmond - 't Hout - Brandevoort"}},{"start":"2024-03-11T02:00:00+0100","end":"2024-03-18T02:00:00+0100","alternativeTransport":{"location":[{"station":{"coordinate":{"lat":51.4558334350586,"lng":5.78888893127441},"countryCode":"NL","name":"Deurne","stationCode":"DN","uicCode":"8400172"},"description":"vanaf de voorzijde, aan het stationsplein"},{"station":{"coordinate":{"lat":51.4263877868652,"lng":6.04222202301025},"countryCode":"NL","name":"Horst-Sevenum","stationCode":"HRT","uicCode":"8400339"},"description":"vanaf de achterzijde van het station"},{"station":{"coordinate":{"lat":51.372501373291,"lng":6.15500020980835},"countryCode":"NL","name":"Blerick","stationCode":"BR","uicCode":"8400117"},"description":"vanaf de bushalte, centrumzijde"},{"station":{"coordinate":{"lat":51.3636093139648,"lng":6.17277765274048},"countryCode":"NL","name":"Venlo","stationCode":"VL","uicCode":"8400644"},"description":"vanaf de voorzijde van het station"}],"label":"Er rijden stopbussen tussen Deurne, Horst-Sevenum, Blerick en Venlo.","shortLabel":"er rijden stopbussen Deurne - Horst-Sevenum - Blerick - Venlo"}}],"summaryAdditionalTravelTime":{"label":"De extra reistijd kan oplopen tot 30 minuten.","shortLabel":"extra reistijd tot 30 min.","maximumDurationInMinutes":30}},{"id":"7004529","isActive":true,"title":"Leiden - Den Haag.","type":"MAINTENANCE","registrationTime":"2024-03-11T07:13:39+0100","releaseTime":"2024-03-11T07:13:39+0100","local":false,"titleSections":[[{"type":"STATION","value":"Leiden C."},{"type":"STATION","value":"Laan v NOI"},{"type":"ICON","value":"MAINTENANCE"},{"type":"STATION","value":"Den Haag C."}]],"start":"2024-03-11T02:00:00+0100","end":"2024-03-14T05:00:00+0100","period":"Maandag 11 maart 2:00 uur t/m donderdag 14 maart 5:00 uur.","impact":{"value":4},"publicationSections":[{"section":{"stations":[{"coordinate":{"lat":52.1661109924316,"lng":4.48166656494141},"countryCode":"NL","name":"Leiden Centraal","stationCode":"LEDN","uicCode":"8400390"},{"coordinate":{"lat":52.1472206115723,"lng":4.4563889503479},"countryCode":"NL","name":"De Vink","stationCode":"DVNK","uicCode":"8400188"},{"coordinate":{"lat":52.1252784729004,"lng":4.43249988555908},"countryCode":"NL","name":"Voorschoten","stationCode":"VST","uicCode":"8400659"},{"coordinate":{"lat":52.0905570983887,"lng":4.36944437026978},"countryCode":"NL","name":"Den Haag Mariahoeve","stationCode":"GVM","uicCode":"8400278"},{"coordinate":{"lat":52.0786094665527,"lng":4.34277772903442},"countryCode":"NL","name":"Den Haag Laan v NOI","stationCode":"LAA","uicCode":"8400380"},{"coordinate":{"lat":52.0802764892578,"lng":4.32499980926514},"countryCode":"NL","name":"Den Haag Centraal","stationCode":"GVC","uicCode":"8400282"}],"direction":"BOTH"},"consequence":{"section":{"stations":[{"coordinate":{"lat":52.0786094665527,"lng":4.34277772903442},"countryCode":"NL","name":"Den Haag Laan v NOI","stationCode":"LAA","uicCode":"8400380"},{"coordinate":{"lat":52.0802764892578,"lng":4.32499980926514},"countryCode":"NL","name":"Den Haag Centraal","stationCode":"GVC","uicCode":"8400282"}],"direction":"ONE_WAY"},"description":"dienstregeling aangepast","level":"LESS_TRAINS"},"sectionType":"NL"}],"timespans":[{"start":"2024-03-11T02:00:00+0100","end":"2024-03-14T05:00:00+0100","period":"Maandag 11 maart 2:00 uur t/m donderdag 14 maart 5:00 uur.","situation":{"label":"Door werkzaamheden: tussen Den Haag Laan v NOI en Den Haag Centraal is de dienstregeling aangepast."},"cause":{"label":"werkzaamheden"},"additionalTravelTime":{"label":"De extra reistijd is ongeveer 15 minuten.","shortLabel":"extra reistijd 15 min.","minimumDurationInMinutes":15,"maximumDurationInMinutes":15},"advices":["tussen Laan v NOI en Den Haag C. reis via Den Haag HS"]}],"alternativeTransportTimespans":[],"summaryAdditionalTravelTime":{"label":"De extra reistijd is ongeveer 15 minuten.","shortLabel":"extra reistijd 15 min.","minimumDurationInMinutes":15,"maximumDurationInMinutes":15}},{"id":"7004669","isActive":false,"title":"Heerlen - Aachen Hbf.","type":"MAINTENANCE","registrationTime":"2024-03-04T12:20:33+0100","releaseTime":"2024-03-04T12:20:33+0100","local":false,"titleSections":[[{"type":"STATION","value":"Heerlen"},{"type":"ICON","value":"MAINTENANCE"},{"type":"STATION","value":"Aachen Hbf"}]],"start":"2024-03-12T15:30:00+0100","end":"2024-03-12T17:15:00+0100","period":"Dinsdag 12 maart 15:30 uur t/m dinsdag 12 maart 17:15 uur.","impact":{"value":2},"publicationSections":[{"section":{"stations":[{"coordinate":{"lat":50.8908348083496,"lng":5.97499990463257},"countryCode":"NL","name":"Heerlen","stationCode":"HRL","uicCode":"8400307"},{"coordinate":{"lat":50.8963890075684,"lng":6.01916646957398},"countryCode":"NL","name":"Landgraaf","stationCode":"LG","uicCode":"8400548"},{"coordinate":{"lat":50.8960498196442,"lng":6.0602474212646396},"countryCode":"NL","name":"Eygelshoven Markt","stationCode":"EGHM","uicCode":"8400234"},{"coordinate":{"lat":50.870916,"lng":6.094486},"countryCode":"D","name":"Herzogenrath","stationCode":"HZ","uicCode":"8015190"},{"coordinate":{"lat":50.7678,"lng":6.091499},"countryCode":"D","name":"Aachen Hbf","stationCode":"AHBF","uicCode":"8015345"}],"direction":"BOTH"},"consequence":{"section":{"stations":[{"coordinate":{"lat":50.8908348083496,"lng":5.97499990463257},"countryCode":"NL","name":"Heerlen","stationCode":"HRL","uicCode":"8400307"},{"coordinate":{"lat":50.8963890075684,"lng":6.01916646957398},"countryCode":"NL","name":"Landgraaf","stationCode":"LG","uicCode":"8400548"},{"coordinate":{"lat":50.8960498196442,"lng":6.0602474212646396},"countryCode":"NL","name":"Eygelshoven Markt","stationCode":"EGHM","uicCode":"8400234"},{"coordinate":{"lat":50.870916,"lng":6.094486},"countryCode":"D","name":"Herzogenrath","stationCode":"HZ","uicCode":"8015190"},{"coordinate":{"lat":50.7678,"lng":6.091499},"countryCode":"D","name":"Aachen Hbf","stationCode":"AHBF","uicCode":"8015345"}],"direction":"ONE_WAY"},"description":"minder treinen","level":"LESS_TRAINS"},"sectionType":"NEIGHBORING_COUNTRY"}],"timespans":[{"start":"2024-03-12T15:30:00+0100","end":"2024-03-12T17:15:00+0100","period":"Dinsdag 12 maart 15:30 uur t/m dinsdag 12 maart 17:15 uur.","situation":{"label":"Door werkzaamheden: tussen Heerlen en Aachen Hbf rijden er minder treinen."},"cause":{"label":"werkzaamheden"},"additionalTravelTime":{"label":"De extra reistijd is ongeveer 30 minuten.","shortLabel":"extra reistijd 30 min.","minimumDurationInMinutes":30,"maximumDurationInMinutes":30},"alternativeTransport":{"label":"er rijden stopbussen","shortLabel":"er rijden stopbussen"},"advices":["Enkele treinen zijn vervangen door een stopbus. U kunt ook met een trein eerder of later reizen."]}],"alternativeTransportTimespans":[{"start":"2024-03-12T15:30:00+0100","end":"2024-03-12T17:15:00+0100","alternativeTransport":{"location":[{"station":{"coordinate":{"lat":50.8908348083496,"lng":5.97499990463257},"countryCode":"NL","name":"Heerlen","stationCode":"HRL","uicCode":"8400307"},"description":"vanaf de achterzijde van het station"},{"station":{"coordinate":{"lat":50.8963890075684,"lng":6.01916646957398},"countryCode":"NL","name":"Landgraaf","stationCode":"LG","uicCode":"8400548"},"description":"vanaf de voorzijde van het station"},{"station":{"coordinate":{"lat":50.8960498196442,"lng":6.0602474212646396},"countryCode":"NL","name":"Eygelshoven Markt","stationCode":"EGHM","uicCode":"8400234"},"description":"vanaf de voorzijde van het station"},{"station":{"coordinate":{"lat":50.870916,"lng":6.094486},"countryCode":"D","name":"Herzogenrath","stationCode":"HZ","uicCode":"8015190"},"description":"volg de aanwijzingen op het station"},{"station":{"coordinate":{"lat":50.78036,"lng":6.070715},"countryCode":"D","name":"Aachen West","stationCode":"AW","uicCode":"8015199"},"description":"volg de aanwijzingen op het station"},{"station":{"coordinate":{"lat":50.7678,"lng":6.091499},"countryCode":"D","name":"Aachen Hbf","stationCode":"AHBF","uicCode":"8015345"},"description":"volg de aanwijzingen op het station"}],"label":"Er rijden stopbussen tussen Heerlen, Landgraaf, Eygelshoven Markt, Herzogenrath, Aachen West en Aachen Hbf.","shortLabel":"er rijden stopbussen Heerlen - Landgraaf - Eygelshoven Mrkt - Herzogenrath - Aachen West - Aachen Hbf"}}],"summaryAdditionalTravelTime":{"label":"De extra reistijd is ongeveer 30 minuten.","shortLabel":"extra reistijd 30 min.","minimumDurationInMinutes":30,"maximumDurationInMinutes":30}},{"id":"7004670","isActive":false,"title":"Heerlen - Aachen Hbf.","type":"MAINTENANCE","registrationTime":"2024-03-04T12:20:40+0100","releaseTime":"2024-03-04T12:20:40+0100","local":false,"titleSections":[[{"type":"STATION","value":"Heerlen"},{"type":"ICON","value":"MAINTENANCE"},{"type":"STATION","value":"Aachen Hbf"}]],"start":"2024-03-13T15:30:00+0100","end":"2024-03-13T17:15:00+0100","period":"Woensdag 13 maart 15:30 uur t/m woensdag 13 maart 17:15 uur.","impact":{"value":2},"publicationSections":[{"section":{"stations":[{"coordinate":{"lat":50.8908348083496,"lng":5.97499990463257},"countryCode":"NL","name":"Heerlen","stationCode":"HRL","uicCode":"8400307"},{"coordinate":{"lat":50.8963890075684,"lng":6.01916646957398},"countryCode":"NL","name":"Landgraaf","stationCode":"LG","uicCode":"8400548"},{"coordinate":{"lat":50.8960498196442,"lng":6.0602474212646396},"countryCode":"NL","name":"Eygelshoven Markt","stationCode":"EGHM","uicCode":"8400234"},{"coordinate":{"lat":50.870916,"lng":6.094486},"countryCode":"D","name":"Herzogenrath","stationCode":"HZ","uicCode":"8015190"},{"coordinate":{"lat":50.7678,"lng":6.091499},"countryCode":"D","name":"Aachen Hbf","stationCode":"AHBF","uicCode":"8015345"}],"direction":"BOTH"},"consequence":{"section":{"stations":[{"coordinate":{"lat":50.8908348083496,"lng":5.97499990463257},"countryCode":"NL","name":"Heerlen","stationCode":"HRL","uicCode":"8400307"},{"coordinate":{"lat":50.8963890075684,"lng":6.01916646957398},"countryCode":"NL","name":"Landgraaf","stationCode":"LG","uicCode":"8400548"},{"coordinate":{"lat":50.8960498196442,"lng":6.0602474212646396},"countryCode":"NL","name":"Eygelshoven Markt","stationCode":"EGHM","uicCode":"8400234"},{"coordinate":{"lat":50.870916,"lng":6.094486},"countryCode":"D","name":"Herzogenrath","stationCode":"HZ","uicCode":"8015190"},{"coordinate":{"lat":50.7678,"lng":6.091499},"countryCode":"D","name":"Aachen Hbf","stationCode":"AHBF","uicCode":"8015345"}],"direction":"ONE_WAY"},"description":"minder treinen","level":"LESS_TRAINS"},"sectionType":"NEIGHBORING_COUNTRY"}],"timespans":[{"start":"2024-03-13T15:30:00+0100","end":"2024-03-13T17:15:00+0100","period":"Woensdag 13 maart 15:30 uur t/m woensdag 13 maart 17:15 uur.","situation":{"label":"Door werkzaamheden: tussen Heerlen en Aachen Hbf rijden er minder treinen."},"cause":{"label":"werkzaamheden"},"additionalTravelTime":{"label":"De extra reistijd is ongeveer 30 minuten.","shortLabel":"extra reistijd 30 min.","minimumDurationInMinutes":30,"maximumDurationInMinutes":30},"alternativeTransport":{"label":"er rijden stopbussen","shortLabel":"er rijden stopbussen"},"advices":["Enkele treinen zijn vervangen door een stopbus. U kunt ook met een trein eerder of later reizen."]}],"alternativeTransportTimespans":[{"start":"2024-03-13T15:30:00+0100","end":"2024-03-13T17:15:00+0100","alternativeTransport":{"location":[{"station":{"coordinate":{"lat":50.8908348083496,"lng":5.97499990463257},"countryCode":"NL","name":"Heerlen","stationCode":"HRL","uicCode":"8400307"},"description":"vanaf de achterzijde van het station"},{"station":{"coordinate":{"lat":50.8963890075684,"lng":6.01916646957398},"countryCode":"NL","name":"Landgraaf","stationCode":"LG","uicCode":"8400548"},"description":"vanaf de voorzijde van het station"},{"station":{"coordinate":{"lat":50.8960498196442,"lng":6.0602474212646396},"countryCode":"NL","name":"Eygelshoven Markt","stationCode":"EGHM","uicCode":"8400234"},"description":"vanaf de voorzijde van het station"},{"station":{"coordinate":{"lat":50.870916,"lng":6.094486},"countryCode":"D","name":"Herzogenrath","stationCode":"HZ","uicCode":"8015190"},"description":"volg de aanwijzingen op het station"},{"station":{"coordinate":{"lat":50.78036,"lng":6.070715},"countryCode":"D","name":"Aachen West","stationCode":"AW","uicCode":"8015199"},"description":"volg de aanwijzingen op het station"},{"station":{"coordinate":{"lat":50.7678,"lng":6.091499},"countryCode":"D","name":"Aachen Hbf","stationCode":"AHBF","uicCode":"8015345"},"description":"volg de aanwijzingen op het station"}],"label":"Er rijden stopbussen tussen Heerlen, Landgraaf, Eygelshoven Markt, Herzogenrath, Aachen West en Aachen Hbf.","shortLabel":"er rijden stopbussen Heerlen - Landgraaf - Eygelshoven Mrkt - Herzogenrath - Aachen West - Aachen Hbf"}}],"summaryAdditionalTravelTime":{"label":"De extra reistijd is ongeveer 30 minuten.","shortLabel":"extra reistijd 30 min.","minimumDurationInMinutes":30,"maximumDurationInMinutes":30}},{"id":"7004515","isActive":false,"title":"Heerlen - Aachen Hbf.","type":"MAINTENANCE","registrationTime":"2024-02-26T15:08:46+0100","releaseTime":"2024-02-26T15:08:46+0100","local":false,"titleSections":[[{"type":"STATION","value":"Heerlen"},{"type":"ICON","value":"MAINTENANCE"},{"type":"STATION","value":"Aachen Hbf"}]],"start":"2024-03-14T08:45:00+0100","end":"2024-03-14T12:15:00+0100","period":"Donderdag 14 maart 8:45 uur t/m donderdag 14 maart 12:15 uur.","impact":{"value":2},"publicationSections":[{"section":{"stations":[{"coordinate":{"lat":50.8908348083496,"lng":5.97499990463257},"countryCode":"NL","name":"Heerlen","stationCode":"HRL","uicCode":"8400307"},{"coordinate":{"lat":50.8963890075684,"lng":6.01916646957398},"countryCode":"NL","name":"Landgraaf","stationCode":"LG","uicCode":"8400548"},{"coordinate":{"lat":50.8960498196442,"lng":6.0602474212646396},"countryCode":"NL","name":"Eygelshoven Markt","stationCode":"EGHM","uicCode":"8400234"},{"coordinate":{"lat":50.870916,"lng":6.094486},"countryCode":"D","name":"Herzogenrath","stationCode":"HZ","uicCode":"8015190"},{"coordinate":{"lat":50.7678,"lng":6.091499},"countryCode":"D","name":"Aachen Hbf","stationCode":"AHBF","uicCode":"8015345"}],"direction":"BOTH"},"consequence":{"section":{"stations":[{"coordinate":{"lat":50.8908348083496,"lng":5.97499990463257},"countryCode":"NL","name":"Heerlen","stationCode":"HRL","uicCode":"8400307"},{"coordinate":{"lat":50.8963890075684,"lng":6.01916646957398},"countryCode":"NL","name":"Landgraaf","stationCode":"LG","uicCode":"8400548"},{"coordinate":{"lat":50.8960498196442,"lng":6.0602474212646396},"countryCode":"NL","name":"Eygelshoven Markt","stationCode":"EGHM","uicCode":"8400234"},{"coordinate":{"lat":50.870916,"lng":6.094486},"countryCode":"D","name":"Herzogenrath","stationCode":"HZ","uicCode":"8015190"},{"coordinate":{"lat":50.7678,"lng":6.091499},"countryCode":"D","name":"Aachen Hbf","stationCode":"AHBF","uicCode":"8015345"}],"direction":"ONE_WAY"},"description":"minder treinen","level":"LESS_TRAINS"},"sectionType":"NEIGHBORING_COUNTRY"}],"timespans":[{"start":"2024-03-14T08:45:00+0100","end":"2024-03-14T12:15:00+0100","period":"Donderdag 14 maart 8:45 uur t/m donderdag 14 maart 12:15 uur.","situation":{"label":"Door werkzaamheden: tussen Heerlen en Aachen Hbf rijden er minder treinen."},"cause":{"label":"werkzaamheden"},"additionalTravelTime":{"label":"De extra reistijd is ongeveer 30 minuten.","shortLabel":"extra reistijd 30 min.","minimumDurationInMinutes":30,"maximumDurationInMinutes":30},"alternativeTransport":{"label":"er rijden stopbussen","shortLabel":"er rijden stopbussen"},"advices":["Enkele treinen zijn vervangen door een stopbus. U kunt ook met een trein eerder of later reizen."]}],"alternativeTransportTimespans":[{"start":"2024-03-14T08:45:00+0100","end":"2024-03-14T12:15:00+0100","alternativeTransport":{"location":[{"station":{"coordinate":{"lat":50.8908348083496,"lng":5.97499990463257},"countryCode":"NL","name":"Heerlen","stationCode":"HRL","uicCode":"8400307"},"description":"vanaf de achterzijde van het station"},{"station":{"coordinate":{"lat":50.8963890075684,"lng":6.01916646957398},"countryCode":"NL","name":"Landgraaf","stationCode":"LG","uicCode":"8400548"},"description":"vanaf de voorzijde van het station"},{"station":{"coordinate":{"lat":50.8960498196442,"lng":6.0602474212646396},"countryCode":"NL","name":"Eygelshoven Markt","stationCode":"EGHM","uicCode":"8400234"},"description":"vanaf de voorzijde van het station"},{"station":{"coordinate":{"lat":50.870916,"lng":6.094486},"countryCode":"D","name":"Herzogenrath","stationCode":"HZ","uicCode":"8015190"},"description":"volg de aanwijzingen op het station"},{"station":{"coordinate":{"lat":50.78036,"lng":6.070715},"countryCode":"D","name":"Aachen West","stationCode":"AW","uicCode":"8015199"},"description":"volg de aanwijzingen op het station"},{"station":{"coordinate":{"lat":50.7678,"lng":6.091499},"countryCode":"D","name":"Aachen Hbf","stationCode":"AHBF","uicCode":"8015345"},"description":"volg de aanwijzingen op het station"}],"label":"Er rijden stopbussen tussen Heerlen, Landgraaf, Eygelshoven Markt, Herzogenrath, Aachen West en Aachen Hbf.","shortLabel":"er rijden stopbussen Heerlen - Landgraaf - Eygelshoven Mrkt - Herzogenrath - Aachen West - Aachen Hbf"}}],"summaryAdditionalTravelTime":{"label":"De extra reistijd is ongeveer 30 minuten.","shortLabel":"extra reistijd 30 min.","minimumDurationInMinutes":30,"maximumDurationInMinutes":30}},{"id":"7004671","isActive":false,"title":"Heerlen - Aachen Hbf.","type":"MAINTENANCE","registrationTime":"2024-03-04T12:20:46+0100","releaseTime":"2024-03-04T12:20:46+0100","local":false,"titleSections":[[{"type":"STATION","value":"Heerlen"},{"type":"ICON","value":"MAINTENANCE"},{"type":"STATION","value":"Aachen Hbf"}]],"start":"2024-03-14T15:30:00+0100","end":"2024-03-14T17:15:00+0100","period":"Donderdag 14 maart 15:30 uur t/m donderdag 14 maart 17:15 uur.","impact":{"value":2},"publicationSections":[{"section":{"stations":[{"coordinate":{"lat":50.8908348083496,"lng":5.97499990463257},"countryCode":"NL","name":"Heerlen","stationCode":"HRL","uicCode":"8400307"},{"coordinate":{"lat":50.8963890075684,"lng":6.01916646957398},"countryCode":"NL","name":"Landgraaf","stationCode":"LG","uicCode":"8400548"},{"coordinate":{"lat":50.8960498196442,"lng":6.0602474212646396},"countryCode":"NL","name":"Eygelshoven Markt","stationCode":"EGHM","uicCode":"8400234"},{"coordinate":{"lat":50.870916,"lng":6.094486},"countryCode":"D","name":"Herzogenrath","stationCode":"HZ","uicCode":"8015190"},{"coordinate":{"lat":50.7678,"lng":6.091499},"countryCode":"D","name":"Aachen Hbf","stationCode":"AHBF","uicCode":"8015345"}],"direction":"BOTH"},"consequence":{"section":{"stations":[{"coordinate":{"lat":50.8908348083496,"lng":5.97499990463257},"countryCode":"NL","name":"Heerlen","stationCode":"HRL","uicCode":"8400307"},{"coordinate":{"lat":50.8963890075684,"lng":6.01916646957398},"countryCode":"NL","name":"Landgraaf","stationCode":"LG","uicCode":"8400548"},{"coordinate":{"lat":50.8960498196442,"lng":6.0602474212646396},"countryCode":"NL","name":"Eygelshoven Markt","stationCode":"EGHM","uicCode":"8400234"},{"coordinate":{"lat":50.870916,"lng":6.094486},"countryCode":"D","name":"Herzogenrath","stationCode":"HZ","uicCode":"8015190"},{"coordinate":{"lat":50.7678,"lng":6.091499},"countryCode":"D","name":"Aachen Hbf","stationCode":"AHBF","uicCode":"8015345"}],"direction":"ONE_WAY"},"description":"minder treinen","level":"LESS_TRAINS"},"sectionType":"NEIGHBORING_COUNTRY"}],"timespans":[{"start":"2024-03-14T15:30:00+0100","end":"2024-03-14T17:15:00+0100","period":"Donderdag 14 maart 15:30 uur t/m donderdag 14 maart 17:15 uur.","situation":{"label":"Door werkzaamheden: tussen Heerlen en Aachen Hbf rijden er minder treinen."},"cause":{"label":"werkzaamheden"},"additionalTravelTime":{"label":"De extra reistijd is ongeveer 30 minuten.","shortLabel":"extra reistijd 30 min.","minimumDurationInMinutes":30,"maximumDurationInMinutes":30},"alternativeTransport":{"label":"er rijden stopbussen","shortLabel":"er rijden stopbussen"},"advices":["Enkele treinen zijn vervangen door een stopbus. U kunt ook met een trein eerder of later reizen."]}],"alternativeTransportTimespans":[{"start":"2024-03-14T15:30:00+0100","end":"2024-03-14T17:15:00+0100","alternativeTransport":{"location":[{"station":{"coordinate":{"lat":50.8908348083496,"lng":5.97499990463257},"countryCode":"NL","name":"Heerlen","stationCode":"HRL","uicCode":"8400307"},"description":"vanaf de achterzijde van het station"},{"station":{"coordinate":{"lat":50.8963890075684,"lng":6.01916646957398},"countryCode":"NL","name":"Landgraaf","stationCode":"LG","uicCode":"8400548"},"description":"vanaf de voorzijde van het station"},{"station":{"coordinate":{"lat":50.8960498196442,"lng":6.0602474212646396},"countryCode":"NL","name":"Eygelshoven Markt","stationCode":"EGHM","uicCode":"8400234"},"description":"vanaf de voorzijde van het station"},{"station":{"coordinate":{"lat":50.870916,"lng":6.094486},"countryCode":"D","name":"Herzogenrath","stationCode":"HZ","uicCode":"8015190"},"description":"volg de aanwijzingen op het station"},{"station":{"coordinate":{"lat":50.78036,"lng":6.070715},"countryCode":"D","name":"Aachen West","stationCode":"AW","uicCode":"8015199"},"description":"volg de aanwijzingen op het station"},{"station":{"coordinate":{"lat":50.7678,"lng":6.091499},"countryCode":"D","name":"Aachen Hbf","stationCode":"AHBF","uicCode":"8015345"},"description":"volg de aanwijzingen op het station"}],"label":"Er rijden stopbussen tussen Heerlen, Landgraaf, Eygelshoven Markt, Herzogenrath, Aachen West en Aachen Hbf.","shortLabel":"er rijden stopbussen Heerlen - Landgraaf - Eygelshoven Mrkt - Herzogenrath - Aachen West - Aachen Hbf"}}],"summaryAdditionalTravelTime":{"label":"De extra reistijd is ongeveer 30 minuten.","shortLabel":"extra reistijd 30 min.","minimumDurationInMinutes":30,"maximumDurationInMinutes":30}},{"id":"7004552","isActive":false,"title":"Lelystad - Zwolle.","type":"MAINTENANCE","registrationTime":"2024-02-28T13:16:35+0100","releaseTime":"2024-02-28T13:16:35+0100","local":false,"titleSections":[[{"type":"STATION","value":"Lelystad C."},{"type":"ICON","value":"MAINTENANCE"},{"type":"STATION","value":"Zwolle"},{"type":"ICON","value":"MAINTENANCE"},{"type":"STATION","value":"Kampen Zuid"}]],"start":"2024-03-14T23:30:00+0100","end":"2024-03-15T01:00:00+0100","period":"Donderdag 14 maart 23:30 uur t/m vrijdag 15 maart 1:00 uur.","impact":{"value":3},"publicationSections":[{"section":{"stations":[{"coordinate":{"lat":52.5077781677246,"lng":5.47277784347534},"countryCode":"NL","name":"Lelystad Centrum","stationCode":"LLS","uicCode":"8400394"},{"coordinate":{"lat":52.5344,"lng":5.72089},"countryCode":"NL","name":"Dronten","stationCode":"DRON","uicCode":"8400198"},{"coordinate":{"lat":52.5331,"lng":5.91309},"countryCode":"NL","name":"Kampen Zuid","stationCode":"KPNZ","uicCode":"8400360"},{"coordinate":{"lat":52.5047225952148,"lng":6.09194421768188},"countryCode":"NL","name":"Zwolle","stationCode":"ZL","uicCode":"8400747"}],"direction":"ONE_WAY"},"consequence":{"section":{"stations":[{"coordinate":{"lat":52.5331,"lng":5.91309},"countryCode":"NL","name":"Kampen Zuid","stationCode":"KPNZ","uicCode":"8400360"},{"coordinate":{"lat":52.5047225952148,"lng":6.09194421768188},"countryCode":"NL","name":"Zwolle","stationCode":"ZL","uicCode":"8400747"}],"direction":"ONE_WAY"},"description":"rijden bussen","level":"LESS_TRAINS"},"sectionType":"NL"},{"section":{"stations":[{"coordinate":{"lat":52.5077781677246,"lng":5.47277784347534},"countryCode":"NL","name":"Lelystad Centrum","stationCode":"LLS","uicCode":"8400394"},{"coordinate":{"lat":52.5344,"lng":5.72089},"countryCode":"NL","name":"Dronten","stationCode":"DRON","uicCode":"8400198"},{"coordinate":{"lat":52.5331,"lng":5.91309},"countryCode":"NL","name":"Kampen Zuid","stationCode":"KPNZ","uicCode":"8400360"},{"coordinate":{"lat":52.5047225952148,"lng":6.09194421768188},"countryCode":"NL","name":"Zwolle","stationCode":"ZL","uicCode":"8400747"}],"direction":"ONE_WAY"},"consequence":{"section":{"stations":[{"coordinate":{"lat":52.5077781677246,"lng":5.47277784347534},"countryCode":"NL","name":"Lelystad Centrum","stationCode":"LLS","uicCode":"8400394"},{"coordinate":{"lat":52.5344,"lng":5.72089},"countryCode":"NL","name":"Dronten","stationCode":"DRON","uicCode":"8400198"},{"coordinate":{"lat":52.5331,"lng":5.91309},"countryCode":"NL","name":"Kampen Zuid","stationCode":"KPNZ","uicCode":"8400360"},{"coordinate":{"lat":52.5047225952148,"lng":6.09194421768188},"countryCode":"NL","name":"Zwolle","stationCode":"ZL","uicCode":"8400747"}],"direction":"ONE_WAY"},"description":"rijden bussen","level":"LESS_TRAINS"},"sectionType":"NL"}],"timespans":[{"start":"2024-03-14T23:30:00+0100","end":"2024-03-15T01:00:00+0100","period":"Donderdag 14 maart 23:30 uur t/m vrijdag 15 maart 1:00 uur.","situation":{"label":"Door werkzaamheden: van Kampen Zuid naar Zwolle rijden er bussen en van Zwolle naar Lelystad Centrum rijden er bussen."},"cause":{"label":"werkzaamheden"},"additionalTravelTime":{"label":"De extra reistijd kan oplopen tot 30 minuten.","shortLabel":"extra reistijd tot 30 min.","maximumDurationInMinutes":30},"alternativeTransport":{"label":"er rijden stop- en snelbussen","shortLabel":"er rijden stop- en snelbussen"},"advices":[]}],"alternativeTransportTimespans":[{"start":"2024-03-14T23:30:00+0100","end":"2024-03-15T01:00:00+0100","alternativeTransport":{"location":[{"station":{"coordinate":{"lat":52.5331,"lng":5.91309},"countryCode":"NL","name":"Kampen Zuid","stationCode":"KPNZ","uicCode":"8400360"},"description":"vanaf de voorzijde van het station"},{"station":{"coordinate":{"lat":52.5047225952148,"lng":6.09194421768188},"countryCode":"NL","name":"Zwolle","stationCode":"ZL","uicCode":"8400747"},"description":"vanaf de Hanzelaan, aan de zuidzijde van het station"}],"label":"Er rijden snelbussen van Kampen Zuid naar Zwolle.","shortLabel":"er rijden snelbussen Kampen Zuid -> Zwolle"}},{"start":"2024-03-14T23:30:00+0100","end":"2024-03-15T01:00:00+0100","alternativeTransport":{"location":[{"station":{"coordinate":{"lat":52.5047225952148,"lng":6.09194421768188},"countryCode":"NL","name":"Zwolle","stationCode":"ZL","uicCode":"8400747"},"description":"vanaf de Hanzelaan, aan de zuidzijde van het station"},{"station":{"coordinate":{"lat":52.5331,"lng":5.91309},"countryCode":"NL","name":"Kampen Zuid","stationCode":"KPNZ","uicCode":"8400360"},"description":"vanaf de voorzijde van het station"},{"station":{"coordinate":{"lat":52.5344,"lng":5.72089},"countryCode":"NL","name":"Dronten","stationCode":"DRON","uicCode":"8400198"},"description":"vanaf de voorzijde van het station"},{"station":{"coordinate":{"lat":52.5077781677246,"lng":5.47277784347534},"countryCode":"NL","name":"Lelystad Centrum","stationCode":"LLS","uicCode":"8400394"},"description":"vanaf de achterzijde van het station"}],"label":"Er rijden stopbussen van Zwolle, Kampen Zuid, Dronten naar Lelystad Centrum.","shortLabel":"er rijden stopbussen Zwolle -> Kampen Zuid -> Dronten -> Lelystad C."}}],"summaryAdditionalTravelTime":{"label":"De extra reistijd kan oplopen tot 30 minuten.","shortLabel":"extra reistijd tot 30 min.","maximumDurationInMinutes":30}},{"id":"7004672","isActive":false,"title":"Heerlen - Aachen Hbf.","type":"MAINTENANCE","registrationTime":"2024-03-04T12:20:51+0100","releaseTime":"2024-03-04T12:20:51+0100","local":false,"titleSections":[[{"type":"STATION","value":"Heerlen"},{"type":"ICON","value":"MAINTENANCE"},{"type":"STATION","value":"Aachen Hbf"}]],"start":"2024-03-15T15:30:00+0100","end":"2024-03-15T17:15:00+0100","period":"Vrijdag 15 maart 15:30 uur t/m vrijdag 15 maart 17:15 uur.","impact":{"value":2},"publicationSections":[{"section":{"stations":[{"coordinate":{"lat":50.8908348083496,"lng":5.97499990463257},"countryCode":"NL","name":"Heerlen","stationCode":"HRL","uicCode":"8400307"},{"coordinate":{"lat":50.8963890075684,"lng":6.01916646957398},"countryCode":"NL","name":"Landgraaf","stationCode":"LG","uicCode":"8400548"},{"coordinate":{"lat":50.8960498196442,"lng":6.0602474212646396},"countryCode":"NL","name":"Eygelshoven Markt","stationCode":"EGHM","uicCode":"8400234"},{"coordinate":{"lat":50.870916,"lng":6.094486},"countryCode":"D","name":"Herzogenrath","stationCode":"HZ","uicCode":"8015190"},{"coordinate":{"lat":50.7678,"lng":6.091499},"countryCode":"D","name":"Aachen Hbf","stationCode":"AHBF","uicCode":"8015345"}],"direction":"BOTH"},"consequence":{"section":{"stations":[{"coordinate":{"lat":50.8908348083496,"lng":5.97499990463257},"countryCode":"NL","name":"Heerlen","stationCode":"HRL","uicCode":"8400307"},{"coordinate":{"lat":50.8963890075684,"lng":6.01916646957398},"countryCode":"NL","name":"Landgraaf","stationCode":"LG","uicCode":"8400548"},{"coordinate":{"lat":50.8960498196442,"lng":6.0602474212646396},"countryCode":"NL","name":"Eygelshoven Markt","stationCode":"EGHM","uicCode":"8400234"},{"coordinate":{"lat":50.870916,"lng":6.094486},"countryCode":"D","name":"Herzogenrath","stationCode":"HZ","uicCode":"8015190"},{"coordinate":{"lat":50.7678,"lng":6.091499},"countryCode":"D","name":"Aachen Hbf","stationCode":"AHBF","uicCode":"8015345"}],"direction":"ONE_WAY"},"description":"minder treinen","level":"LESS_TRAINS"},"sectionType":"NEIGHBORING_COUNTRY"}],"timespans":[{"start":"2024-03-15T15:30:00+0100","end":"2024-03-15T17:15:00+0100","period":"Vrijdag 15 maart 15:30 uur t/m vrijdag 15 maart 17:15 uur.","situation":{"label":"Door werkzaamheden: tussen Heerlen en Aachen Hbf rijden er minder treinen."},"cause":{"label":"werkzaamheden"},"additionalTravelTime":{"label":"De extra reistijd is ongeveer 30 minuten.","shortLabel":"extra reistijd 30 min.","minimumDurationInMinutes":30,"maximumDurationInMinutes":30},"alternativeTransport":{"label":"er rijden stopbussen","shortLabel":"er rijden stopbussen"},"advices":["Enkele treinen zijn vervangen door een stopbus. U kunt ook met een trein eerder of later reizen."]}],"alternativeTransportTimespans":[{"start":"2024-03-15T15:30:00+0100","end":"2024-03-15T17:15:00+0100","alternativeTransport":{"location":[{"station":{"coordinate":{"lat":50.8908348083496,"lng":5.97499990463257},"countryCode":"NL","name":"Heerlen","stationCode":"HRL","uicCode":"8400307"},"description":"vanaf de achterzijde van het station"},{"station":{"coordinate":{"lat":50.8963890075684,"lng":6.01916646957398},"countryCode":"NL","name":"Landgraaf","stationCode":"LG","uicCode":"8400548"},"description":"vanaf de voorzijde van het station"},{"station":{"coordinate":{"lat":50.8960498196442,"lng":6.0602474212646396},"countryCode":"NL","name":"Eygelshoven Markt","stationCode":"EGHM","uicCode":"8400234"},"description":"vanaf de voorzijde van het station"},{"station":{"coordinate":{"lat":50.870916,"lng":6.094486},"countryCode":"D","name":"Herzogenrath","stationCode":"HZ","uicCode":"8015190"},"description":"volg de aanwijzingen op het station"},{"station":{"coordinate":{"lat":50.78036,"lng":6.070715},"countryCode":"D","name":"Aachen West","stationCode":"AW","uicCode":"8015199"},"description":"volg de aanwijzingen op het station"},{"station":{"coordinate":{"lat":50.7678,"lng":6.091499},"countryCode":"D","name":"Aachen Hbf","stationCode":"AHBF","uicCode":"8015345"},"description":"volg de aanwijzingen op het station"}],"label":"Er rijden stopbussen tussen Heerlen, Landgraaf, Eygelshoven Markt, Herzogenrath, Aachen West en Aachen Hbf.","shortLabel":"er rijden stopbussen Heerlen - Landgraaf - Eygelshoven Mrkt - Herzogenrath - Aachen West - Aachen Hbf"}}],"summaryAdditionalTravelTime":{"label":"De extra reistijd is ongeveer 30 minuten.","shortLabel":"extra reistijd 30 min.","minimumDurationInMinutes":30,"maximumDurationInMinutes":30}},{"id":"7004644","isActive":false,"title":"Dordrecht - Breda; Dordrecht - Roosendaal.","type":"MAINTENANCE","registrationTime":"2024-02-29T09:54:10+0100","releaseTime":"2024-02-29T09:54:10+0100","local":false,"titleSections":[[{"type":"STATION","value":"Dordrecht"},{"type":"ICON","value":"MAINTENANCE"},{"type":"STATION","value":"Roosendaal"}],[{"type":"STATION","value":"Dordrecht"},{"type":"ICON","value":"MAINTENANCE"},{"type":"STATION","value":"Breda"}]],"start":"2024-03-16T00:15:00+0100","end":"2024-03-18T01:30:00+0100","period":"Zaterdag 16 maart 0:15 uur t/m maandag 18 maart 1:30 uur.","impact":{"value":4},"publicationSections":[{"section":{"stations":[{"coordinate":{"lat":51.8072204589844,"lng":4.66833353042603},"countryCode":"NL","name":"Dordrecht","stationCode":"DDR","uicCode":"8400180"},{"coordinate":{"lat":51.7900009155273,"lng":4.67138910293579},"countryCode":"NL","name":"Dordrecht Zuid","stationCode":"DDZD","uicCode":"8400181"},{"coordinate":{"lat":51.6911125183105,"lng":4.66305541992188},"countryCode":"NL","name":"Lage Zwaluwe","stationCode":"ZLW","uicCode":"8400382"},{"coordinate":{"lat":51.64042,"lng":4.60904},"countryCode":"NL","name":"Zevenbergen","stationCode":"ZVB","uicCode":"8400737"},{"coordinate":{"lat":51.587776184082,"lng":4.53333330154419},"countryCode":"NL","name":"Oudenbosch","stationCode":"ODB","uicCode":"8400498"},{"coordinate":{"lat":51.5402793884277,"lng":4.45833349227905},"countryCode":"NL","name":"Roosendaal","stationCode":"RSD","uicCode":"8400526"}],"direction":"BOTH"},"consequence":{"section":{"stations":[{"coordinate":{"lat":51.8072204589844,"lng":4.66833353042603},"countryCode":"NL","name":"Dordrecht","stationCode":"DDR","uicCode":"8400180"},{"coordinate":{"lat":51.7900009155273,"lng":4.67138910293579},"countryCode":"NL","name":"Dordrecht Zuid","stationCode":"DDZD","uicCode":"8400181"},{"coordinate":{"lat":51.6911125183105,"lng":4.66305541992188},"countryCode":"NL","name":"Lage Zwaluwe","stationCode":"ZLW","uicCode":"8400382"},{"coordinate":{"lat":51.64042,"lng":4.60904},"countryCode":"NL","name":"Zevenbergen","stationCode":"ZVB","uicCode":"8400737"},{"coordinate":{"lat":51.587776184082,"lng":4.53333330154419},"countryCode":"NL","name":"Oudenbosch","stationCode":"ODB","uicCode":"8400498"},{"coordinate":{"lat":51.5402793884277,"lng":4.45833349227905},"countryCode":"NL","name":"Roosendaal","stationCode":"RSD","uicCode":"8400526"}],"direction":"ONE_WAY"},"description":"rijden bussen","level":"LESS_TRAINS"},"sectionType":"NL"},{"section":{"stations":[{"coordinate":{"lat":51.8072204589844,"lng":4.66833353042603},"countryCode":"NL","name":"Dordrecht","stationCode":"DDR","uicCode":"8400180"},{"coordinate":{"lat":51.7900009155273,"lng":4.67138910293579},"countryCode":"NL","name":"Dordrecht Zuid","stationCode":"DDZD","uicCode":"8400181"},{"coordinate":{"lat":51.6911125183105,"lng":4.66305541992188},"countryCode":"NL","name":"Lage Zwaluwe","stationCode":"ZLW","uicCode":"8400382"},{"coordinate":{"lat":51.606388092041,"lng":4.72083330154419},"countryCode":"NL","name":"Breda-Prinsenbeek","stationCode":"BDPB","uicCode":"8400132"},{"coordinate":{"lat":51.5955543518066,"lng":4.78000020980835},"countryCode":"NL","name":"Breda","stationCode":"BD","uicCode":"8400131"}],"direction":"BOTH"},"consequence":{"section":{"stations":[{"coordinate":{"lat":51.8072204589844,"lng":4.66833353042603},"countryCode":"NL","name":"Dordrecht","stationCode":"DDR","uicCode":"8400180"},{"coordinate":{"lat":51.7900009155273,"lng":4.67138910293579},"countryCode":"NL","name":"Dordrecht Zuid","stationCode":"DDZD","uicCode":"8400181"},{"coordinate":{"lat":51.6911125183105,"lng":4.66305541992188},"countryCode":"NL","name":"Lage Zwaluwe","stationCode":"ZLW","uicCode":"8400382"},{"coordinate":{"lat":51.606388092041,"lng":4.72083330154419},"countryCode":"NL","name":"Breda-Prinsenbeek","stationCode":"BDPB","uicCode":"8400132"},{"coordinate":{"lat":51.5955543518066,"lng":4.78000020980835},"countryCode":"NL","name":"Breda","stationCode":"BD","uicCode":"8400131"}],"direction":"ONE_WAY"},"description":"dienstregeling aangepast","level":"LESS_TRAINS"},"sectionType":"NL"}],"timespans":[{"start":"2024-03-16T00:15:00+0100","end":"2024-03-18T01:30:00+0100","period":"Zaterdag 16 maart 0:15 uur t/m maandag 18 maart 1:30 uur.","situation":{"label":"Door werkzaamheden: tussen Dordrecht en Roosendaal rijden er bussen en tussen Dordrecht en Breda is de dienstregeling aangepast."},"cause":{"label":"werkzaamheden"},"additionalTravelTime":{"label":"De extra reistijd kan oplopen tot 30 minuten.","shortLabel":"extra reistijd tot 30 min.","maximumDurationInMinutes":30},"alternativeTransport":{"label":"er rijden stop- en snelbussen","shortLabel":"er rijden stop- en snelbussen"},"advices":["tussen Rotterdam C. en Roosendaal reis via Breda"]}],"alternativeTransportTimespans":[{"start":"2024-03-16T00:15:00+0100","end":"2024-03-16T03:15:00+0100","alternativeTransport":{"location":[{"station":{"coordinate":{"lat":51.9249992370605,"lng":4.46888875961304},"countryCode":"NL","name":"Rotterdam Centraal","stationCode":"RTD","uicCode":"8400530"},"description":"vanaf de Conradstraat aan de centrumzijde"},{"station":{"coordinate":{"lat":51.8072204589844,"lng":4.66833353042603},"countryCode":"NL","name":"Dordrecht","stationCode":"DDR","uicCode":"8400180"},"description":"vanaf de Burgemeester de Raadtsingel"},{"station":{"coordinate":{"lat":51.5955543518066,"lng":4.78000020980835},"countryCode":"NL","name":"Breda","stationCode":"BD","uicCode":"8400131"},"description":"vanaf de Belcrumzijde"}],"label":"Er rijden snelbussen tussen Rotterdam Centraal, Dordrecht en Breda.","shortLabel":"er rijden snelbussen Rotterdam C. - Dordrecht - Breda"}},{"start":"2024-03-16T01:20:00+0100","end":"2024-03-16T02:35:00+0100","alternativeTransport":{"location":[{"station":{"coordinate":{"lat":51.8072204589844,"lng":4.66833353042603},"countryCode":"NL","name":"Dordrecht","stationCode":"DDR","uicCode":"8400180"},"description":"vanaf de Burgemeester de Raadtsingel"},{"station":{"coordinate":{"lat":51.7900009155273,"lng":4.67138910293579},"countryCode":"NL","name":"Dordrecht Zuid","stationCode":"DDZD","uicCode":"8400181"},"description":"vanaf de Spirea"},{"station":{"coordinate":{"lat":51.6911125183105,"lng":4.66305541992188},"countryCode":"NL","name":"Lage Zwaluwe","stationCode":"ZLW","uicCode":"8400382"},"description":"vanaf de Westelijke Parallelweg"},{"station":{"coordinate":{"lat":51.64042,"lng":4.60904},"countryCode":"NL","name":"Zevenbergen","stationCode":"ZVB","uicCode":"8400737"},"description":"vanaf de voorzijde van het station"},{"station":{"coordinate":{"lat":51.587776184082,"lng":4.53333330154419},"countryCode":"NL","name":"Oudenbosch","stationCode":"ODB","uicCode":"8400498"},"description":"vanaf de Stationsstraat"},{"station":{"coordinate":{"lat":51.5402793884277,"lng":4.45833349227905},"countryCode":"NL","name":"Roosendaal","stationCode":"RSD","uicCode":"8400526"},"description":"vanaf de voorzijde van het station"}],"label":"Er rijden bussen tussen Dordrecht, Dordrecht Zuid, Lage Zwaluwe, Zevenbergen, Oudenbosch en Roosendaal.","shortLabel":"er rijden bussen Dordrecht - Dordrecht Zuid - Lage Zwaluwe - Zevenbergen - Oudenbosch - Roosendaal"}},{"start":"2024-03-16T05:20:00+0100","end":"2024-03-18T01:30:00+0100","alternativeTransport":{"location":[{"station":{"coordinate":{"lat":51.8072204589844,"lng":4.66833353042603},"countryCode":"NL","name":"Dordrecht","stationCode":"DDR","uicCode":"8400180"},"description":"vanaf de Burgemeester de Raadtsingel"},{"station":{"coordinate":{"lat":51.6911125183105,"lng":4.66305541992188},"countryCode":"NL","name":"Lage Zwaluwe","stationCode":"ZLW","uicCode":"8400382"},"description":"vanaf de Westelijke Parallelweg"},{"station":{"coordinate":{"lat":51.64042,"lng":4.60904},"countryCode":"NL","name":"Zevenbergen","stationCode":"ZVB","uicCode":"8400737"},"description":"vanaf de voorzijde van het station"},{"station":{"coordinate":{"lat":51.587776184082,"lng":4.53333330154419},"countryCode":"NL","name":"Oudenbosch","stationCode":"ODB","uicCode":"8400498"},"description":"vanaf de Stationsstraat"},{"station":{"coordinate":{"lat":51.5402793884277,"lng":4.45833349227905},"countryCode":"NL","name":"Roosendaal","stationCode":"RSD","uicCode":"8400526"},"description":"vanaf de voorzijde van het station"}],"label":"Er rijden bussen tussen Dordrecht, Lage Zwaluwe, Zevenbergen, Oudenbosch en Roosendaal.","shortLabel":"er rijden bussen Dordrecht - Lage Zwaluwe - Zevenbergen - Oudenbosch - Roosendaal"}},{"start":"2024-03-16T05:20:00+0100","end":"2024-03-18T01:30:00+0100","alternativeTransport":{"location":[{"station":{"coordinate":{"lat":51.8072204589844,"lng":4.66833353042603},"countryCode":"NL","name":"Dordrecht","stationCode":"DDR","uicCode":"8400180"},"description":"vanaf de Burgemeester de Raadtsingel"},{"station":{"coordinate":{"lat":51.7900009155273,"lng":4.67138910293579},"countryCode":"NL","name":"Dordrecht Zuid","stationCode":"DDZD","uicCode":"8400181"},"description":"vanaf de Spirea"}],"label":"Er rijden bussen tussen Dordrecht en Dordrecht Zuid.","shortLabel":"er rijden bussen Dordrecht - Dordrecht Zuid"}},{"start":"2024-03-16T23:45:00+0100","end":"2024-03-17T03:45:00+0100","alternativeTransport":{"location":[{"station":{"coordinate":{"lat":51.9249992370605,"lng":4.46888875961304},"countryCode":"NL","name":"Rotterdam Centraal","stationCode":"RTD","uicCode":"8400530"},"description":"vanaf de Conradstraat aan de centrumzijde"},{"station":{"coordinate":{"lat":51.8072204589844,"lng":4.66833353042603},"countryCode":"NL","name":"Dordrecht","stationCode":"DDR","uicCode":"8400180"},"description":"vanaf de Burgemeester de Raadtsingel"},{"station":{"coordinate":{"lat":51.5955543518066,"lng":4.78000020980835},"countryCode":"NL","name":"Breda","stationCode":"BD","uicCode":"8400131"},"description":"vanaf de Belcrumzijde"},{"station":{"coordinate":{"lat":51.5605545043945,"lng":5.08361101150513},"countryCode":"NL","name":"Tilburg","stationCode":"TB","uicCode":"8400597"},"description":"vanaf de achterzijde van het station"},{"station":{"coordinate":{"lat":51.4433326721191,"lng":5.48138904571533},"countryCode":"NL","name":"Eindhoven Centraal","stationCode":"EHV","uicCode":"8400206"},"description":"vanaf de achterzijde van het station"}],"label":"Er rijden snelbussen tussen Rotterdam Centraal, Dordrecht, Breda, Tilburg en Eindhoven Centraal.","shortLabel":"er rijden snelbussen Rotterdam C. - Dordrecht - Breda - Tilburg - Eindhoven C."}}],"summaryAdditionalTravelTime":{"label":"De extra reistijd kan oplopen tot 30 minuten.","shortLabel":"extra reistijd tot 30 min.","maximumDurationInMinutes":30}},{"id":"7004536","isActive":false,"title":"Schiphol - Lelystad.","type":"MAINTENANCE","registrationTime":"2024-02-19T10:36:48+0100","releaseTime":"2024-02-19T10:36:48+0100","local":false,"titleSections":[[{"type":"STATION","value":"Schiphol Airport"},{"type":"STATION","value":"Amsterdam Zuid"},{"type":"ICON","value":"MAINTENANCE"},{"type":"STATION","value":"Diemen Zuid"},{"type":"STATION","value":"Lelystad C."}]],"start":"2024-03-16T01:30:00+0100","end":"2024-03-18T02:00:00+0100","period":"Zaterdag 16 maart 1:30 uur t/m maandag 18 maart 2:00 uur.","impact":{"value":4},"publicationSections":[{"section":{"stations":[{"coordinate":{"lat":52.3094444274902,"lng":4.76194429397583},"countryCode":"NL","name":"Schiphol Airport","stationCode":"SHL","uicCode":"8400561"},{"coordinate":{"lat":52.338889,"lng":4.872356},"countryCode":"NL","name":"Amsterdam Zuid","stationCode":"ASDZ","uicCode":"8400061"},{"coordinate":{"lat":52.3372230529785,"lng":4.89027786254883},"countryCode":"NL","name":"Amsterdam RAI","stationCode":"RAI","uicCode":"8400056"},{"coordinate":{"lat":52.3233337402344,"lng":4.93638896942139},"countryCode":"NL","name":"Duivendrecht","stationCode":"DVD","uicCode":"8400194"},{"coordinate":{"lat":52.3302764892578,"lng":4.95583343505859},"countryCode":"NL","name":"Diemen Zuid","stationCode":"DMNZ","uicCode":"8400163"},{"coordinate":{"lat":52.3127784729004,"lng":5.04305553436279},"countryCode":"NL","name":"Weesp","stationCode":"WP","uicCode":"8400685"},{"coordinate":{"lat":52.342778,"lng":5.151944},"countryCode":"NL","name":"Almere Poort","stationCode":"AMPO","uicCode":"8400450"},{"coordinate":{"lat":52.3675003051758,"lng":5.19027757644653},"countryCode":"NL","name":"Almere Muziekwijk","stationCode":"ALMM","uicCode":"8400082"},{"coordinate":{"lat":52.37503,"lng":5.21764},"countryCode":"NL","name":"Almere Centrum","stationCode":"ALM","uicCode":"8400080"},{"coordinate":{"lat":52.3766670227051,"lng":5.24472236633301},"countryCode":"NL","name":"Almere Parkwijk","stationCode":"ALMP","uicCode":"8400104"},{"coordinate":{"lat":52.3941650390625,"lng":5.2780556678772},"countryCode":"NL","name":"Almere Buiten","stationCode":"ALMB","uicCode":"8400081"},{"coordinate":{"lat":52.4033317565918,"lng":5.30055570602417},"countryCode":"NL","name":"Almere Oostvaarders","stationCode":"ALMO","uicCode":"8400226"},{"coordinate":{"lat":52.5077781677246,"lng":5.47277784347534},"countryCode":"NL","name":"Lelystad Centrum","stationCode":"LLS","uicCode":"8400394"}],"direction":"BOTH"},"consequence":{"section":{"stations":[{"coordinate":{"lat":52.338889,"lng":4.872356},"countryCode":"NL","name":"Amsterdam Zuid","stationCode":"ASDZ","uicCode":"8400061"},{"coordinate":{"lat":52.3372230529785,"lng":4.89027786254883},"countryCode":"NL","name":"Amsterdam RAI","stationCode":"RAI","uicCode":"8400056"},{"coordinate":{"lat":52.3233337402344,"lng":4.93638896942139},"countryCode":"NL","name":"Duivendrecht","stationCode":"DVD","uicCode":"8400194"},{"coordinate":{"lat":52.3302764892578,"lng":4.95583343505859},"countryCode":"NL","name":"Diemen Zuid","stationCode":"DMNZ","uicCode":"8400163"}],"direction":"ONE_WAY"},"description":"vervangend vervoer","level":"LESS_TRAINS"},"sectionType":"NL"}],"timespans":[{"start":"2024-03-16T01:30:00+0100","end":"2024-03-18T02:00:00+0100","period":"Zaterdag 16 maart 1:30 uur t/m maandag 18 maart 2:00 uur.","situation":{"label":"Door werkzaamheden: tussen Amsterdam Zuid en Diemen Zuid rijdt er vervangend vervoer."},"cause":{"label":"werkzaamheden"},"additionalTravelTime":{"label":"De extra reistijd is ongeveer 15 minuten.","shortLabel":"extra reistijd 15 min.","minimumDurationInMinutes":15,"maximumDurationInMinutes":15},"alternativeTransport":{"label":"maak gebruik van het vervangende vervoer","shortLabel":"gebruik het vervangende vervoer"},"advices":["Uw NS-vervoerbewijs is geldig in metrolijn 54 tussen Amsterdam Zuid en Duivendrecht, en metrolijn 53 tussen Van der Madeweg en Diemen Zuid.","tussen Den Haag C. en Zwolle reis via Utrecht C.","tussen Schiphol Airport en Lelystad C. reis via Amsterdam C."]}],"alternativeTransportTimespans":[{"start":"2024-03-16T01:30:00+0100","end":"2024-03-18T02:00:00+0100","alternativeTransport":{"location":[{"station":{"coordinate":{"lat":52.338889,"lng":4.872356},"countryCode":"NL","name":"Amsterdam Zuid","stationCode":"ASDZ","uicCode":"8400061"},"description":"volg de aanwijzingen op het station"},{"station":{"coordinate":{"lat":52.3372230529785,"lng":4.89027786254883},"countryCode":"NL","name":"Amsterdam RAI","stationCode":"RAI","uicCode":"8400056"},"description":"volg de aanwijzingen op het station"},{"station":{"coordinate":{"lat":52.3233337402344,"lng":4.93638896942139},"countryCode":"NL","name":"Duivendrecht","stationCode":"DVD","uicCode":"8400194"},"description":"volg de aanwijzingen op het station"}],"label":"Maak gebruik van de Amsterdamse metro tussen Amsterdam Zuid, Amsterdam RAI, Amsterdam Van der Madeweg en Duivendrecht.","shortLabel":"gebruik de Amsterdamse metro Amsterdam Zuid - RAI - Van der Madeweg - Duivendrecht"}},{"start":"2024-03-16T01:30:00+0100","end":"2024-03-18T02:00:00+0100","alternativeTransport":{"location":[{"station":{"coordinate":{"lat":52.3302764892578,"lng":4.95583343505859},"countryCode":"NL","name":"Diemen Zuid","stationCode":"DMNZ","uicCode":"8400163"},"description":"volg de aanwijzingen op het station"}],"label":"Maak gebruik van de Amsterdamse metro tussen Amsterdam Van der Madeweg en Diemen Zuid.","shortLabel":"gebruik de Amsterdamse metro Van der Madeweg - Diemen Zuid"}},{"start":"2024-03-16T01:30:00+0100","end":"2024-03-16T02:30:00+0100","alternativeTransport":{"location":[{"station":{"coordinate":{"lat":52.3094444274902,"lng":4.76194429397583},"countryCode":"NL","name":"Schiphol Airport","stationCode":"SHL","uicCode":"8400561"},"description":"van het busstation halte C15 en C17"},{"station":{"coordinate":{"lat":52.338889,"lng":4.872356},"countryCode":"NL","name":"Amsterdam Zuid","stationCode":"ASDZ","uicCode":"8400061"},"description":"vanaf de Strawinskylaan uitgang Zuidplein"},{"station":{"coordinate":{"lat":52.3372230529785,"lng":4.89027786254883},"countryCode":"NL","name":"Amsterdam RAI","stationCode":"RAI","uicCode":"8400056"},"description":"vanaf de voorzijde van het station"},{"station":{"coordinate":{"lat":52.3233337402344,"lng":4.93638896942139},"countryCode":"NL","name":"Duivendrecht","stationCode":"DVD","uicCode":"8400194"},"description":"vanaf het busstation"},{"station":{"coordinate":{"lat":52.3302764892578,"lng":4.95583343505859},"countryCode":"NL","name":"Diemen Zuid","stationCode":"DMNZ","uicCode":"8400163"},"description":"vanaf de voorzijde van het station"},{"station":{"coordinate":{"lat":52.3127784729004,"lng":5.04305553436279},"countryCode":"NL","name":"Weesp","stationCode":"WP","uicCode":"8400685"},"description":"vanaf de achterzijde van het station"}],"label":"Er rijden stopbussen van Schiphol Airport, Amsterdam Zuid, Amsterdam RAI, Duivendrecht, Diemen Zuid naar Weesp.","shortLabel":"er rijden stopbussen Schiphol Airport -> Amsterdam Zuid -> RAI -> Duivendrecht -> Diemen Zuid -> Weesp"}},{"start":"2024-03-16T04:25:00+0100","end":"2024-03-16T05:20:00+0100","alternativeTransport":{"location":[{"station":{"coordinate":{"lat":52.3127784729004,"lng":5.04305553436279},"countryCode":"NL","name":"Weesp","stationCode":"WP","uicCode":"8400685"},"description":"vanaf de achterzijde van het station"},{"station":{"coordinate":{"lat":52.3302764892578,"lng":4.95583343505859},"countryCode":"NL","name":"Diemen Zuid","stationCode":"DMNZ","uicCode":"8400163"},"description":"vanaf de voorzijde van het station"},{"station":{"coordinate":{"lat":52.3233337402344,"lng":4.93638896942139},"countryCode":"NL","name":"Duivendrecht","stationCode":"DVD","uicCode":"8400194"},"description":"vanaf het busstation"},{"station":{"coordinate":{"lat":52.3372230529785,"lng":4.89027786254883},"countryCode":"NL","name":"Amsterdam RAI","stationCode":"RAI","uicCode":"8400056"},"description":"vanaf de voorzijde van het station"},{"station":{"coordinate":{"lat":52.338889,"lng":4.872356},"countryCode":"NL","name":"Amsterdam Zuid","stationCode":"ASDZ","uicCode":"8400061"},"description":"vanaf de Strawinskylaan uitgang Zuidplein"},{"station":{"coordinate":{"lat":52.3094444274902,"lng":4.76194429397583},"countryCode":"NL","name":"Schiphol Airport","stationCode":"SHL","uicCode":"8400561"},"description":"volg de aanwijzingen op het station"}],"label":"Er rijden stopbussen van Weesp, Diemen Zuid, Duivendrecht, Amsterdam RAI, Amsterdam Zuid naar Schiphol Airport.","shortLabel":"er rijden stopbussen Weesp -> Diemen Zuid -> Duivendrecht -> RAI -> Amsterdam Zuid -> Schiphol Airport"}},{"start":"2024-03-16T05:10:00+0100","end":"2024-03-16T06:00:00+0100","alternativeTransport":{"location":[{"station":{"coordinate":{"lat":52.3127784729004,"lng":5.04305553436279},"countryCode":"NL","name":"Weesp","stationCode":"WP","uicCode":"8400685"},"description":"vanaf de achterzijde van het station"},{"station":{"coordinate":{"lat":52.3302764892578,"lng":4.95583343505859},"countryCode":"NL","name":"Diemen Zuid","stationCode":"DMNZ","uicCode":"8400163"},"description":"vanaf de voorzijde van het station"},{"station":{"coordinate":{"lat":52.3233337402344,"lng":4.93638896942139},"countryCode":"NL","name":"Duivendrecht","stationCode":"DVD","uicCode":"8400194"},"description":"vanaf het busstation"},{"station":{"coordinate":{"lat":52.3372230529785,"lng":4.89027786254883},"countryCode":"NL","name":"Amsterdam RAI","stationCode":"RAI","uicCode":"8400056"},"description":"volg de aanwijzingen op het station"}],"label":"Er rijden stopbussen van Weesp, Diemen Zuid, Duivendrecht naar Amsterdam RAI.","shortLabel":"er rijden stopbussen Weesp -> Diemen Zuid -> Duivendrecht -> RAI"}},{"start":"2024-03-17T00:45:00+0100","end":"2024-03-17T01:30:00+0100","alternativeTransport":{"location":[{"station":{"coordinate":{"lat":52.3372230529785,"lng":4.89027786254883},"countryCode":"NL","name":"Amsterdam RAI","stationCode":"RAI","uicCode":"8400056"},"description":"vanaf de voorzijde van het station"},{"station":{"coordinate":{"lat":52.3233337402344,"lng":4.93638896942139},"countryCode":"NL","name":"Duivendrecht","stationCode":"DVD","uicCode":"8400194"},"description":"vanaf het busstation"},{"station":{"coordinate":{"lat":52.3302764892578,"lng":4.95583343505859},"countryCode":"NL","name":"Diemen Zuid","stationCode":"DMNZ","uicCode":"8400163"},"description":"vanaf de voorzijde van het station"},{"station":{"coordinate":{"lat":52.3127784729004,"lng":5.04305553436279},"countryCode":"NL","name":"Weesp","stationCode":"WP","uicCode":"8400685"},"description":"vanaf de achterzijde van het station"}],"label":"Er rijden stopbussen van Amsterdam RAI, Duivendrecht, Diemen Zuid naar Weesp.","shortLabel":"er rijden stopbussen RAI -> Duivendrecht -> Diemen Zuid -> Weesp"}},{"start":"2024-03-17T01:00:00+0100","end":"2024-03-17T02:30:00+0100","alternativeTransport":{"location":[{"station":{"coordinate":{"lat":52.3094444274902,"lng":4.76194429397583},"countryCode":"NL","name":"Schiphol Airport","stationCode":"SHL","uicCode":"8400561"},"description":"van het busstation halte C15 en C17"},{"station":{"coordinate":{"lat":52.338889,"lng":4.872356},"countryCode":"NL","name":"Amsterdam Zuid","stationCode":"ASDZ","uicCode":"8400061"},"description":"vanaf de Strawinskylaan uitgang Zuidplein"},{"station":{"coordinate":{"lat":52.3372230529785,"lng":4.89027786254883},"countryCode":"NL","name":"Amsterdam RAI","stationCode":"RAI","uicCode":"8400056"},"description":"vanaf de voorzijde van het station"},{"station":{"coordinate":{"lat":52.3233337402344,"lng":4.93638896942139},"countryCode":"NL","name":"Duivendrecht","stationCode":"DVD","uicCode":"8400194"},"description":"vanaf het busstation"},{"station":{"coordinate":{"lat":52.3302764892578,"lng":4.95583343505859},"countryCode":"NL","name":"Diemen Zuid","stationCode":"DMNZ","uicCode":"8400163"},"description":"vanaf de voorzijde van het station"},{"station":{"coordinate":{"lat":52.3127784729004,"lng":5.04305553436279},"countryCode":"NL","name":"Weesp","stationCode":"WP","uicCode":"8400685"},"description":"volg de aanwijzingen op het station"}],"label":"Er rijden stopbussen van Schiphol Airport, Amsterdam Zuid, Amsterdam RAI, Duivendrecht, Diemen Zuid naar Weesp.","shortLabel":"er rijden stopbussen Schiphol Airport -> Amsterdam Zuid -> RAI -> Duivendrecht -> Diemen Zuid -> Weesp"}},{"start":"2024-03-17T04:25:00+0100","end":"2024-03-17T06:45:00+0100","alternativeTransport":{"location":[{"station":{"coordinate":{"lat":52.3127784729004,"lng":5.04305553436279},"countryCode":"NL","name":"Weesp","stationCode":"WP","uicCode":"8400685"},"description":"vanaf de achterzijde van het station"},{"station":{"coordinate":{"lat":52.3302764892578,"lng":4.95583343505859},"countryCode":"NL","name":"Diemen Zuid","stationCode":"DMNZ","uicCode":"8400163"},"description":"vanaf de voorzijde van het station"},{"station":{"coordinate":{"lat":52.3233337402344,"lng":4.93638896942139},"countryCode":"NL","name":"Duivendrecht","stationCode":"DVD","uicCode":"8400194"},"description":"vanaf het busstation"},{"station":{"coordinate":{"lat":52.3372230529785,"lng":4.89027786254883},"countryCode":"NL","name":"Amsterdam RAI","stationCode":"RAI","uicCode":"8400056"},"description":"vanaf de voorzijde van het station"},{"station":{"coordinate":{"lat":52.338889,"lng":4.872356},"countryCode":"NL","name":"Amsterdam Zuid","stationCode":"ASDZ","uicCode":"8400061"},"description":"vanaf de Strawinskylaan uitgang Zuidplein"},{"station":{"coordinate":{"lat":52.3094444274902,"lng":4.76194429397583},"countryCode":"NL","name":"Schiphol Airport","stationCode":"SHL","uicCode":"8400561"},"description":"volg de aanwijzingen op het station"}],"label":"Er rijden stopbussen van Weesp, Diemen Zuid, Duivendrecht, Amsterdam RAI, Amsterdam Zuid naar Schiphol Airport.","shortLabel":"er rijden stopbussen Weesp -> Diemen Zuid -> Duivendrecht -> RAI -> Amsterdam Zuid -> Schiphol Airport"}},{"start":"2024-03-18T00:45:00+0100","end":"2024-03-18T01:30:00+0100","alternativeTransport":{"location":[{"station":{"coordinate":{"lat":52.3372230529785,"lng":4.89027786254883},"countryCode":"NL","name":"Amsterdam RAI","stationCode":"RAI","uicCode":"8400056"},"description":"vanaf de voorzijde van het station"},{"station":{"coordinate":{"lat":52.3233337402344,"lng":4.93638896942139},"countryCode":"NL","name":"Duivendrecht","stationCode":"DVD","uicCode":"8400194"},"description":"vanaf het busstation"},{"station":{"coordinate":{"lat":52.3302764892578,"lng":4.95583343505859},"countryCode":"NL","name":"Diemen Zuid","stationCode":"DMNZ","uicCode":"8400163"},"description":"vanaf de voorzijde van het station"},