[{"id":"6020733","type":"DISRUPTION","registrationTime":"2022-12-26T14:29:11+0100","releaseTime":"2022-12-26T14:29:11+0100","local":false,"title":"Nijmegen-Venlo","titleSections":[[{"type":"STATION","value":"Nijmegen"},{"type":"STATION","value":"Venray"},{"type":"ICON","value":"DISRUPTION"},{"type":"STATION","value":"Venlo"}]],"topic":"disruption_6020733_nl","isActive":true,"start":"2022-12-26T12:53:13+0100","end":"2022-12-26T16:30:00+0100","phase":{"id":"3","label":"Vervangend vervoer"},"impact":{"value":3},"expectedDuration":{"description":"Dit duurt tot ongeveer maandag 26 december 16:30 uur.","endTime":"2022-12-26T16:30:00+0100"},"publicationSections":[{"section":{"stations":[{"uicCode":"8400470","stationCode":"NM","name":"Nijmegen","coordinate":{"lat":51.8436126708984,"lng":5.85222244262695},"countryCode":"NL"},{"uicCode":"8400468","stationCode":"NMH","name":"Nijmegen Heyendaal","coordinate":{"lat":51.8269462585449,"lng":5.86749982833862},"countryCode":"NL"},{"uicCode":"8400446","stationCode":"MMLH","name":"Mook-Molenhoek","coordinate":{"lat":51.766262,"lng":5.879133},"countryCode":"NL"},{"uicCode":"8400155","stationCode":"CK","name":"Cuijk","coordinate":{"lat":51.7266825879048,"lng":5.87429523468017},"countryCode":"NL"},{"uicCode":"8400128","stationCode":"BMR","name":"Boxmeer","coordinate":{"lat":51.6445217676531,"lng":5.93903303146362},"countryCode":"NL"},{"uicCode":"8400647","stationCode":"VLB","name":"Vierlingsbeek","coordinate":{"lat":51.59193,"lng":5.99714},"countryCode":"NL"},{"uicCode":"8400646","stationCode":"VRY","name":"Venray","coordinate":{"lat":51.526568099007,"lng":6.01417779922485},"countryCode":"NL"},{"uicCode":"8400117","stationCode":"BR","name":"Blerick","coordinate":{"lat":51.372501373291,"lng":6.15500020980835},"countryCode":"NL"},{"uicCode":"8400644","stationCode":"VL","name":"Venlo","coordinate":{"lat":51.3636093139648,"lng":6.17277765274048},"countryCode":"NL"}],"direction":"BOTH"},"consequence":{"section":{"stations":[{"uicCode":"8400646","stationCode":"VRY","name":"Venray","coordinate":{"lat":51.526568099007,"lng":6.01417779922485},"countryCode":"NL"},{"uicCode":"8400117","stationCode":"BR","name":"Blerick","coordinate":{"lat":51.372501373291,"lng":6.15500020980835},"countryCode":"NL"},{"uicCode":"8400644","stationCode":"VL","name":"Venlo","coordinate":{"lat":51.3636093139648,"lng":6.17277765274048},"countryCode":"NL"}],"direction":"ONE_WAY"},"description":"geen treinen","level":"NO_OR_MUCH_LESS_TRAINS"},"sectionType":"NL"}],"timespans":[{"start":"2022-12-26T12:53:13+0100","end":"2022-12-26T16:30:00+0100","situation":{"label":"Tussen Venray en Venlo rijden er geen treinen door een aanrijding."},"cause":{"label":"Aanrijding"},"alternativeTransport":{"label":"Er rijden stopbussen.","shortLabel":"Er rijden stopbussen"},"advices":[]}],"alternativeTransportTimespans":[{"start":"2022-12-26T12:53:13+0100","end":"2022-12-26T16:30:00+0100","alternativeTransport":{"location":[{"station":{"uicCode":"8400646","stationCode":"VRY","name":"Venray","coordinate":{"lat":51.526568099007,"lng":6.01417779922485},"countryCode":"NL"},"description":"vanaf de voorzijde van het station"},{"station":{"uicCode":"8400117","stationCode":"BR","name":"Blerick","coordinate":{"lat":51.372501373291,"lng":6.15500020980835},"countryCode":"NL"},"description":"vanaf de parkeerplaats"},{"station":{"uicCode":"8400644","stationCode":"VL","name":"Venlo","coordinate":{"lat":51.3636093139648,"lng":6.17277765274048},"countryCode":"NL"},"description":"vanaf de voorzijde van het station"}],"label":"Er rijden stopbussen tussen Venray, Blerick en Venlo.","shortLabel":"Er rijden stopbussen: Venray, Blerick, Venlo"}}]},{"id":"6020734","type":"DISRUPTION","registrationTime":"2022-12-26T14:44:05+0100","releaseTime":"2022-12-26T14:44:05+0100","local":false,"title":"Amsterdam-Schiphol-Rotterdam (HSL)","titleSections":[[{"type":"STATION","value":"Amsterdam C."},{"type":"ICON","value":"DISRUPTION"},{"type":"STATION","value":"Rotterdam C."}]],"topic":"disruption_6020734_nl","isActive":true,"start":"2022-12-26T14:32:47+0100","end":"2022-12-26T15:45:00+0100","phase":{"id":"1b","label":"Gevolgen bekend"},"impact":{"value":3},"expectedDuration":{"description":"Dit duurt tot ongeveer maandag 26 december 15:45 uur.","endTime":"2022-12-26T15:45:00+0100"},"publicationSections":[{"section":{"stations":[{"uicCode":"8400058","stationCode":"ASD","name":"Amsterdam Centraal","coordinate":{"lat":52.3788871765137,"lng":4.90027761459351},"countryCode":"NL"},{"uicCode":"8400059","stationCode":"ASS","name":"Amsterdam Sloterdijk","coordinate":{"lat":52.3888893127441,"lng":4.83777761459351},"countryCode":"NL"},{"uicCode":"8400079","stationCode":"ASDL","name":"Amsterdam Lelylaan","coordinate":{"lat":52.3577766418457,"lng":4.83388900756836},"countryCode":"NL"},{"uicCode":"8400561","stationCode":"SHL","name":"Schiphol Airport","coordinate":{"lat":52.3094444274902,"lng":4.76194429397583},"countryCode":"NL"},{"uicCode":"8400332","stationCode":"HFD","name":"Hoofddorp","coordinate":{"lat":52.2933349609375,"lng":4.70055532455444},"countryCode":"NL"},{"uicCode":"8400530","stationCode":"RTD","name":"Rotterdam Centraal","coordinate":{"lat":51.9249992370605,"lng":4.46888875961304},"countryCode":"NL"}],"direction":"BOTH"},"consequence":{"section":{"stations":[{"uicCode":"8400058","stationCode":"ASD","name":"Amsterdam Centraal","coordinate":{"lat":52.3788871765137,"lng":4.90027761459351},"countryCode":"NL"},{"uicCode":"8400059","stationCode":"ASS","name":"Amsterdam Sloterdijk","coordinate":{"lat":52.3888893127441,"lng":4.83777761459351},"countryCode":"NL"},{"uicCode":"8400079","stationCode":"ASDL","name":"Amsterdam Lelylaan","coordinate":{"lat":52.3577766418457,"lng":4.83388900756836},"countryCode":"NL"},{"uicCode":"8400561","stationCode":"SHL","name":"Schiphol Airport","coordinate":{"lat":52.3094444274902,"lng":4.76194429397583},"countryCode":"NL"},{"uicCode":"8400332","stationCode":"HFD","name":"Hoofddorp","coordinate":{"lat":52.2933349609375,"lng":4.70055532455444},"countryCode":"NL"},{"uicCode":"8400530","stationCode":"RTD","name":"Rotterdam Centraal","coordinate":{"lat":51.9249992370605,"lng":4.46888875961304},"countryCode":"NL"}],"direction":"ONE_WAY"},"description":"veel minder treinen","level":"NO_OR_MUCH_LESS_TRAINS"},"sectionType":"HSL"}],"timespans":[{"start":"2022-12-26T14:32:47+0100","end":"2022-12-26T15:45:00+0100","situation":{"label":"Tussen Amsterdam Centraal en Rotterdam Centraal rijden er veel minder treinen door een defecte trein."},"cause":{"label":"Defecte trein"},"advices":[]}],"alternativeTransportTimespans":[]},{"id":"71b35240-5779-456b-a19b-f156340409c8","title":"Vakantiedienstregeling tijdens de kerstvakantie en Oud & Nieuw","topic":"disruption_71b35240-5779-456b-a19b-f156340409c8_nl","description":"Vanaf dinsdag 27 december tot en met vrijdag 6 januari rijden we een vakantiedienstregeling. Dat betekent dat we doordeweeks ongeveer dezelfde dienstregeling rijden als in het weekend.","priority":"PRIO_3","lastUpdated":"2022-12-19T02:00:00+0100","bodyItems":[{"content":{"text":"<p>Op Oudejaarsdag rijden we tot ongeveer 20:00 uur, op Nieuwjaarsdag starten we de treindienst weer rond 10:00 uur op. Het nachtnet Rotterdam Centraal – Schiphol Airport – Amsterdam Centraal – Utrecht Centraal rijdt wel. Plan je reis in de Reisplanner om te zien wat dit voor jouw reis betekent.</p>"},"type":"TEXT"}],"buttons":{"position":["BOTTOM"],"items":[{"label":"Plan je reis","type":"PLANNER","accessibilityLabel":"Plan je reis","url":"https://www.ns.nl/reisplanner"},{"label":"Aangepaste dienstregeling","type":"EXTERNAL","accessibilityLabel":"Aangepaste dienstregeling","url":"https://www.ns.nl/reisinformatie/dienstregeling"}]},"url":"https://www.ns.nl/reisinformatie/calamiteiten/vakantiedienstregeling-tijdens-de-kerstvakantie-en-oud--nieuw.html","type":"CALAMITY","isActive":true},{"id":"7003113","type":"MAINTENANCE","registrationTime":"2022-12-15T12:48:09+0100","releaseTime":"2022-12-15T12:48:09+0100","local":false,"title":"Zoetermeer","titleSections":[[{"type":"STATION","value":"Zoetermeer"}]],"isActive":true,"start":"2022-12-15T10:45:00+0100","end":"2023-01-15T02:00:00+0100","period":"Donderdag 15-12-2022 10:45 uur t/m zondag 15-01-2023 02:00 uur.","impact":{"value":2},"publicationSections":[{"section":{"stations":[{"uicCode":"8400282","stationCode":"GVC","name":"Den Haag Centraal","coordinate":{"lat":52.0802764892578,"lng":4.32499980926514},"countryCode":"NL"},{"uicCode":"8400658","stationCode":"VB","name":"Voorburg","coordinate":{"lat":52.0666656494141,"lng":4.3594446182251},"countryCode":"NL"},{"uicCode":"8400379","stationCode":"YPB","name":"Den Haag Ypenburg","coordinate":{"lat":52.0552787780762,"lng":4.39222240447998},"countryCode":"NL"},{"uicCode":"8400741","stationCode":"ZTM","name":"Zoetermeer","coordinate":{"lat":52.0475006103516,"lng":4.47722244262695},"countryCode":"NL"},{"uicCode":"8400740","stationCode":"ZTMO","name":"Zoetermeer Oost","coordinate":{"lat":52.0463905334473,"lng":4.49277782440186},"countryCode":"NL"},{"uicCode":"8400135","stationCode":"LLZM","name":"Lansingerland-Zoetermeer","coordinate":{"lat":52.042222,"lng":4.517222},"countryCode":"NL"},{"uicCode":"8400258","stationCode":"GD","name":"Gouda","coordinate":{"lat":52.0175018310547,"lng":4.70444440841675},"countryCode":"NL"},{"uicCode":"8400257","stationCode":"GDG","name":"Gouda Goverwelle","coordinate":{"lat":52.0149993896484,"lng":4.7408332824707},"countryCode":"NL"}],"direction":"BOTH"},"consequence":{"section":{"stations":[{"uicCode":"8400741","stationCode":"ZTM","name":"Zoetermeer","coordinate":{"lat":52.0475006103516,"lng":4.47722244262695},"countryCode":"NL"}],"direction":"ONE_WAY"},"description":"dienstregeling aangepast","level":"LESS_TRAINS"},"sectionType":"NL"}],"timespans":[{"start":"2022-12-15T10:45:00+0100","end":"2022-12-15T13:59:00+0100","period":"Donderdag 15-12-2022 10:45 uur t/m donderdag 15-12-2022 13:59 uur.","situation":{"label":"Door herstelwerkzaamheden: van, via en naar Zoetermeer is de dienstregeling aangepast."},"cause":{"label":"Herstelwerkzaamheden"},"alternativeTransport":{"label":"Er rijden stopbussen.","shortLabel":"er rijden stopbussen"},"advices":["Treinen stoppen niet in Zoetermeer."]},{"start":"2022-12-15T14:00:00+0100","end":"2023-01-15T02:00:00+0100","period":"Donderdag 15-12-2022 14:00 uur t/m zondag 15-01-2023 02:00 uur.","situation":{"label":"Door herstelwerkzaamheden: van, via en naar Zoetermeer is de dienstregeling aangepast."},"cause":{"label":"Herstelwerkzaamheden"},"alternativeTransport":{"label":"Er rijden stopbussen.","shortLabel":"er rijden stopbussen"},"advices":["Treinen stoppen niet in Zoetermeer door herstelwerk aan de Nelson Mandelabrug."]}],"alternativeTransportTimespans":[{"start":"2022-12-15T10:45:00+0100","end":"2022-12-15T13:59:00+0100","alternativeTransport":{"location":[{"station":{"uicCode":"8400741","stationCode":"ZTM","name":"Zoetermeer","coordinate":{"lat":52.0475006103516,"lng":4.47722244262695},"countryCode":"NL"},"description":"vanaf de Mahatma Gandhisingel"},{"station":{"uicCode":"8400740","stationCode":"ZTMO","name":"Zoetermeer Oost","coordinate":{"lat":52.0463905334473,"lng":4.49277782440186},"countryCode":"NL"},"description":"vanaf het busstation"}],"label":"Er rijden stopbussen tussen Zoetermeer en Zoetermeer Oost.","shortLabel":"Er rijden stopbussen Zoetermeer - Zoetermeer Oost"}},{"start":"2022-12-15T14:00:00+0100","end":"2023-01-15T02:00:00+0100","alternativeTransport":{"location":[{"station":{"uicCode":"8400741","stationCode":"ZTM","name":"Zoetermeer","coordinate":{"lat":52.0475006103516,"lng":4.47722244262695},"countryCode":"NL"},"description":"vanaf de Mahatma Gandhisingel"},{"station":{"uicCode":"8400740","stationCode":"ZTMO","name":"Zoetermeer Oost","coordinate":{"lat":52.0463905334473,"lng":4.49277782440186},"countryCode":"NL"},"description":"vanaf het busstation"}],"label":"Er rijden stopbussen tussen Zoetermeer en Zoetermeer Oost.","shortLabel":"Er rijden stopbussen Zoetermeer - Zoetermeer Oost"}}]},{"id":"7003128","type":"MAINTENANCE","registrationTime":"2022-12-21T14:10:01+0100","releaseTime":"2022-12-21T14:10:01+0100","local":false,"title":"Amsterdam - Hannover - Berlin","titleSections":[[{"type":"STATION","value":"Amsterdam C."},{"type":"STATION","value":"Bad Bentheim"},{"type":"ICON","value":"MAINTENANCE"},{"type":"STATION","value":"Berlin Hbf"}]],"isActive":false,"start":"2023-01-02T06:50:00+0100","end":"2023-01-07T12:50:00+0100","period":"Maandag 02-01-2023 06:50 uur t/m zaterdag 07-01-2023 12:50 uur.","impact":{"value":2},"publicationSections":[{"section":{"stations":[{"uicCode":"8400058","stationCode":"ASD","name":"Amsterdam Centraal","coordinate":{"lat":52.3788871765137,"lng":4.90027761459351},"countryCode":"NL"},{"uicCode":"8400060","stationCode":"ASDM","name":"Amsterdam Muiderpoort","coordinate":{"lat":52.3605537414551,"lng":4.93111133575439},"countryCode":"NL"},{"uicCode":"8400235","stationCode":"ASSP","name":"Amsterdam Science Park","coordinate":{"lat":52.35526,"lng":4.94651},"countryCode":"NL"},{"uicCode":"8400165","stationCode":"DMN","name":"Diemen","coordinate":{"lat":52.34515,"lng":4.967566},"countryCode":"NL"},{"uicCode":"8400685","stationCode":"WP","name":"Weesp","coordinate":{"lat":52.3127784729004,"lng":5.04305553436279},"countryCode":"NL"},{"uicCode":"8400452","stationCode":"NDB","name":"Naarden-Bussum","coordinate":{"lat":52.2802772521973,"lng":5.15694427490234},"countryCode":"NL"},{"uicCode":"8400145","stationCode":"BSMZ","name":"Bussum Zuid","coordinate":{"lat":52.2658348083496,"lng":5.16305541992188},"countryCode":"NL"},{"uicCode":"8400324","stationCode":"HVSM","name":"Hilversum Media Park","coordinate":{"lat":52.2380561828613,"lng":5.17388868331909},"countryCode":"NL"},{"uicCode":"8400322","stationCode":"HVS","name":"Hilversum","coordinate":{"lat":52.2258338928223,"lng":5.18194437026978},"countryCode":"NL"},{"uicCode":"8400086","stationCode":"BRN","name":"Baarn","coordinate":{"lat":52.2083320617676,"lng":5.28083324432373},"countryCode":"NL"},{"uicCode":"8400055","stationCode":"AMF","name":"Amersfoort Centraal","coordinate":{"lat":52.1538887023926,"lng":5.37055540084839},"countryCode":"NL"},{"uicCode":"8400490","stationCode":"HVL","name":"Hoevelaken","coordinate":{"lat":52.16652,"lng":5.45718},"countryCode":"NL"},{"uicCode":"8400066","stationCode":"APD","name":"Apeldoorn","coordinate":{"lat":52.2091674804687,"lng":5.97027778625488},"countryCode":"NL"},{"uicCode":"8400229","stationCode":"APDO","name":"Apeldoorn Osseveld","coordinate":{"lat":52.2152786254883,"lng":6.00444459915161},"countryCode":"NL"},{"uicCode":"8400599","stationCode":"TWL","name":"Twello","coordinate":{"lat":52.2377777099609,"lng":6.09861087799072},"countryCode":"NL"},{"uicCode":"8400173","stationCode":"DV","name":"Deventer","coordinate":{"lat":52.2574996948242,"lng":6.16055536270142},"countryCode":"NL"},{"uicCode":"8400185","stationCode":"DVC","name":"Deventer Colmschate","coordinate":{"lat":52.2502784729004,"lng":6.21444463729858},"countryCode":"NL"},{"uicCode":"8400328","stationCode":"HON","name":"Holten","coordinate":{"lat":52.2838897705078,"lng":6.42027759552002},"countryCode":"NL"},{"uicCode":"8400538","stationCode":"RSN","name":"Rijssen","coordinate":{"lat":52.3122215270996,"lng":6.52027797698975},"countryCode":"NL"},{"uicCode":"8400691","stationCode":"WDN","name":"Wierden","coordinate":{"lat":52.3613891601562,"lng":6.59166669845581},"countryCode":"NL"},{"uicCode":"8400051","stationCode":"AML","name":"Almelo","coordinate":{"lat":52.3580551147461,"lng":6.65388870239258},"countryCode":"NL"},{"uicCode":"8400520","stationCode":"AMRI","name":"Almelo de Riet","coordinate":{"lat":52.3419456481934,"lng":6.66666650772095},"countryCode":"NL"},{"uicCode":"8400124","stationCode":"BN","name":"Borne","coordinate":{"lat":52.2988891601562,"lng":6.74805545806885},"countryCode":"NL"},{"uicCode":"8400316","stationCode":"HGL","name":"Hengelo","coordinate":{"lat":52.2616653442383,"lng":6.79388904571533},"countryCode":"NL"},{"uicCode":"8400312","stationCode":"HGLO","name":"Hengelo Oost","coordinate":{"lat":52.2688903808594,"lng":6.81944465637207},"countryCode":"NL"},{"uicCode":"8400483","stationCode":"ODZ","name":"Oldenzaal","coordinate":{"lat":52.3063888549805,"lng":6.93472242355347},"countryCode":"NL"},{"uicCode":"8021156","stationCode":"BH","name":"Bad Bentheim","coordinate":{"lat":52.309685595156,"lng":7.15853691101074},"countryCode":"D"},{"uicCode":"8021067","stationCode":"RHEINE","name":"Rheine","coordinate":{"lat":52.276299,"lng":7.434255},"countryCode":"D"},{"uicCode":"8021025","stationCode":"OSNH","name":"Osnabrück Hbf","coordinate":{"lat":52.272851,"lng":8.061781},"countryCode":"D"},{"uicCode":"8013552","stationCode":"HANN","name":"Hannover Hbf","coordinate":{"lat":52.3770401,"lng":9.7416759},"countryCode":"D"},{"uicCode":"8065969","stationCode":"BERHBL","name":"Berlin Hbf","coordinate":{"lat":52.52503,"lng":13.36946},"countryCode":"D"}],"direction":"ONE_WAY"},"consequence":{"section":{"stations":[{"uicCode":"8021156","stationCode":"BH","name":"Bad Bentheim","coordinate":{"lat":52.309685595156,"lng":7.15853691101074},"countryCode":"D"},{"uicCode":"8021067","stationCode":"RHEINE","name":"Rheine","coordinate":{"lat":52.276299,"lng":7.434255},"countryCode":"D"},{"uicCode":"8021025","stationCode":"OSNH","name":"Osnabrück Hbf","coordinate":{"lat":52.272851,"lng":8.061781},"countryCode":"D"},{"uicCode":"8013552","stationCode":"HANN","name":"Hannover Hbf","coordinate":{"lat":52.3770401,"lng":9.7416759},"countryCode":"D"},{"uicCode":"8065969","stationCode":"BERHBL","name":"Berlin Hbf","coordinate":{"lat":52.52503,"lng":13.36946},"countryCode":"D"}],"direction":"ONE_WAY"},"description":"aangepaste internationale dienstregeling","level":"LESS_TRAINS"},"sectionType":"NEIGHBORING_COUNTRY"}],"timespans":[{"start":"2023-01-02T06:50:00+0100","end":"2023-01-02T12:50:00+0100","period":"Maandag 02-01-2023 06:50 uur t/m maandag 02-01-2023 12:50 uur.","situation":{"label":"Door werkzaamheden: van Bad Bentheim naar Berlin Hbf is de internationale dienstregeling aangepast."},"cause":{"label":"Werkzaamheden"},"additionalTravelTime":{"label":"U heeft geen langere reistijd.","shortLabel":"Geen extra reistijd"},"advices":["Dit kan gevolgen hebben voor uw reis. Plan uw reis in de (Internationale) app."]},{"start":"2023-01-03T06:50:00+0100","end":"2023-01-03T12:50:00+0100","period":"Dinsdag 03-01-2023 06:50 uur t/m dinsdag 03-01-2023 12:50 uur.","situation":{"label":"Door werkzaamheden: van Bad Bentheim naar Berlin Hbf is de internationale dienstregeling aangepast."},"cause":{"label":"Werkzaamheden"},"additionalTravelTime":{"label":"U heeft geen langere reistijd.","shortLabel":"Geen extra reistijd"},"advices":["Dit kan gevolgen hebben voor uw reis. Plan uw reis in de (Internationale) app."]},{"start":"2023-01-04T06:50:00+0100","end":"2023-01-04T12:50:00+0100","period":"Woensdag 04-01-2023 06:50 uur t/m woensdag 04-01-2023 12:50 uur.","situation":{"label":"Door werkzaamheden: van Bad Bentheim naar Berlin Hbf is de internationale dienstregeling aangepast."},"cause":{"label":"Werkzaamheden"},"additionalTravelTime":{"label":"U heeft geen langere reistijd.","shortLabel":"Geen extra reistijd"},"advices":["Dit kan gevolgen hebben voor uw reis. Plan uw reis in de (Internationale) app."]},{"start":"2023-01-05T06:50:00+0100","end":"2023-01-05T12:50:00+0100","period":"Donderdag 05-01-2023 06:50 uur t/m donderdag 05-01-2023 12:50 uur.","situation":{"label":"Door werkzaamheden: van Bad Bentheim naar Berlin Hbf is de internationale dienstregeling aangepast."},"cause":{"label":"Werkzaamheden"},"additionalTravelTime":{"label":"U heeft geen langere reistijd.","shortLabel":"Geen extra reistijd"},"advices":["Dit kan gevolgen hebben voor uw reis. Plan uw reis in de (Internationale) app."]},{"start":"2023-01-06T06:50:00+0100","end":"2023-01-06T12:50:00+0100","period":"Vrijdag 06-01-2023 06:50 uur t/m vrijdag 06-01-2023 12:50 uur.","situation":{"label":"Door werkzaamheden: van Bad Bentheim naar Berlin Hbf is de internationale dienstregeling aangepast."},"cause":{"label":"Werkzaamheden"},"additionalTravelTime":{"label":"U heeft geen langere reistijd.","shortLabel":"Geen extra reistijd"},"advices":["Dit kan gevolgen hebben voor uw reis. Plan uw reis in de (Internationale) app."]},{"start":"2023-01-07T06:50:00+0100","end":"2023-01-07T12:50:00+0100","period":"Zaterdag 07-01-2023 06:50 uur t/m zaterdag 07-01-2023 12:50 uur.","situation":{"label":"Door werkzaamheden: van Bad Bentheim naar Berlin Hbf is de internationale dienstregeling aangepast."},"cause":{"label":"Werkzaamheden"},"additionalTravelTime":{"label":"U heeft geen langere reistijd.","shortLabel":"Geen extra reistijd"},"advices":["Dit kan gevolgen hebben voor uw reis. Plan uw reis in de (Internationale) app."]}],"alternativeTransportTimespans":[]},{"id":"7003135","type":"MAINTENANCE","registrationTime":"2022-12-22T10:31:27+0100","releaseTime":"2022-12-22T10:31:27+0100","local":false,"title":"Venlo - Mönchengladbach - Düsseldorf","titleSections":[[{"type":"STATION","value":"Venlo"},{"type":"STATION","value":"Viersen"},{"type":"ICON","value":"MAINTENANCE"},{"type":"STATION","value":"Mönchengladbach"},{"type":"STATION","value":"Düsseldorf Hbf"}]],"isActive":false,"start":"2023-01-06T19:00:00+0100","end":"2023-01-13T20:00:00+0100","period":"Vrijdag 06-01-2023 19:00 uur t/m vrijdag 13-01-2023 20:00 uur.","impact":{"value":3},"summaryAdditionalTravelTime":{"label":"De extra reistijd kan oplopen tot 15 minuten.","shortLabel":"Extra reistijd tot 15 min.","maximumDurationInMinutes":15},"publicationSections":[{"section":{"stations":[{"uicCode":"8400644","stationCode":"VL","name":"Venlo","coordinate":{"lat":51.3636093139648,"lng":6.17277765274048},"countryCode":"NL"},{"uicCode":"8015130","stationCode":"KN","name":"Kaldenkirchen","coordinate":{"lat":51.327184,"lng":6.203225},"countryCode":"D"},{"uicCode":"8015129","stationCode":"KBRY","name":"Breyell","coordinate":{"lat":51.294615,"lng":6.241174},"countryCode":"D"},{"uicCode":"8015128","stationCode":"KBOI","name":"Boisheim","coordinate":{"lat":51.274323,"lng":6.274591},"countryCode":"D"},{"uicCode":"8015125","stationCode":"KDUL","name":"Dülken","coordinate":{"lat":51.257149,"lng":6.33793},"countryCode":"D"},{"uicCode":"8015122","stationCode":"VIERS","name":"Viersen","coordinate":{"lat":51.25516,"lng":6.40388},"countryCode":"D"},{"uicCode":"8015165","stationCode":"MCGB","name":"Mönchengladbach Hbf","coordinate":{"lat":51.196583,"lng":6.446111},"countryCode":"D"},{"uicCode":"8015149","stationCode":"NEUSS","name":"Neuss Hbf","coordinate":{"lat":51.20444,"lng":6.68468},"countryCode":"D"},{"uicCode":"8008094","stationCode":"DUSSEL","name":"Düsseldorf Hbf","coordinate":{"lat":51.220146,"lng":6.793137},"countryCode":"D"}],"direction":"BOTH"},"consequence":{"section":{"stations":[{"uicCode":"8015122","stationCode":"VIERS","name":"Viersen","coordinate":{"lat":51.25516,"lng":6.40388},"countryCode":"D"},{"uicCode":"8015165","stationCode":"MCGB","name":"Mönchengladbach Hbf","coordinate":{"lat":51.196583,"lng":6.446111},"countryCode":"D"}],"direction":"ONE_WAY"},"description":"aangepaste internationale dienstregeling","level":"LESS_TRAINS"},"sectionType":"NEIGHBORING_COUNTRY"}],"timespans":[{"start":"2023-01-06T19:00:00+0100","end":"2023-01-13T20:00:00+0100","period":"Vrijdag 06-01-2023 19:00 uur t/m vrijdag 13-01-2023 20:00 uur.","situation":{"label":"Door werkzaamheden: tussen Viersen en Mönchengladbach Hbf is de internationale dienstregeling aangepast."},"cause":{"label":"Werkzaamheden"},"additionalTravelTime":{"label":"De extra reistijd kan oplopen tot 15 minuten.","shortLabel":"Extra reistijd tot 15 min.","maximumDurationInMinutes":15},"alternativeTransport":{"label":"Er rijden bussen.","shortLabel":"er rijden bussen"},"advices":[]}],"alternativeTransportTimespans":[{"start":"2023-01-06T19:00:00+0100","end":"2023-01-13T20:00:00+0100","alternativeTransport":{"location":[],"label":"Er rijden bussen tussen Viersen en Mönchengladbach Hbf.","shortLabel":"Er rijden bussen Viersen - Mönchengladbach"}}]},{"id":"7003053","type":"MAINTENANCE","registrationTime":"2022-11-24T13:25:46+0100","releaseTime":"2022-11-24T13:25:46+0100","local":false,"title":"Amsterdam - Passau - Wien","titleSections":[[{"type":"STATION","value":"Amsterdam C."},{"type":"ICON","value":"MAINTENANCE"},{"type":"STATION","value":"Wien Hbf"}]],"isActive":false,"start":"2023-01-06T19:25:00+0100","end":"2023-02-10T20:35:00+0100","period":"Vrijdag 06-01-2023 19:25 uur t/m vrijdag 10-02-2023 20:35 uur.","impact":{"value":2},"summaryAdditionalTravelTime":{"label":"U heeft geen langere reistijd.","shortLabel":"Geen extra reistijd"},"publicationSections":[{"section":{"stations":[{"uicCode":"8400058","stationCode":"ASD","name":"Amsterdam Centraal","coordinate":{"lat":52.3788871765137,"lng":4.90027761459351},"countryCode":"NL"},{"uicCode":"8400060","stationCode":"ASDM","name":"Amsterdam Muiderpoort","coordinate":{"lat":52.3605537414551,"lng":4.93111133575439},"countryCode":"NL"},{"uicCode":"8400057","stationCode":"ASA","name":"Amsterdam Amstel","coordinate":{"lat":52.3466682434082,"lng":4.91777801513672},"countryCode":"NL"},{"uicCode":"8400194","stationCode":"DVD","name":"Duivendrecht","coordinate":{"lat":52.3233337402344,"lng":4.93638896942139},"countryCode":"NL"},{"uicCode":"8400074","stationCode":"ASB","name":"Amsterdam Bijlmer ArenA","coordinate":{"lat":52.3122215270996,"lng":4.94694423675537},"countryCode":"NL"},{"uicCode":"8400231","stationCode":"ASHD","name":"Amsterdam Holendrecht","coordinate":{"lat":52.29844,"lng":4.95972},"countryCode":"NL"},{"uicCode":"8400047","stationCode":"AC","name":"Abcoude","coordinate":{"lat":52.2785,"lng":4.977},"countryCode":"NL"},{"uicCode":"8400133","stationCode":"BKL","name":"Breukelen","coordinate":{"lat":52.17149,"lng":4.9906},"countryCode":"NL"},{"uicCode":"8400419","stationCode":"MAS","name":"Maarssen","coordinate":{"lat":52.1352767944336,"lng":5.03361129760742},"countryCode":"NL"},{"uicCode":"8400613","stationCode":"UTZL","name":"Utrecht Zuilen","coordinate":{"lat":52.103055,"lng":5.09},"countryCode":"NL"},{"uicCode":"8400621","stationCode":"UT","name":"Utrecht Centraal","coordinate":{"lat":52.0888900756836,"lng":5.11027765274048},"countryCode":"NL"},{"uicCode":"8400606","stationCode":"UTVR","name":"Utrecht Vaartsche Rijn","coordinate":{"lat":52.078889,"lng":5.121667},"countryCode":"NL"},{"uicCode":"8400141","stationCode":"BNK","name":"Bunnik","coordinate":{"lat":52.0630569458008,"lng":5.19444465637207},"countryCode":"NL"},{"uicCode":"8400182","stationCode":"DB","name":"Driebergen-Zeist","coordinate":{"lat":52.0652770996094,"lng":5.25861120223999},"countryCode":"NL"},{"uicCode":"8400417","stationCode":"MRN","name":"Maarn","coordinate":{"lat":52.0641670227051,"lng":5.36999988555908},"countryCode":"NL"},{"uicCode":"8400637","stationCode":"KLP","name":"Veenendaal-De Klomp","coordinate":{"lat":52.0458335876465,"lng":5.57388877868652},"countryCode":"NL"},{"uicCode":"8400200","stationCode":"ED","name":"Ede-Wageningen","coordinate":{"lat":52.0277786254883,"lng":5.67305564880371},"countryCode":"NL"},{"uicCode":"8400704","stationCode":"WF","name":"Wolfheze","coordinate":{"lat":52.0055541992188,"lng":5.7936110496521},"countryCode":"NL"},{"uicCode":"8400489","stationCode":"OTB","name":"Oosterbeek","coordinate":{"lat":51.9949989318848,"lng":5.84000015258789},"countryCode":"NL"},{"uicCode":"8400071","stationCode":"AH","name":"Arnhem Centraal","coordinate":{"lat":51.9850006103516,"lng":5.89916658401489},"countryCode":"NL"},{"uicCode":"8400072","stationCode":"AHP","name":"Arnhem Velperpoort","coordinate":{"lat":51.985279083252,"lng":5.91944456100464},"countryCode":"NL"},{"uicCode":"8400688","stationCode":"WTV","name":"Westervoort","coordinate":{"lat":51.96286,"lng":5.9695},"countryCode":"NL"},{"uicCode":"8400193","stationCode":"DVN","name":"Duiven","coordinate":{"lat":51.9433326721191,"lng":6.01472234725952},"countryCode":"NL"},{"uicCode":"8400735","stationCode":"ZV","name":"Zevenaar","coordinate":{"lat":51.9230537414551,"lng":6.07194423675537},"countryCode":"NL"},{"uicCode":"8033415","stationCode":"EL","name":"Emmerich-Elten","coordinate":{"lat":51.8743,"lng":6.15417},"countryCode":"D"},{"uicCode":"8010288","stationCode":"EM","name":"Emmerich","coordinate":{"lat":51.834283,"lng":6.255718},"countryCode":"D"},{"uicCode":"8010263","stationCode":"OBERH","name":"Oberhausen Hbf","coordinate":{"lat":51.47512,"lng":6.852038},"countryCode":"D"},{"uicCode":"8010316","stationCode":"DUISB","name":"Duisburg Hbf","coordinate":{"lat":51.4297785713316,"lng":6.77590370178222},"countryCode":"D"},{"uicCode":"8008094","stationCode":"DUSSEL","name":"Düsseldorf Hbf","coordinate":{"lat":51.220146,"lng":6.793137},"countryCode":"D"},{"uicCode":"8015561","stationCode":"KKD","name":"Köln Messe/Deutz","coordinate":{"lat":50.940874,"lng":6.975001},"countryCode":"D"},{"uicCode":"8015458","stationCode":"KOLN","name":"Köln Hbf","coordinate":{"lat":50.9432158,"lng":6.9589214},"countryCode":"D"},{"uicCode":"8015485","stationCode":"BONN","name":"Bonn Hbf","coordinate":{"lat":50.7320141646745,"lng":7.09712505340576},"countryCode":"D"},{"uicCode":"8019051","stationCode":"FMZ","name":"Mainz Hbf","coordinate":{"lat":50.001117,"lng":8.25872},"countryCode":"D"},{"uicCode":"8061676","stationCode":"FNAF","name":"Frankfurt Flughafen Fernb","coordinate":{"lat":50.0531710299286,"lng":8.570237159729},"countryCode":"D"},{"uicCode":"8022534","stationCode":"WURZB","name":"Würzburg Hbf","coordinate":{"lat":49.80179,"lng":9.9358},"countryCode":"D"},{"uicCode":"8022193","stationCode":"NURNB","name":"Nürnberg Hbf","coordinate":{"lat":49.4449634,"lng":11.0826087},"countryCode":"D"},{"uicCode":"8026294","stationCode":"REGENB","name":"Regensburg Hbf","coordinate":{"lat":49.011672,"lng":12.099617},"countryCode":"D"},{"uicCode":"8026506","stationCode":"PASS","name":"Passau Hbf","coordinate":{"lat":48.5734269523465,"lng":13.450870513916},"countryCode":"D"},{"uicCode":"8101081","stationCode":"WELS","name":"Wels Hbf","coordinate":{"lat":48.166111,"lng":14.026667},"countryCode":"A"},{"uicCode":"8101073","stationCode":"LINZ","name":"Linz Hbf","coordinate":{"lat":48.29018,"lng":14.29213},"countryCode":"A"},{"uicCode":"8101032","stationCode":"POLTEN","name":"St.Pölten Hbf","coordinate":{"lat":48.20769,"lng":15.62591},"countryCode":"A"},{"uicCode":"8101003","stationCode":"WBF","name":"Wien Hbf","coordinate":{"lat":48.185,"lng":16.375833},"countryCode":"A"}],"direction":"BOTH"},"consequence":{"section":{"stations":[{"uicCode":"8400058","stationCode":"ASD","name":"Amsterdam Centraal","coordinate":{"lat":52.3788871765137,"lng":4.90027761459351},"countryCode":"NL"},{"uicCode":"8400060","stationCode":"ASDM","name":"Amsterdam Muiderpoort","coordinate":{"lat":52.3605537414551,"lng":4.93111133575439},"countryCode":"NL"},{"uicCode":"8400057","stationCode":"ASA","name":"Amsterdam Amstel","coordinate":{"lat":52.3466682434082,"lng":4.91777801513672},"countryCode":"NL"},{"uicCode":"8400194","stationCode":"DVD","name":"Duivendrecht","coordinate":{"lat":52.3233337402344,"lng":4.93638896942139},"countryCode":"NL"},{"uicCode":"8400074","stationCode":"ASB","name":"Amsterdam Bijlmer ArenA","coordinate":{"lat":52.3122215270996,"lng":4.94694423675537},"countryCode":"NL"},{"uicCode":"8400231","stationCode":"ASHD","name":"Amsterdam Holendrecht","coordinate":{"lat":52.29844,"lng":4.95972},"countryCode":"NL"},{"uicCode":"8400047","stationCode":"AC","name":"Abcoude","coordinate":{"lat":52.2785,"lng":4.977},"countryCode":"NL"},{"uicCode":"8400133","stationCode":"BKL","name":"Breukelen","coordinate":{"lat":52.17149,"lng":4.9906},"countryCode":"NL"},{"uicCode":"8400419","stationCode":"MAS","name":"Maarssen","coordinate":{"lat":52.1352767944336,"lng":5.03361129760742},"countryCode":"NL"},{"uicCode":"8400613","stationCode":"UTZL","name":"Utrecht Zuilen","coordinate":{"lat":52.103055,"lng":5.09},"countryCode":"NL"},{"uicCode":"8400621","stationCode":"UT","name":"Utrecht Centraal","coordinate":{"lat":52.0888900756836,"lng":5.11027765274048},"countryCode":"NL"},{"uicCode":"8400606","stationCode":"UTVR","name":"Utrecht Vaartsche Rijn","coordinate":{"lat":52.078889,"lng":5.121667},"countryCode":"NL"},{"uicCode":"8400141","stationCode":"BNK","name":"Bunnik","coordinate":{"lat":52.0630569458008,"lng":5.19444465637207},"countryCode":"NL"},{"uicCode":"8400182","stationCode":"DB","name":"Driebergen-Zeist","coordinate":{"lat":52.0652770996094,"lng":5.25861120223999},"countryCode":"NL"},{"uicCode":"8400417","stationCode":"MRN","name":"Maarn","coordinate":{"lat":52.0641670227051,"lng":5.36999988555908},"countryCode":"NL"},{"uicCode":"8400637","stationCode":"KLP","name":"Veenendaal-De Klomp","coordinate":{"lat":52.0458335876465,"lng":5.57388877868652},"countryCode":"NL"},{"uicCode":"8400200","stationCode":"ED","name":"Ede-Wageningen","coordinate":{"lat":52.0277786254883,"lng":5.67305564880371},"countryCode":"NL"},{"uicCode":"8400704","stationCode":"WF","name":"Wolfheze","coordinate":{"lat":52.0055541992188,"lng":5.7936110496521},"countryCode":"NL"},{"uicCode":"8400489","stationCode":"OTB","name":"Oosterbeek","coordinate":{"lat":51.9949989318848,"lng":5.84000015258789},"countryCode":"NL"},{"uicCode":"8400071","stationCode":"AH","name":"Arnhem Centraal","coordinate":{"lat":51.9850006103516,"lng":5.89916658401489},"countryCode":"NL"},{"uicCode":"8400072","stationCode":"AHP","name":"Arnhem Velperpoort","coordinate":{"lat":51.985279083252,"lng":5.91944456100464},"countryCode":"NL"},{"uicCode":"8400688","stationCode":"WTV","name":"Westervoort","coordinate":{"lat":51.96286,"lng":5.9695},"countryCode":"NL"},{"uicCode":"8400193","stationCode":"DVN","name":"Duiven","coordinate":{"lat":51.9433326721191,"lng":6.01472234725952},"countryCode":"NL"},{"uicCode":"8400735","stationCode":"ZV","name":"Zevenaar","coordinate":{"lat":51.9230537414551,"lng":6.07194423675537},"countryCode":"NL"},{"uicCode":"8033415","stationCode":"EL","name":"Emmerich-Elten","coordinate":{"lat":51.8743,"lng":6.15417},"countryCode":"D"},{"uicCode":"8010288","stationCode":"EM","name":"Emmerich","coordinate":{"lat":51.834283,"lng":6.255718},"countryCode":"D"},{"uicCode":"8010263","stationCode":"OBERH","name":"Oberhausen Hbf","coordinate":{"lat":51.47512,"lng":6.852038},"countryCode":"D"},{"uicCode":"8010316","stationCode":"DUISB","name":"Duisburg Hbf","coordinate":{"lat":51.4297785713316,"lng":6.77590370178222},"countryCode":"D"},{"uicCode":"8008094","stationCode":"DUSSEL","name":"Düsseldorf Hbf","coordinate":{"lat":51.220146,"lng":6.793137},"countryCode":"D"},{"uicCode":"8015561","stationCode":"KKD","name":"Köln Messe/Deutz","coordinate":{"lat":50.940874,"lng":6.975001},"countryCode":"D"},{"uicCode":"8015458","stationCode":"KOLN","name":"Köln Hbf","coordinate":{"lat":50.9432158,"lng":6.9589214},"countryCode":"D"},{"uicCode":"8015485","stationCode":"BONN","name":"Bonn Hbf","coordinate":{"lat":50.7320141646745,"lng":7.09712505340576},"countryCode":"D"},{"uicCode":"8019051","stationCode":"FMZ","name":"Mainz Hbf","coordinate":{"lat":50.001117,"lng":8.25872},"countryCode":"D"},{"uicCode":"8061676","stationCode":"FNAF","name":"Frankfurt Flughafen Fernb","coordinate":{"lat":50.0531710299286,"lng":8.570237159729},"countryCode":"D"},{"uicCode":"8022534","stationCode":"WURZB","name":"Würzburg Hbf","coordinate":{"lat":49.80179,"lng":9.9358},"countryCode":"D"},{"uicCode":"8022193","stationCode":"NURNB","name":"Nürnberg Hbf","coordinate":{"lat":49.4449634,"lng":11.0826087},"countryCode":"D"},{"uicCode":"8026294","stationCode":"REGENB","name":"Regensburg Hbf","coordinate":{"lat":49.011672,"lng":12.099617},"countryCode":"D"},{"uicCode":"8026506","stationCode":"PASS","name":"Passau Hbf","coordinate":{"lat":48.5734269523465,"lng":13.450870513916},"countryCode":"D"},{"uicCode":"8101081","stationCode":"WELS","name":"Wels Hbf","coordinate":{"lat":48.166111,"lng":14.026667},"countryCode":"A"},{"uicCode":"8101073","stationCode":"LINZ","name":"Linz Hbf","coordinate":{"lat":48.29018,"lng":14.29213},"countryCode":"A"},{"uicCode":"8101032","stationCode":"POLTEN","name":"St.Pölten Hbf","coordinate":{"lat":48.20769,"lng":15.62591},"countryCode":"A"},{"uicCode":"8101003","stationCode":"WBF","name":"Wien Hbf","coordinate":{"lat":48.185,"lng":16.375833},"countryCode":"A"}],"direction":"ONE_WAY"},"description":"aangepaste internationale dienstregeling","level":"LESS_TRAINS"},"sectionType":"NEIGHBORING_COUNTRY"}],"timespans":[{"start":"2023-01-06T19:25:00+0100","end":"2023-02-10T20:35:00+0100","period":"Vrijdag 06-01-2023 19:25 uur t/m vrijdag 10-02-2023 20:35 uur.","situation":{"label":"Door werkzaamheden: tussen Amsterdam Centraal en Wien Hbf is de internationale dienstregeling aangepast."},"cause":{"label":"Werkzaamheden"},"additionalTravelTime":{"label":"U heeft geen langere reistijd.","shortLabel":"Geen extra reistijd"},"advices":["Dit kan gevolgen hebben voor uw reis. Plan uw reis in de (Internationale) app."]}],"alternativeTransportTimespans":[]},{"id":"7003052","type":"MAINTENANCE","registrationTime":"2022-11-24T13:22:54+0100","releaseTime":"2022-11-24T13:22:54+0100","local":false,"title":"Amsterdam - Köln - Zürich HB","titleSections":[[{"type":"STATION","value":"Amsterdam C."},{"type":"ICON","value":"MAINTENANCE"},{"type":"STATION","value":"Zürich HB"}]],"isActive":false,"start":"2023-01-06T20:25:00+0100","end":"2023-02-10T22:00:00+0100","period":"Vrijdag 06-01-2023 20:25 uur t/m vrijdag 10-02-2023 22:00 uur.","impact":{"value":2},"summaryAdditionalTravelTime":{"label":"U heeft geen langere reistijd.","shortLabel":"Geen extra reistijd"},"publicationSections":[{"section":{"stations":[{"uicCode":"8400058","stationCode":"ASD","name":"Amsterdam Centraal","coordinate":{"lat":52.3788871765137,"lng":4.90027761459351},"countryCode":"NL"},{"uicCode":"8400060","stationCode":"ASDM","name":"Amsterdam Muiderpoort","coordinate":{"lat":52.3605537414551,"lng":4.93111133575439},"countryCode":"NL"},{"uicCode":"8400057","stationCode":"ASA","name":"Amsterdam Amstel","coordinate":{"lat":52.3466682434082,"lng":4.91777801513672},"countryCode":"NL"},{"uicCode":"8400194","stationCode":"DVD","name":"Duivendrecht","coordinate":{"lat":52.3233337402344,"lng":4.93638896942139},"countryCode":"NL"},{"uicCode":"8400074","stationCode":"ASB","name":"Amsterdam Bijlmer ArenA","coordinate":{"lat":52.3122215270996,"lng":4.94694423675537},"countryCode":"NL"},{"uicCode":"8400231","stationCode":"ASHD","name":"Amsterdam Holendrecht","coordinate":{"lat":52.29844,"lng":4.95972},"countryCode":"NL"},{"uicCode":"8400047","stationCode":"AC","name":"Abcoude","coordinate":{"lat":52.2785,"lng":4.977},"countryCode":"NL"},{"uicCode":"8400133","stationCode":"BKL","name":"Breukelen","coordinate":{"lat":52.17149,"lng":4.9906},"countryCode":"NL"},{"uicCode":"8400419","stationCode":"MAS","name":"Maarssen","coordinate":{"lat":52.1352767944336,"lng":5.03361129760742},"countryCode":"NL"},{"uicCode":"8400613","stationCode":"UTZL","name":"Utrecht Zuilen","coordinate":{"lat":52.103055,"lng":5.09},"countryCode":"NL"},{"uicCode":"8400621","stationCode":"UT","name":"Utrecht Centraal","coordinate":{"lat":52.0888900756836,"lng":5.11027765274048},"countryCode":"NL"},{"uicCode":"8400606","stationCode":"UTVR","name":"Utrecht Vaartsche Rijn","coordinate":{"lat":52.078889,"lng":5.121667},"countryCode":"NL"},{"uicCode":"8400141","stationCode":"BNK","name":"Bunnik","coordinate":{"lat":52.0630569458008,"lng":5.19444465637207},"countryCode":"NL"},{"uicCode":"8400182","stationCode":"DB","name":"Driebergen-Zeist","coordinate":{"lat":52.0652770996094,"lng":5.25861120223999},"countryCode":"NL"},{"uicCode":"8400417","stationCode":"MRN","name":"Maarn","coordinate":{"lat":52.0641670227051,"lng":5.36999988555908},"countryCode":"NL"},{"uicCode":"8400637","stationCode":"KLP","name":"Veenendaal-De Klomp","coordinate":{"lat":52.0458335876465,"lng":5.57388877868652},"countryCode":"NL"},{"uicCode":"8400200","stationCode":"ED","name":"Ede-Wageningen","coordinate":{"lat":52.0277786254883,"lng":5.67305564880371},"countryCode":"NL"},{"uicCode":"8400704","stationCode":"WF","name":"Wolfheze","coordinate":{"lat":52.0055541992188,"lng":5.7936110496521},"countryCode":"NL"},{"uicCode":"8400489","stationCode":"OTB","name":"Oosterbeek","coordinate":{"lat":51.9949989318848,"lng":5.84000015258789},"countryCode":"NL"},{"uicCode":"8400071","stationCode":"AH","name":"Arnhem Centraal","coordinate":{"lat":51.9850006103516,"lng":5.89916658401489},"countryCode":"NL"},{"uicCode":"8400072","stationCode":"AHP","name":"Arnhem Velperpoort","coordinate":{"lat":51.985279083252,"lng":5.91944456100464},"countryCode":"NL"},{"uicCode":"8400688","stationCode":"WTV","name":"Westervoort","coordinate":{"lat":51.96286,"lng":5.9695},"countryCode":"NL"},{"uicCode":"8400193","stationCode":"DVN","name":"Duiven","coordinate":{"lat":51.9433326721191,"lng":6.01472234725952},"countryCode":"NL"},{"uicCode":"8400735","stationCode":"ZV","name":"Zevenaar","coordinate":{"lat":51.9230537414551,"lng":6.07194423675537},"countryCode":"NL"},{"uicCode":"8033415","stationCode":"EL","name":"Emmerich-Elten","coordinate":{"lat":51.8743,"lng":6.15417},"countryCode":"D"},{"uicCode":"8010288","stationCode":"EM","name":"Emmerich","coordinate":{"lat":51.834283,"lng":6.255718},"countryCode":"D"},{"uicCode":"8010263","stationCode":"OBERH","name":"Oberhausen Hbf","coordinate":{"lat":51.47512,"lng":6.852038},"countryCode":"D"},{"uicCode":"8010316","stationCode":"DUISB","name":"Duisburg Hbf","coordinate":{"lat":51.4297785713316,"lng":6.77590370178222},"countryCode":"D"},{"uicCode":"8008094","stationCode":"DUSSEL","name":"Düsseldorf Hbf","coordinate":{"lat":51.220146,"lng":6.793137},"countryCode":"D"},{"uicCode":"8015458","stationCode":"KOLN","name":"Köln Hbf","coordinate":{"lat":50.9432158,"lng":6.9589214},"countryCode":"D"},{"uicCode":"8015485","stationCode":"BONN","name":"Bonn Hbf","coordinate":{"lat":50.7320141646745,"lng":7.09712505340576},"countryCode":"D"},{"uicCode":"8019023","stationCode":"KKO","name":"Koblenz Hbf","coordinate":{"lat":50.351085,"lng":7.588649},"countryCode":"D"},{"uicCode":"8019051","stationCode":"FMZ","name":"Mainz Hbf","coordinate":{"lat":50.001117,"lng":8.25872},"countryCode":"D"},{"uicCode":"8061676","stationCode":"FNAF","name":"Frankfurt Flughafen Fernb","coordinate":{"lat":50.0531710299286,"lng":8.570237159729},"countryCode":"D"},{"uicCode":"8011068","stationCode":"FFFM","name":"Frankfurt (M) Hbf","coordinate":{"lat":50.1071222,"lng":8.6638338},"countryCode":"D"},{"uicCode":"8014008","stationCode":"MANNHE","name":"Mannheim Hbf","coordinate":{"lat":49.479354,"lng":8.468921},"countryCode":"D"},{"uicCode":"8014228","stationCode":"KARLSR","name":"Karlsruhe Hbf","coordinate":{"lat":48.9936223,"lng":8.400743},"countryCode":"D"},{"uicCode":"8014277","stationCode":"RBB","name":"Baden-Baden","coordinate":{"lat":48.790082,"lng":8.190468},"countryCode":"D"},{"uicCode":"8014309","stationCode":"RO","name":"Offenburg","coordinate":{"lat":48.476475,"lng":7.946723},"countryCode":"D"},{"uicCode":"8014350","stationCode":"RF","name":"Freiburg (Breisgau) Hbf","coordinate":{"lat":47.99789,"lng":7.84134},"countryCode":"D"},{"uicCode":"8014431","stationCode":"BASELB","name":"Basel Bad Bf","coordinate":{"lat":47.56815,"lng":7.6073},"countryCode":"D"},{"uicCode":"8500010","stationCode":"BASELS","name":"Basel SBB","coordinate":{"lat":47.5474,"lng":7.58956},"countryCode":"CH"},{"uicCode":"8503000","stationCode":"ZUE","name":"Zürich HB","coordinate":{"lat":47.37819,"lng":8.5392},"countryCode":"CH"}],"direction":"BOTH"},"consequence":{"section":{"stations":[{"uicCode":"8400058","stationCode":"ASD","name":"Amsterdam Centraal","coordinate":{"lat":52.3788871765137,"lng":4.90027761459351},"countryCode":"NL"},{"uicCode":"8400060","stationCode":"ASDM","name":"Amsterdam Muiderpoort","coordinate":{"lat":52.3605537414551,"lng":4.93111133575439},"countryCode":"NL"},{"uicCode":"8400057","stationCode":"ASA","name":"Amsterdam Amstel","coordinate":{"lat":52.3466682434082,"lng":4.91777801513672},"countryCode":"NL"},{"uicCode":"8400194","stationCode":"DVD","name":"Duivendrecht","coordinate":{"lat":52.3233337402344,"lng":4.93638896942139},"countryCode":"NL"},{"uicCode":"8400074","stationCode":"ASB","name":"Amsterdam Bijlmer ArenA","coordinate":{"lat":52.3122215270996,"lng":4.94694423675537},"countryCode":"NL"},{"uicCode":"8400231","stationCode":"ASHD","name":"Amsterdam Holendrecht","coordinate":{"lat":52.29844,"lng":4.95972},"countryCode":"NL"},{"uicCode":"8400047","stationCode":"AC","name":"Abcoude","coordinate":{"lat":52.2785,"lng":4.977},"countryCode":"NL"},{"uicCode":"8400133","stationCode":"BKL","name":"Breukelen","coordinate":{"lat":52.17149,"lng":4.9906},"countryCode":"NL"},{"uicCode":"8400419","stationCode":"MAS","name":"Maarssen","coordinate":{"lat":52.1352767944336,"lng":5.03361129760742},"countryCode":"NL"},{"uicCode":"8400613","stationCode":"UTZL","name":"Utrecht Zuilen","coordinate":{"lat":52.103055,"lng":5.09},"countryCode":"NL"},{"uicCode":"8400621","stationCode":"UT","name":"Utrecht Centraal","coordinate":{"lat":52.0888900756836,"lng":5.11027765274048},"countryCode":"NL"},{"uicCode":"8400606","stationCode":"UTVR","name":"Utrecht Vaartsche Rijn","coordinate":{"lat":52.078889,"lng":5.121667},"countryCode":"NL"},{"uicCode":"8400141","stationCode":"BNK","name":"Bunnik","coordinate":{"lat":52.0630569458008,"lng":5.19444465637207},"countryCode":"NL"},{"uicCode":"8400182","stationCode":"DB","name":"Driebergen-Zeist","coordinate":{"lat":52.0652770996094,"lng":5.25861120223999},"countryCode":"NL"},{"uicCode":"8400417","stationCode":"MRN","name":"Maarn","coordinate":{"lat":52.0641670227051,"lng":5.36999988555908},"countryCode":"NL"},{"uicCode":"8400637","stationCode":"KLP","name":"Veenendaal-De Klomp","coordinate":{"lat":52.0458335876465,"lng":5.57388877868652},"countryCode":"NL"},{"uicCode":"8400200","stationCode":"ED","name":"Ede-Wageningen","coordinate":{"lat":52.0277786254883,"lng":5.67305564880371},"countryCode":"NL"},{"uicCode":"8400704","stationCode":"WF","name":"Wolfheze","coordinate":{"lat":52.0055541992188,"lng":5.7936110496521},"countryCode":"NL"},{"uicCode":"8400489","stationCode":"OTB","name":"Oosterbeek","coordinate":{"lat":51.9949989318848,"lng":5.84000015258789},"countryCode":"NL"},{"uicCode":"8400071","stationCode":"AH","name":"Arnhem Centraal","coordinate":{"lat":51.9850006103516,"lng":5.89916658401489},"countryCode":"NL"},{"uicCode":"8400072","stationCode":"AHP","name":"Arnhem Velperpoort","coordinate":{"lat":51.985279083252,"lng":5.91944456100464},"countryCode":"NL"},{"uicCode":"8400688","stationCode":"WTV","name":"Westervoort","coordinate":{"lat":51.96286,"lng":5.9695},"countryCode":"NL"},{"uicCode":"8400193","stationCode":"DVN","name":"Duiven","coordinate":{"lat":51.9433326721191,"lng":6.01472234725952},"countryCode":"NL"},{"uicCode":"8400735","stationCode":"ZV","name":"Zevenaar","coordinate":{"lat":51.9230537414551,"lng":6.07194423675537},"countryCode":"NL"},{"uicCode":"8033415","stationCode":"EL","name":"Emmerich-Elten","coordinate":{"lat":51.8743,"lng":6.15417},"countryCode":"D"},{"uicCode":"8010288","stationCode":"EM","name":"Emmerich","coordinate":{"lat":51.834283,"lng":6.255718},"countryCode":"D"},{"uicCode":"8010263","stationCode":"OBERH","name":"Oberhausen Hbf","coordinate":{"lat":51.47512,"lng":6.852038},"countryCode":"D"},{"uicCode":"8010316","stationCode":"DUISB","name":"Duisburg Hbf","coordinate":{"lat":51.4297785713316,"lng":6.77590370178222},"countryCode":"D"},{"uicCode":"8008094","stationCode":"DUSSEL","name":"Düsseldorf Hbf","coordinate":{"lat":51.220146,"lng":6.793137},"countryCode":"D"},{"uicCode":"8015458","stationCode":"KOLN","name":"Köln Hbf","coordinate":{"lat":50.9432158,"lng":6.9589214},"countryCode":"D"},{"uicCode":"8015485","stationCode":"BONN","name":"Bonn Hbf","coordinate":{"lat":50.7320141646745,"lng":7.09712505340576},"countryCode":"D"},{"uicCode":"8019023","stationCode":"KKO","name":"Koblenz Hbf","coordinate":{"lat":50.351085,"lng":7.588649},"countryCode":"D"},{"uicCode":"8019051","stationCode":"FMZ","name":"Mainz Hbf","coordinate":{"lat":50.001117,"lng":8.25872},"countryCode":"D"},{"uicCode":"8061676","stationCode":"FNAF","name":"Frankfurt Flughafen Fernb","coordinate":{"lat":50.0531710299286,"lng":8.570237159729},"countryCode":"D"},{"uicCode":"8011068","stationCode":"FFFM","name":"Frankfurt (M) Hbf","coordinate":{"lat":50.1071222,"lng":8.6638338},"countryCode":"D"},{"uicCode":"8014008","stationCode":"MANNHE","name":"Mannheim Hbf","coordinate":{"lat":49.479354,"lng":8.468921},"countryCode":"D"},{"uicCode":"8014228","stationCode":"KARLSR","name":"Karlsruhe Hbf","coordinate":{"lat":48.9936223,"lng":8.400743},"countryCode":"D"},{"uicCode":"8014277","stationCode":"RBB","name":"Baden-Baden","coordinate":{"lat":48.790082,"lng":8.190468},"countryCode":"D"},{"uicCode":"8014309","stationCode":"RO","name":"Offenburg","coordinate":{"lat":48.476475,"lng":7.946723},"countryCode":"D"},{"uicCode":"8014350","stationCode":"RF","name":"Freiburg (Breisgau) Hbf","coordinate":{"lat":47.99789,"lng":7.84134},"countryCode":"D"},{"uicCode":"8014431","stationCode":"BASELB","name":"Basel Bad Bf","coordinate":{"lat":47.56815,"lng":7.6073},"countryCode":"D"},{"uicCode":"8500010","stationCode":"BASELS","name":"Basel SBB","coordinate":{"lat":47.5474,"lng":7.58956},"countryCode":"CH"},{"uicCode":"8503000","stationCode":"ZUE","name":"Zürich HB","coordinate":{"lat":47.37819,"lng":8.5392},"countryCode":"CH"}],"direction":"ONE_WAY"},"description":"aangepaste internationale dienstregeling","level":"LESS_TRAINS"},"sectionType":"NEIGHBORING_COUNTRY"}],"timespans":[{"start":"2023-01-06T20:25:00+0100","end":"2023-02-10T22:00:00+0100","period":"Vrijdag 06-01-2023 20:25 uur t/m vrijdag 10-02-2023 22:00 uur.","situation":{"label":"Door werkzaamheden: tussen Amsterdam Centraal en Zürich HB is de internationale dienstregeling aangepast."},"cause":{"label":"Werkzaamheden"},"additionalTravelTime":{"label":"U heeft geen langere reistijd.","shortLabel":"Geen extra reistijd"},"advices":["Dit kan gevolgen hebben voor uw reis. Plan uw reis in de (Internationale) app."]}],"alternativeTransportTimespans":[]},{"id":"7003050","type":"MAINTENANCE","registrationTime":"2022-12-06T11:25:56+0100","releaseTime":"2022-12-06T11:25:56+0100","local":false,"title":"Alkmaar - Den Helder; Alkmaar - Hoorn","titleSections":[[{"type":"STATION","value":"Alkmaar"},{"type":"ICON","value":"MAINTENANCE"},{"type":"STATION","value":"Heerhugowaard"},{"type":"STATION","value":"Den Helder"}],[{"type":"STATION","value":"Alkmaar"},{"type":"ICON","value":"MAINTENANCE"},{"type":"STATION","value":"Heerhugowaard"},{"type":"STATION","value":"Hoorn"}]],"isActive":false,"start":"2023-01-06T21:50:00+0100","end":"2023-01-07T07:20:00+0100","period":"Vrijdag 06-01-2023 21:50 uur t/m zaterdag 07-01-2023 07:20 uur.","impact":{"value":3},"summaryAdditionalTravelTime":{"label":"De extra reistijd kan oplopen tot 30 minuten.","shortLabel":"Extra reistijd tot 30 min.","maximumDurationInMinutes":30},"publicationSections":[{"section":{"stations":[{"uicCode":"8400050","stationCode":"AMR","name":"Alkmaar","coordinate":{"lat":52.6377792358398,"lng":4.73972225189209},"countryCode":"NL"},{"uicCode":"8400052","stationCode":"AMRN","name":"Alkmaar Noord","coordinate":{"lat":52.6438903808594,"lng":4.76416683197022},"countryCode":"NL"},{"uicCode":"8400306","stationCode":"HWD","name":"Heerhugowaard","coordinate":{"lat":52.6697235107422,"lng":4.82277774810791},"countryCode":"NL"},{"uicCode":"8400549","stationCode":"SGN","name":"Schagen","coordinate":{"lat":52.7844429016113,"lng":4.80527782440186},"countryCode":"NL"},{"uicCode":"8400065","stationCode":"ANA","name":"Anna Paulowna","coordinate":{"lat":52.8672218322754,"lng":4.81111097335815},"countryCode":"NL"},{"uicCode":"8400303","stationCode":"HDRZ","name":"Den Helder Zuid","coordinate":{"lat":52.9324989318848,"lng":4.76416683197022},"countryCode":"NL"},{"uicCode":"8400311","stationCode":"HDR","name":"Den Helder","coordinate":{"lat":52.9552764892578,"lng":4.76111125946045},"countryCode":"NL"}],"direction":"BOTH"},"consequence":{"section":{"stations":[{"uicCode":"8400050","stationCode":"AMR","name":"Alkmaar","coordinate":{"lat":52.6377792358398,"lng":4.73972225189209},"countryCode":"NL"},{"uicCode":"8400052","stationCode":"AMRN","name":"Alkmaar Noord","coordinate":{"lat":52.6438903808594,"lng":4.76416683197022},"countryCode":"NL"},{"uicCode":"8400306","stationCode":"HWD","name":"Heerhugowaard","coordinate":{"lat":52.6697235107422,"lng":4.82277774810791},"countryCode":"NL"}],"direction":"ONE_WAY"},"description":"rijden bussen","level":"NO_OR_MUCH_LESS_TRAINS"},"sectionType":"NL"},{"section":{"stations":[{"uicCode":"8400050","stationCode":"AMR","name":"Alkmaar","coordinate":{"lat":52.6377792358398,"lng":4.73972225189209},"countryCode":"NL"},{"uicCode":"8400052","stationCode":"AMRN","name":"Alkmaar Noord","coordinate":{"lat":52.6438903808594,"lng":4.76416683197022},"countryCode":"NL"},{"uicCode":"8400306","stationCode":"HWD","name":"Heerhugowaard","coordinate":{"lat":52.6697235107422,"lng":4.82277774810791},"countryCode":"NL"},{"uicCode":"8400480","stationCode":"OBD","name":"Obdam","coordinate":{"lat":52.6780548095703,"lng":4.90722227096558},"countryCode":"NL"},{"uicCode":"8400337","stationCode":"HN","name":"Hoorn","coordinate":{"lat":52.6447219848633,"lng":5.05555534362793},"countryCode":"NL"}],"direction":"BOTH"},"consequence":{"section":{"stations":[{"uicCode":"8400050","stationCode":"AMR","name":"Alkmaar","coordinate":{"lat":52.6377792358398,"lng":4.73972225189209},"countryCode":"NL"},{"uicCode":"8400052","stationCode":"AMRN","name":"Alkmaar Noord","coordinate":{"lat":52.6438903808594,"lng":4.76416683197022},"countryCode":"NL"},{"uicCode":"8400306","stationCode":"HWD","name":"Heerhugowaard","coordinate":{"lat":52.6697235107422,"lng":4.82277774810791},"countryCode":"NL"}],"direction":"ONE_WAY"},"description":"rijden bussen","level":"NO_OR_MUCH_LESS_TRAINS"},"sectionType":"NL"}],"timespans":[{"start":"2023-01-06T21:50:00+0100","end":"2023-01-07T07:20:00+0100","period":"Vrijdag 06-01-2023 21:50 uur t/m zaterdag 07-01-2023 07:20 uur.","situation":{"label":"Door werkzaamheden: tussen Alkmaar en Heerhugowaard rijden er bussen."},"cause":{"label":"Werkzaamheden"},"additionalTravelTime":{"label":"De extra reistijd kan oplopen tot 30 minuten.","shortLabel":"Extra reistijd tot 30 min.","maximumDurationInMinutes":30},"alternativeTransport":{"label":"Er rijden bussen.","shortLabel":"er rijden bussen"},"advices":["Van Amsterdam C. naar Heerhugowaard/Den Helder reist u via Hoorn"]}],"alternativeTransportTimespans":[{"start":"2023-01-06T21:50:00+0100","end":"2023-01-07T02:50:00+0100","alternativeTransport":{"location":[{"station":{"uicCode":"8400050","stationCode":"AMR","name":"Alkmaar","coordinate":{"lat":52.6377792358398,"lng":4.73972225189209},"countryCode":"NL"},"description":"vanaf de achterzijde van het station"},{"station":{"uicCode":"8400052","stationCode":"AMRN","name":"Alkmaar Noord","coordinate":{"lat":52.6438903808594,"lng":4.76416683197022},"countryCode":"NL"},"description":"vanaf het busstation"},{"station":{"uicCode":"8400306","stationCode":"HWD","name":"Heerhugowaard","coordinate":{"lat":52.6697235107422,"lng":4.82277774810791},"countryCode":"NL"},"description":"vanaf het busstation"}],"label":"Er rijden bussen van Alkmaar, Alkmaar Noord naar Heerhugowaard.","shortLabel":"Er rijden bussen Alkmaar -> Alkmaar Noord -> Heerhugowaard"}},{"start":"2023-01-06T22:00:00+0100","end":"2023-01-07T01:00:00+0100","alternativeTransport":{"location":[{"station":{"uicCode":"8400306","stationCode":"HWD","name":"Heerhugowaard","coordinate":{"lat":52.6697235107422,"lng":4.82277774810791},"countryCode":"NL"},"description":"vanaf het busstation"},{"station":{"uicCode":"8400052","stationCode":"AMRN","name":"Alkmaar Noord","coordinate":{"lat":52.6438903808594,"lng":4.76416683197022},"countryCode":"NL"},"description":"vanaf het busstation"},{"station":{"uicCode":"8400050","stationCode":"AMR","name":"Alkmaar","coordinate":{"lat":52.6377792358398,"lng":4.73972225189209},"countryCode":"NL"},"description":"vanaf de achterzijde van het station"}],"label":"Er rijden bussen van Heerhugowaard, Alkmaar Noord naar Alkmaar.","shortLabel":"Er rijden bussen Heerhugowaard -> Alkmaar Noord -> Alkmaar"}}]},{"id":"7003095","type":"MAINTENANCE","registrationTime":"2022-12-12T10:10:25+0100","releaseTime":"2022-12-12T10:10:25+0100","local":false,"title":"Schiphol - Leiden","titleSections":[[{"type":"STATION","value":"Schiphol Airport"},{"type":"ICON","value":"MAINTENANCE"},{"type":"STATION","value":"Leiden C."}]],"isActive":false,"start":"2023-01-07T01:30:00+0100","end":"2023-01-07T05:00:00+0100","period":"Zaterdag 07-01-2023 01:30 uur t/m zaterdag 07-01-2023 05:00 uur.","impact":{"value":4},"summaryAdditionalTravelTime":{"label":"De extra reistijd kan oplopen tot 15 minuten.","shortLabel":"Extra reistijd tot 15 min.","maximumDurationInMinutes":15},"publicationSections":[{"section":{"stations":[{"uicCode":"8400561","stationCode":"SHL","name":"Schiphol Airport","coordinate":{"lat":52.3094444274902,"lng":4.76194429397583},"countryCode":"NL"},{"uicCode":"8400332","stationCode":"HFD","name":"Hoofddorp","coordinate":{"lat":52.2933349609375,"lng":4.70055532455444},"countryCode":"NL"},{"uicCode":"8400460","stationCode":"NVP","name":"Nieuw Vennep","coordinate":{"lat":52.2588882446289,"lng":4.64555549621582},"countryCode":"NL"},{"uicCode":"8400603","stationCode":"SSH","name":"Sassenheim","coordinate":{"lat":52.215278,"lng":4.517222},"countryCode":"NL"},{"uicCode":"8400390","stationCode":"LEDN","name":"Leiden Centraal","coordinate":{"lat":52.1661109924316,"lng":4.48166656494141},"countryCode":"NL"}],"direction":"BOTH"},"consequence":{"section":{"stations":[{"uicCode":"8400561","stationCode":"SHL","name":"Schiphol Airport","coordinate":{"lat":52.3094444274902,"lng":4.76194429397583},"countryCode":"NL"},{"uicCode":"8400332","stationCode":"HFD","name":"Hoofddorp","coordinate":{"lat":52.2933349609375,"lng":4.70055532455444},"countryCode":"NL"},{"uicCode":"8400460","stationCode":"NVP","name":"Nieuw Vennep","coordinate":{"lat":52.2588882446289,"lng":4.64555549621582},"countryCode":"NL"},{"uicCode":"8400603","stationCode":"SSH","name":"Sassenheim","coordinate":{"lat":52.215278,"lng":4.517222},"countryCode":"NL"},{"uicCode":"8400390","stationCode":"LEDN","name":"Leiden Centraal","coordinate":{"lat":52.1661109924316,"lng":4.48166656494141},"countryCode":"NL"}],"direction":"ONE_WAY"},"description":"rijden bussen","level":"NO_OR_MUCH_LESS_TRAINS"},"sectionType":"NL"}],"timespans":[{"start":"2023-01-07T01:30:00+0100","end":"2023-01-07T05:00:00+0100","period":"Zaterdag 07-01-2023 01:30 uur t/m zaterdag 07-01-2023 05:00 uur.","situation":{"label":"Door werkzaamheden: tussen Schiphol Airport en Leiden Centraal rijden er bussen."},"cause":{"label":"Werkzaamheden"},"additionalTravelTime":{"label":"De extra reistijd kan oplopen tot 15 minuten.","shortLabel":"Extra reistijd tot 15 min.","maximumDurationInMinutes":15},"alternativeTransport":{"label":"Er rijden bussen.","shortLabel":"er rijden bussen"},"advices":["Tussen Amsterdam C. en Leiden C. reist u via Haarlem"]}],"alternativeTransportTimespans":[{"start":"2023-01-07T01:30:00+0100","end":"2023-01-07T05:00:00+0100","alternativeTransport":{"location":[{"station":{"uicCode":"8400561","stationCode":"SHL","name":"Schiphol Airport","coordinate":{"lat":52.3094444274902,"lng":4.76194429397583},"countryCode":"NL"},"description":"vanaf de voorzijde van het station"},{"station":{"uicCode":"8400390","stationCode":"LEDN","name":"Leiden Centraal","coordinate":{"lat":52.1661109924316,"lng":4.48166656494141},"countryCode":"NL"},"description":"vanaf het stadsbusstation"}],"label":"Er rijden bussen tussen Schiphol Airport en Leiden Centraal.","shortLabel":"Er rijden bussen Schiphol Airport - Leiden C."}}]},{"id":"7003106","type":"MAINTENANCE","registrationTime":"2022-12-12T17:24:57+0100","releaseTime":"2022-12-12T17:24:57+0100","local":false,"title":"Amsterdam - Haarlem","titleSections":[[{"type":"STATION","value":"Amsterdam C."},{"type":"ICON","value":"MAINTENANCE"},{"type":"STATION","value":"Haarlem"}]],"isActive":false,"start":"2023-01-07T02:00:00+0100","end":"2023-01-07T04:45:00+0100","period":"Zaterdag 07-01-2023 02:00 uur t/m zaterdag 07-01-2023 04:45 uur.","impact":{"value":3},"summaryAdditionalTravelTime":{"label":"De extra reistijd kan oplopen tot 30 minuten.","shortLabel":"Extra reistijd tot 30 min.","maximumDurationInMinutes":30},"publicationSections":[{"section":{"stations":[{"uicCode":"8400058","stationCode":"ASD","name":"Amsterdam Centraal","coordinate":{"lat":52.3788871765137,"lng":4.90027761459351},"countryCode":"NL"},{"uicCode":"8400059","stationCode":"ASS","name":"Amsterdam Sloterdijk","coordinate":{"lat":52.3888893127441,"lng":4.83777761459351},"countryCode":"NL"},{"uicCode":"8400400","stationCode":"HWZB","name":"Halfweg-Zwanenburg","coordinate":{"lat":52.385935,"lng":4.747165},"countryCode":"NL"},{"uicCode":"8400270","stationCode":"HLMS","name":"Haarlem Spaarnwoude","coordinate":{"lat":52.3827781677246,"lng":4.67305564880371},"countryCode":"NL"},{"uicCode":"8400285","stationCode":"HLM","name":"Haarlem","coordinate":{"lat":52.3877792358398,"lng":4.63833332061768},"countryCode":"NL"}],"direction":"BOTH"},"consequence":{"section":{"stations":[{"uicCode":"8400058","stationCode":"ASD","name":"Amsterdam Centraal","coordinate":{"lat":52.3788871765137,"lng":4.90027761459351},"countryCode":"NL"},{"uicCode":"8400059","stationCode":"ASS","name":"Amsterdam Sloterdijk","coordinate":{"lat":52.3888893127441,"lng":4.83777761459351},"countryCode":"NL"},{"uicCode":"8400400","stationCode":"HWZB","name":"Halfweg-Zwanenburg","coordinate":{"lat":52.385935,"lng":4.747165},"countryCode":"NL"},{"uicCode":"8400270","stationCode":"HLMS","name":"Haarlem Spaarnwoude","coordinate":{"lat":52.3827781677246,"lng":4.67305564880371},"countryCode":"NL"},{"uicCode":"8400285","stationCode":"HLM","name":"Haarlem","coordinate":{"lat":52.3877792358398,"lng":4.63833332061768},"countryCode":"NL"}],"direction":"ONE_WAY"},"description":"rijden bussen","level":"NO_OR_MUCH_LESS_TRAINS"},"sectionType":"NL"}],"timespans":[{"start":"2023-01-07T02:00:00+0100","end":"2023-01-07T04:45:00+0100","period":"Zaterdag 07-01-2023 02:00 uur t/m zaterdag 07-01-2023 04:45 uur.","situation":{"label":"Door werkzaamheden: tussen Amsterdam Centraal en Haarlem rijden er bussen."},"cause":{"label":"Werkzaamheden"},"additionalTravelTime":{"label":"De extra reistijd kan oplopen tot 30 minuten.","shortLabel":"Extra reistijd tot 30 min.","maximumDurationInMinutes":30},"alternativeTransport":{"label":"Er rijden bussen.","shortLabel":"er rijden bussen"},"advices":[]}],"alternativeTransportTimespans":[{"start":"2023-01-07T02:00:00+0100","end":"2023-01-07T04:45:00+0100","alternativeTransport":{"location":[{"station":{"uicCode":"8400058","stationCode":"ASD","name":"Amsterdam Centraal","coordinate":{"lat":52.3788871765137,"lng":4.90027761459351},"countryCode":"NL"},"description":"vanaf het busstation"},{"station":{"uicCode":"8400285","stationCode":"HLM","name":"Haarlem","coordinate":{"lat":52.3877792358398,"lng":4.63833332061768},"countryCode":"NL"},"description":"vanaf de Jansweg"}],"label":"Er rijden bussen tussen Amsterdam Centraal en Haarlem.","shortLabel":"Er rijden bussen Amsterdam C. - Haarlem"}}]},{"id":"7003096","type":"MAINTENANCE","registrationTime":"2022-12-12T10:27:46+0100","releaseTime":"2022-12-12T10:27:46+0100","local":false,"title":"Amsterdam - Brussel - London (HSL)","titleSections":[[{"type":"STATION","value":"Amsterdam C."},{"type":"ICON","value":"MAINTENANCE"},{"type":"STATION","value":"Brussel-Z. Midi"},{"type":"STATION","value":"London St. P Int"}]],"isActive":false,"start":"2023-01-07T04:00:00+0100","end":"2023-01-09T02:00:00+0100","period":"Zaterdag 07-01-2023 04:00 uur t/m maandag 09-01-2023 02:00 uur.","impact":{"value":2},"summaryAdditionalTravelTime":{"label":"U heeft geen langere reistijd.","shortLabel":"Geen extra reistijd"},"publicationSections":[{"section":{"stations":[{"uicCode":"8400058","stationCode":"ASD","name":"Amsterdam Centraal","coordinate":{"lat":52.3788871765137,"lng":4.90027761459351},"countryCode":"NL"},{"uicCode":"8400059","stationCode":"ASS","name":"Amsterdam Sloterdijk","coordinate":{"lat":52.3888893127441,"lng":4.83777761459351},"countryCode":"NL"},{"uicCode":"8400079","stationCode":"ASDL","name":"Amsterdam Lelylaan","coordinate":{"lat":52.3577766418457,"lng":4.83388900756836},"countryCode":"NL"},{"uicCode":"8400561","stationCode":"SHL","name":"Schiphol Airport","coordinate":{"lat":52.3094444274902,"lng":4.76194429397583},"countryCode":"NL"},{"uicCode":"8400332","stationCode":"HFD","name":"Hoofddorp","coordinate":{"lat":52.2933349609375,"lng":4.70055532455444},"countryCode":"NL"},{"uicCode":"8400530","stationCode":"RTD","name":"Rotterdam Centraal","coordinate":{"lat":51.9249992370605,"lng":4.46888875961304},"countryCode":"NL"},{"uicCode":"8400529","stationCode":"RTB","name":"Rotterdam Blaak","coordinate":{"lat":51.9202766418457,"lng":4.48888874053955},"countryCode":"NL"},{"uicCode":"8400533","stationCode":"RTZ","name":"Rotterdam Zuid","coordinate":{"lat":51.9044456481934,"lng":4.51027774810791},"countryCode":"NL"},{"uicCode":"8400542","stationCode":"RLB","name":"Rotterdam Lombardijen","coordinate":{"lat":51.8800010681152,"lng":4.53138875961304},"countryCode":"NL"},{"uicCode":"8400132","stationCode":"BDPB","name":"Breda-Prinsenbeek","coordinate":{"lat":51.606388092041,"lng":4.72083330154419},"countryCode":"NL"},{"uicCode":"8400131","stationCode":"BD","name":"Breda","coordinate":{"lat":51.5955543518066,"lng":4.78000020980835},"countryCode":"NL"},{"uicCode":"8821105","stationCode":"NDKP","name":"Noorderkempen","coordinate":{"lat":51.358088,"lng":4.633977},"countryCode":"B"},{"uicCode":"8821063","stationCode":"ATWLB","name":"Antwerpen-Luchtbal","coordinate":{"lat":51.2449375,"lng":4.4251543},"countryCode":"B"},{"uicCode":"8821006","stationCode":"ATW","name":"Antwerpen-Centraal","coordinate":{"lat":51.21686,"lng":4.421242},"countryCode":"B"},{"uicCode":"8821121","stationCode":"BERCH","name":"Antwerpen-Berchem","coordinate":{"lat":51.198914,"lng":4.4332},"countryCode":"B"},{"uicCode":"8822004","stationCode":"MECH","name":"Mechelen","coordinate":{"lat":51.01758,"lng":4.48313},"countryCode":"B"},{"uicCode":"8812005","stationCode":"BRUSN","name":"Brussel-Noord","coordinate":{"lat":50.859658,"lng":4.360854},"countryCode":"B"},{"uicCode":"8813003","stationCode":"BRUSC","name":"Brussel-Centraal","coordinate":{"lat":50.845175,"lng":4.357131},"countryCode":"B"},{"uicCode":"8814001","stationCode":"BRUSZ","name":"Brussel-Zuid Midi","coordinate":{"lat":50.836782,"lng":4.336922},"countryCode":"B"},{"uicCode":"8722326","stationCode":"LILLEE","name":"Lille Europe","coordinate":{"lat":50.639444,"lng":3.074722},"countryCode":"F"},{"uicCode":"7015400","stationCode":"STP","name":"London St. Pancras Int.","coordinate":{"lat":51.531437,"lng":-0.126136},"countryCode":"GB"}],"direction":"BOTH"},"consequence":{"section":{"stations":[{"uicCode":"8400058","stationCode":"ASD","name":"Amsterdam Centraal","coordinate":{"lat":52.3788871765137,"lng":4.90027761459351},"countryCode":"NL"},{"uicCode":"8400059","stationCode":"ASS","name":"Amsterdam Sloterdijk","coordinate":{"lat":52.3888893127441,"lng":4.83777761459351},"countryCode":"NL"},{"uicCode":"8400079","stationCode":"ASDL","name":"Amsterdam Lelylaan","coordinate":{"lat":52.3577766418457,"lng":4.83388900756836},"countryCode":"NL"},{"uicCode":"8400561","stationCode":"SHL","name":"Schiphol Airport","coordinate":{"lat":52.3094444274902,"lng":4.76194429397583},"countryCode":"NL"},{"uicCode":"8400332","stationCode":"HFD","name":"Hoofddorp","coordinate":{"lat":52.2933349609375,"lng":4.70055532455444},"countryCode":"NL"},{"uicCode":"8400530","stationCode":"RTD","name":"Rotterdam Centraal","coordinate":{"lat":51.9249992370605,"lng":4.46888875961304},"countryCode":"NL"},{"uicCode":"8400529","stationCode":"RTB","name":"Rotterdam Blaak","coordinate":{"lat":51.9202766418457,"lng":4.48888874053955},"countryCode":"NL"},{"uicCode":"8400533","stationCode":"RTZ","name":"Rotterdam Zuid","coordinate":{"lat":51.9044456481934,"lng":4.51027774810791},"countryCode":"NL"},{"uicCode":"8400542","stationCode":"RLB","name":"Rotterdam Lombardijen","coordinate":{"lat":51.8800010681152,"lng":4.53138875961304},"countryCode":"NL"},{"uicCode":"8400132","stationCode":"BDPB","name":"Breda-Prinsenbeek","coordinate":{"lat":51.606388092041,"lng":4.72083330154419},"countryCode":"NL"},{"uicCode":"8400131","stationCode":"BD","name":"Breda","coordinate":{"lat":51.5955543518066,"lng":4.78000020980835},"countryCode":"NL"},{"uicCode":"8821105","stationCode":"NDKP","name":"Noorderkempen","coordinate":{"lat":51.358088,"lng":4.633977},"countryCode":"B"},{"uicCode":"8821063","stationCode":"ATWLB","name":"Antwerpen-Luchtbal","coordinate":{"lat":51.2449375,"lng":4.4251543},"countryCode":"B"},{"uicCode":"8821006","stationCode":"ATW","name":"Antwerpen-Centraal","coordinate":{"lat":51.21686,"lng":4.421242},"countryCode":"B"},{"uicCode":"8821121","stationCode":"BERCH","name":"Antwerpen-Berchem","coordinate":{"lat":51.198914,"lng":4.4332},"countryCode":"B"},{"uicCode":"8822004","stationCode":"MECH","name":"Mechelen","coordinate":{"lat":51.01758,"lng":4.48313},"countryCode":"B"},{"uicCode":"8812005","stationCode":"BRUSN","name":"Brussel-Noord","coordinate":{"lat":50.859658,"lng":4.360854},"countryCode":"B"},{"uicCode":"8813003","stationCode":"BRUSC","name":"Brussel-Centraal","coordinate":{"lat":50.845175,"lng":4.357131},"countryCode":"B"},{"uicCode":"8814001","stationCode":"BRUSZ","name":"Brussel-Zuid Midi","coordinate":{"lat":50.836782,"lng":4.336922},"countryCode":"B"}],"direction":"ONE_WAY"},"description":"aangepaste internationale dienstregeling","level":"LESS_TRAINS"},"sectionType":"HSL"}],"timespans":[{"start":"2023-01-07T04:00:00+0100","end":"2023-01-09T02:00:00+0100","period":"Zaterdag 07-01-2023 04:00 uur t/m maandag 09-01-2023 02:00 uur.","situation":{"label":"Door werkzaamheden: tussen Amsterdam Centraal en Brussel-Zuid Midi is de internationale dienstregeling aangepast."},"cause":{"label":"Werkzaamheden"},"additionalTravelTime":{"label":"U heeft geen langere reistijd.","shortLabel":"Geen extra reistijd"},"advices":["Dit kan gevolgen hebben voor uw reis. Plan uw reis in de (Internationale) app."]}],"alternativeTransportTimespans":[]},{"id":"7003068","type":"MAINTENANCE","registrationTime":"2022-12-12T10:33:56+0100","releaseTime":"2022-12-12T10:33:56+0100","local":false,"title":"Antwerpen-Centraal","titleSections":[[{"type":"STATION","value":"Antwerpen-C."}]],"isActive":false,"start":"2023-01-07T04:00:00+0100","end":"2023-01-09T02:00:00+0100","period":"Zaterdag 07-01-2023 04:00 uur t/m maandag 09-01-2023 02:00 uur.","impact":{"value":2},"summaryAdditionalTravelTime":{"label":"U heeft geen langere reistijd.","shortLabel":"Geen extra reistijd"},"publicationSections":[{"section":{"stations":[{"uicCode":"8400530","stationCode":"RTD","name":"Rotterdam Centraal","coordinate":{"lat":51.9249992370605,"lng":4.46888875961304},"countryCode":"NL"},{"uicCode":"8400529","stationCode":"RTB","name":"Rotterdam Blaak","coordinate":{"lat":51.9202766418457,"lng":4.48888874053955},"countryCode":"NL"},{"uicCode":"8400533","stationCode":"RTZ","name":"Rotterdam Zuid","coordinate":{"lat":51.9044456481934,"lng":4.51027774810791},"countryCode":"NL"},{"uicCode":"8400542","stationCode":"RLB","name":"Rotterdam Lombardijen","coordinate":{"lat":51.8800010681152,"lng":4.53138875961304},"countryCode":"NL"},{"uicCode":"8400132","stationCode":"BDPB","name":"Breda-Prinsenbeek","coordinate":{"lat":51.606388092041,"lng":4.72083330154419},"countryCode":"NL"},{"uicCode":"8400131","stationCode":"BD","name":"Breda","coordinate":{"lat":51.5955543518066,"lng":4.78000020980835},"countryCode":"NL"},{"uicCode":"8821105","stationCode":"NDKP","name":"Noorderkempen","coordinate":{"lat":51.358088,"lng":4.633977},"countryCode":"B"},{"uicCode":"8821063","stationCode":"ATWLB","name":"Antwerpen-Luchtbal","coordinate":{"lat":51.2449375,"lng":4.4251543},"countryCode":"B"},{"uicCode":"8821006","stationCode":"ATW","name":"Antwerpen-Centraal","coordinate":{"lat":51.21686,"lng":4.421242},"countryCode":"B"},{"uicCode":"8821121","stationCode":"BERCH","name":"Antwerpen-Berchem","coordinate":{"lat":51.198914,"lng":4.4332},"countryCode":"B"},{"uicCode":"8822004","stationCode":"MECH","name":"Mechelen","coordinate":{"lat":51.01758,"lng":4.48313},"countryCode":"B"},{"uicCode":"8812005","stationCode":"BRUSN","name":"Brussel-Noord","coordinate":{"lat":50.859658,"lng":4.360854},"countryCode":"B"},{"uicCode":"8813003","stationCode":"BRUSC","name":"Brussel-Centraal","coordinate":{"lat":50.845175,"lng":4.357131},"countryCode":"B"},{"uicCode":"8814001","stationCode":"BRUSZ","name":"Brussel-Zuid Midi","coordinate":{"lat":50.836782,"lng":4.336922},"countryCode":"B"}],"direction":"BOTH"},"consequence":{"section":{"stations":[{"uicCode":"8821006","stationCode":"ATW","name":"Antwerpen-Centraal","coordinate":{"lat":51.21686,"lng":4.421242},"countryCode":"B"}],"direction":"ONE_WAY"},"description":"aangepaste internationale dienstregeling","level":"LESS_TRAINS"},"sectionType":"HSL"}],"timespans":[{"start":"2023-01-07T04:00:00+0100","end":"2023-01-09T02:00:00+0100","period":"Zaterdag 07-01-2023 04:00 uur t/m maandag 09-01-2023 02:00 uur.","situation":{"label":"Door werkzaamheden: van, via en naar Antwerpen-Centraal is de internationale dienstregeling aangepast."},"cause":{"label":"Werkzaamheden"},"additionalTravelTime":{"label":"U heeft geen langere reistijd.","shortLabel":"Geen extra reistijd"},"advices":[]}],"alternativeTransportTimespans":[]},{"id":"7003127","type":"MAINTENANCE","registrationTime":"2022-12-21T14:01:06+0100","releaseTime":"2022-12-21T14:01:06+0100","local":false,"title":"Dordrecht - Gorinchem","titleSections":[[{"type":"STATION","value":"Dordrecht"},{"type":"ICON","value":"MAINTENANCE"},{"type":"STATION","value":"Sliedrecht"},{"type":"STATION","value":"Gorinchem"}]],"isActive":false,"start":"2023-01-08T01:30:00+0100","end":"2023-01-08T02:15:00+0100","period":"Zondag 08-01-2023 01:30 uur t/m zondag 08-01-2023 02:15 uur.","impact":{"value":3},"summaryAdditionalTravelTime":{"label":"De extra reistijd is ongeveer 15 minuten.","shortLabel":"Extra reistijd 15 min.","minimumDurationInMinutes":15,"maximumDurationInMinutes":15},"publicationSections":[{"section":{"stations":[{"uicCode":"8400180","stationCode":"DDR","name":"Dordrecht","coordinate":{"lat":51.8072204589844,"lng":4.66833353042603},"countryCode":"NL"},{"uicCode":"8400186","stationCode":"DDRS","name":"Dordrecht Stadspolders","coordinate":{"lat":51.801944732666,"lng":4.71666669845581},"countryCode":"NL"},{"uicCode":"8400497","stationCode":"SDTB","name":"Sliedrecht Baanhoek","coordinate":{"lat":51.829722,"lng":4.743333},"countryCode":"NL"},{"uicCode":"8400565","stationCode":"SDT","name":"Sliedrecht","coordinate":{"lat":51.8297233581543,"lng":4.77833318710327},"countryCode":"NL"},{"uicCode":"8400438","stationCode":"HBZM","name":"Hardinxveld Blauwe Zoom","coordinate":{"lat":51.82944,"lng":4.81556},"countryCode":"NL"},{"uicCode":"8400295","stationCode":"GND","name":"Hardinxveld-Giessendam","coordinate":{"lat":51.8305549621582,"lng":4.83583354949951},"countryCode":"NL"},{"uicCode":"8400236","stationCode":"BHDV","name":"Boven-Hardinxveld","coordinate":{"lat":51.832222,"lng":4.878056},"countryCode":"NL"},{"uicCode":"8400256","stationCode":"GR","name":"Gorinchem","coordinate":{"lat":51.8338890075684,"lng":4.96833324432373},"countryCode":"NL"}],"direction":"ONE_WAY"},"consequence":{"section":{"stations":[{"uicCode":"8400180","stationCode":"DDR","name":"Dordrecht","coordinate":{"lat":51.8072204589844,"lng":4.66833353042603},"countryCode":"NL"},{"uicCode":"8400186","stationCode":"DDRS","name":"Dordrecht Stadspolders","coordinate":{"lat":51.801944732666,"lng":4.71666669845581},"countryCode":"NL"},{"uicCode":"8400497","stationCode":"SDTB","name":"Sliedrecht Baanhoek","coordinate":{"lat":51.829722,"lng":4.743333},"countryCode":"NL"},{"uicCode":"8400565","stationCode":"SDT","name":"Sliedrecht","coordinate":{"lat":51.8297233581543,"lng":4.77833318710327},"countryCode":"NL"}],"direction":"ONE_WAY"},"description":"rijden bussen","level":"NO_OR_MUCH_LESS_TRAINS"},"sectionType":"NL"}],"timespans":[{"start":"2023-01-08T01:30:00+0100","end":"2023-01-08T02:15:00+0100","period":"Zondag 08-01-2023 01:30 uur t/m zondag 08-01-2023 02:15 uur.","situation":{"label":"Door werkzaamheden: van Sliedrecht naar Dordrecht rijden er bussen."},"cause":{"label":"Werkzaamheden"},"additionalTravelTime":{"label":"De extra reistijd is ongeveer 15 minuten.","shortLabel":"Extra reistijd 15 min.","minimumDurationInMinutes":15,"maximumDurationInMinutes":15},"alternativeTransport":{"label":"Er rijden Qbuzz bussen.","shortLabel":"er rijden Qbuzz bussen"},"advices":[]}],"alternativeTransportTimespans":[{"start":"2023-01-08T01:30:00+0100","end":"2023-01-08T02:15:00+0100","alternativeTransport":{"location":[{"station":{"uicCode":"8400565","stationCode":"SDT","name":"Sliedrecht","coordinate":{"lat":51.8297233581543,"lng":4.77833318710327},"countryCode":"NL"},"description":"vanaf de voorzijde van het station"},{"station":{"uicCode":"8400497","stationCode":"SDTB","name":"Sliedrecht Baanhoek","coordinate":{"lat":51.829722,"lng":4.743333},"countryCode":"NL"},"description":"onder het spoorviaduct"},{"station":{"uicCode":"8400186","stationCode":"DDRS","name":"Dordrecht Stadspolders","coordinate":{"lat":51.801944732666,"lng":4.71666669845581},"countryCode":"NL"},"description":"vanaf de voorzijde van het station"}],"label":"Er rijden Qbuzz bussen van Sliedrecht, Sliedrecht Baanhoek, Dordrecht Stadspolders naar Dordrecht.","shortLabel":"Er rijden Qbuzz bussen Sliedrecht -> Baanhoek -> Stadspolders -> Dordrecht"}}]},{"id":"7003070","type":"MAINTENANCE","registrationTime":"2022-12-02T12:29:36+0100","releaseTime":"2022-12-02T12:29:36+0100","local":false,"title":"Amsterdam - Köln - Frankfurt","titleSections":[[{"type":"STATION","value":"Amsterdam C."},{"type":"ICON","value":"MAINTENANCE"},{"type":"STATION","value":"Frankfurt Hbf"}]],"isActive":false,"start":"2023-01-09T06:30:00+0100","end":"2023-01-28T11:35:00+0100","period":"Maandag 09-01-2023 06:30 uur t/m zaterdag 28-01-2023 11:35 uur.","impact":{"value":2},"summaryAdditionalTravelTime":{"label":"U heeft geen langere reistijd.","shortLabel":"Geen extra reistijd"},"publicationSections":[{"section":{"stations":[{"uicCode":"8400058","stationCode":"ASD","name":"Amsterdam Centraal","coordinate":{"lat":52.3788871765137,"lng":4.90027761459351},"countryCode":"NL"},{"uicCode":"8400060","stationCode":"ASDM","name":"Amsterdam Muiderpoort","coordinate":{"lat":52.3605537414551,"lng":4.93111133575439},"countryCode":"NL"},{"uicCode":"8400057","stationCode":"ASA","name":"Amsterdam Amstel","coordinate":{"lat":52.3466682434082,"lng":4.91777801513672},"countryCode":"NL"},{"uicCode":"8400194","stationCode":"DVD","name":"Duivendrecht","coordinate":{"lat":52.3233337402344,"lng":4.93638896942139},"countryCode":"NL"},{"uicCode":"8400074","stationCode":"ASB","name":"Amsterdam Bijlmer ArenA","coordinate":{"lat":52.3122215270996,"lng":4.94694423675537},"countryCode":"NL"},{"uicCode":"8400231","stationCode":"ASHD","name":"Amsterdam Holendrecht","coordinate":{"lat":52.29844,"lng":4.95972},"countryCode":"NL"},{"uicCode":"8400047","stationCode":"AC","name":"Abcoude","coordinate":{"lat":52.2785,"lng":4.977},"countryCode":"NL"},{"uicCode":"8400133","stationCode":"BKL","name":"Breukelen","coordinate":{"lat":52.17149,"lng":4.9906},"countryCode":"NL"},{"uicCode":"8400419","stationCode":"MAS","name":"Maarssen","coordinate":{"lat":52.1352767944336,"lng":5.03361129760742},"countryCode":"NL"},{"uicCode":"8400613","stationCode":"UTZL","name":"Utrecht Zuilen","coordinate":{"lat":52.103055,"lng":5.09},"countryCode":"NL"},{"uicCode":"8400621","stationCode":"UT","name":"Utrecht Centraal","coordinate":{"lat":52.0888900756836,"lng":5.11027765274048},"countryCode":"NL"},{"uicCode":"8400606","stationCode":"UTVR","name":"Utrecht Vaartsche Rijn","coordinate":{"lat":52.078889,"lng":5.121667},"countryCode":"NL"},{"uicCode":"8400141","stationCode":"BNK","name":"Bunnik","coordinate":{"lat":52.0630569458008,"lng":5.19444465637207},"countryCode":"NL"},{"uicCode":"8400182","stationCode":"DB","name":"Driebergen-Zeist","coordinate":{"lat":52.0652770996094,"lng":5.25861120223999},"countryCode":"NL"},{"uicCode":"8400417","stationCode":"MRN","name":"Maarn","coordinate":{"lat":52.0641670227051,"lng":5.36999988555908},"countryCode":"NL"},{"uicCode":"8400637","stationCode":"KLP","name":"Veenendaal-De Klomp","coordinate":{"lat":52.0458335876465,"lng":5.57388877868652},"countryCode":"NL"},{"uicCode":"8400200","stationCode":"ED","name":"Ede-Wageningen","coordinate":{"lat":52.0277786254883,"lng":5.67305564880371},"countryCode":"NL"},{"uicCode":"8400704","stationCode":"WF","name":"Wolfheze","coordinate":{"lat":52.0055541992188,"lng":5.7936110496521},"countryCode":"NL"},{"uicCode":"8400489","stationCode":"OTB","name":"Oosterbeek","coordinate":{"lat":51.9949989318848,"lng":5.84000015258789},"countryCode":"NL"},{"uicCode":"8400071","stationCode":"AH","name":"Arnhem Centraal","coordinate":{"lat":51.9850006103516,"lng":5.89916658401489},"countryCode":"NL"},{"uicCode":"8400072","stationCode":"AHP","name":"Arnhem Velperpoort","coordinate":{"lat":51.985279083252,"lng":5.91944456100464},"countryCode":"NL"},{"uicCode":"8400688","stationCode":"WTV","name":"Westervoort","coordinate":{"lat":51.96286,"lng":5.9695},"countryCode":"NL"},{"uicCode":"8400193","stationCode":"DVN","name":"Duiven","coordinate":{"lat":51.9433326721191,"lng":6.01472234725952},"countryCode":"NL"},{"uicCode":"8400735","stationCode":"ZV","name":"Zevenaar","coordinate":{"lat":51.9230537414551,"lng":6.07194423675537},"countryCode":"NL"},{"uicCode":"8033415","stationCode":"EL","name":"Emmerich-Elten","coordinate":{"lat":51.8743,"lng":6.15417},"countryCode":"D"},{"uicCode":"8010288","stationCode":"EM","name":"Emmerich","coordinate":{"lat":51.834283,"lng":6.255718},"countryCode":"D"},{"uicCode":"8010263","stationCode":"OBERH","name":"Oberhausen Hbf","coordinate":{"lat":51.47512,"lng":6.852038},"countryCode":"D"},{"uicCode":"8010316","stationCode":"DUISB","name":"Duisburg Hbf","coordinate":{"lat":51.4297785713316,"lng":6.77590370178222},"countryCode":"D"},{"uicCode":"8008094","stationCode":"DUSSEL","name":"Düsseldorf Hbf","coordinate":{"lat":51.220146,"lng":6.793137},"countryCode":"D"},{"uicCode":"8015561","stationCode":"KKD","name":"Köln Messe/Deutz","coordinate":{"lat":50.940874,"lng":6.975001},"countryCode":"D"},{"uicCode":"8015458","stationCode":"KOLN","name":"Köln Hbf","coordinate":{"lat":50.9432158,"lng":6.9589214},"countryCode":"D"},{"uicCode":"8015588","stationCode":"KSB","name":"Siegburg/Bonn","coordinate":{"lat":50.7939411,"lng":7.2030017},"countryCode":"D"},{"uicCode":"8019585","stationCode":"KMB","name":"Montabaur","coordinate":{"lat":50.444834,"lng":7.825333},"countryCode":"D"},{"uicCode":"8032572","stationCode":"FLB","name":"Limburg Süd","coordinate":{"lat":50.382498,"lng":8.096112},"countryCode":"D"},{"uicCode":"8061676","stationCode":"FNAF","name":"Frankfurt Flughafen Fernb","coordinate":{"lat":50.0531710299286,"lng":8.570237159729},"countryCode":"D"},{"uicCode":"8011068","stationCode":"FFFM","name":"Frankfurt (M) Hbf","coordinate":{"lat":50.1071222,"lng":8.6638338},"countryCode":"D"}],"direction":"ONE_WAY"},"consequence":{"section":{"stations":[{"uicCode":"8400058","stationCode":"ASD","name":"Amsterdam Centraal","coordinate":{"lat":52.3788871765137,"lng":4.90027761459351},"countryCode":"NL"},{"uicCode":"8400060","stationCode":"ASDM","name":"Amsterdam Muiderpoort","coordinate":{"lat":52.3605537414551,"lng":4.93111133575439},"countryCode":"NL"},{"uicCode":"8400057","stationCode":"ASA","name":"Amsterdam Amstel","coordinate":{"lat":52.3466682434082,"lng":4.91777801513672},"countryCode":"NL"},{"uicCode":"8400194","stationCode":"DVD","name":"Duivendrecht","coordinate":{"lat":52.3233337402344,"lng":4.93638896942139},"countryCode":"NL"},{"uicCode":"8400074","stationCode":"ASB","name":"Amsterdam Bijlmer ArenA","coordinate":{"lat":52.3122215270996,"lng":4.94694423675537},"countryCode":"NL"},{"uicCode":"8400231","stationCode":"ASHD","name":"Amsterdam Holendrecht","coordinate":{"lat":52.29844,"lng":4.95972},"countryCode":"NL"},{"uicCode":"8400047","stationCode":"AC","name":"Abcoude","coordinate":{"lat":52.2785,"lng":4.977},"countryCode":"NL"},{"uicCode":"8400133","stationCode":"BKL","name":"Breukelen","coordinate":{"lat":52.17149,"lng":4.9906},"countryCode":"NL"},{"uicCode":"8400419","stationCode":"MAS","name":"Maarssen","coordinate":{"lat":52.1352767944336,"lng":5.03361129760742},"countryCode":"NL"},{"uicCode":"8400613","stationCode":"UTZL","name":"Utrecht Zuilen","coordinate":{"lat":52.103055,"lng":5.09},"countryCode":"NL"},{"uicCode":"8400621","stationCode":"UT","name":"Utrecht Centraal","coordinate":{"lat":52.0888900756836,"lng":5.11027765274048},"countryCode":"NL"},{"uicCode":"8400606","stationCode":"UTVR","name":"Utrecht Vaartsche Rijn","coordinate":{"lat":52.078889,"lng":5.121667},"countryCode":"NL"},{"uicCode":"8400141","stationCode":"BNK","name":"Bunnik","coordinate":{"lat":52.0630569458008,"lng":5.19444465637207},"countryCode":"NL"},{"uicCode":"8400182","stationCode":"DB","name":"Driebergen-Zeist","coordinate":{"lat":52.0652770996094,"lng":5.25861120223999},"countryCode":"NL"},{"uicCode":"8400417","stationCode":"MRN","name":"Maarn","coordinate":{"lat":52.0641670227051,"lng":5.36999988555908},"countryCode":"NL"},{"uicCode":"8400637","stationCode":"KLP","name":"Veenendaal-De Klomp","coordinate":{"lat":52.0458335876465,"lng":5.57388877868652},"countryCode":"NL"},{"uicCode":"8400200","stationCode":"ED","name":"Ede-Wageningen","coordinate":{"lat":52.0277786254883,"lng":5.67305564880371},"countryCode":"NL"},{"uicCode":"8400704","stationCode":"WF","name":"Wolfheze","coordinate":{"lat":52.0055541992188,"lng":5.7936110496521},"countryCode":"NL"},{"uicCode":"8400489","stationCode":"OTB","name":"Oosterbeek","coordinate":{"lat":51.9949989318848,"lng":5.84000015258789},"countryCode":"NL"},{"uicCode":"8400071","stationCode":"AH","name":"Arnhem Centraal","coordinate":{"lat":51.9850006103516,"lng":5.89916658401489},"countryCode":"NL"},{"uicCode":"8400072","stationCode":"AHP","name":"Arnhem Velperpoort","coordinate":{"lat":51.985279083252,"lng":5.91944456100464},"countryCode":"NL"},{"uicCode":"8400688","stationCode":"WTV","name":"Westervoort","coordinate":{"lat":51.96286,"lng":5.9695},"countryCode":"NL"},{"uicCode":"8400193","stationCode":"DVN","name":"Duiven","coordinate":{"lat":51.9433326721191,"lng":6.01472234725952},"countryCode":"NL"},{"uicCode":"8400735","stationCode":"ZV","name":"Zevenaar","coordinate":{"lat":51.9230537414551,"lng":6.07194423675537},"countryCode":"NL"},{"uicCode":"8033415","stationCode":"EL","name":"Emmerich-Elten","coordinate":{"lat":51.8743,"lng":6.15417},"countryCode":"D"},{"uicCode":"8010288","stationCode":"EM","name":"Emmerich","coordinate":{"lat":51.834283,"lng":6.255718},"countryCode":"D"},{"uicCode":"8010263","stationCode":"OBERH","name":"Oberhausen Hbf","coordinate":{"lat":51.47512,"lng":6.852038},"countryCode":"D"},{"uicCode":"8010316","stationCode":"DUISB","name":"Duisburg Hbf","coordinate":{"lat":51.4297785713316,"lng":6.77590370178222},"countryCode":"D"},{"uicCode":"8008094","stationCode":"DUSSEL","name":"Düsseldorf Hbf","coordinate":{"lat":51.220146,"lng":6.793137},"countryCode":"D"},{"uicCode":"8015561","stationCode":"KKD","name":"Köln Messe/Deutz","coordinate":{"lat":50.940874,"lng":6.975001},"countryCode":"D"},{"uicCode":"8015458","stationCode":"KOLN","name":"Köln Hbf","coordinate":{"lat":50.9432158,"lng":6.9589214},"countryCode":"D"},{"uicCode":"8015588","stationCode":"KSB","name":"Siegburg/Bonn","coordinate":{"lat":50.7939411,"lng":7.2030017},"countryCode":"D"},{"uicCode":"8019585","stationCode":"KMB","name":"Montabaur","coordinate":{"lat":50.444834,"lng":7.825333},"countryCode":"D"},{"uicCode":"8032572","stationCode":"FLB","name":"Limburg Süd","coordinate":{"lat":50.382498,"lng":8.096112},"countryCode":"D"},{"uicCode":"8061676","stationCode":"FNAF","name":"Frankfurt Flughafen Fernb","coordinate":{"lat":50.0531710299286,"lng":8.570237159729},"countryCode":"D"},{"uicCode":"8011068","stationCode":"FFFM","name":"Frankfurt (M) Hbf","coordinate":{"lat":50.1071222,"lng":8.6638338},"countryCode":"D"}],"direction":"ONE_WAY"},"description":"aangepaste internationale dienstregeling","level":"LESS_TRAINS"},"sectionType":"NEIGHBORING_COUNTRY"}],"timespans":[{"start":"2023-01-09T06:30:00+0100","end":"2023-01-28T11:35:00+0100","period":"Maandag 09-01-2023 06:30 uur t/m zaterdag 28-01-2023 11:35 uur.","situation":{"label":"Door werkzaamheden: van Amsterdam Centraal naar Frankfurt (M) Hbf is de internationale dienstregeling aangepast."},"cause":{"label":"Werkzaamheden"},"additionalTravelTime":{"label":"U heeft geen langere reistijd.","shortLabel":"Geen extra reistijd"},"advices":["Dit kan gevolgen hebben voor uw reis. Plan uw reis in de (Internationale) app."]}],"alternativeTransportTimespans":[]},{"id":"7003129","type":"MAINTENANCE","registrationTime":"2022-12-21T14:23:51+0100","releaseTime":"2022-12-21T14:23:51+0100","local":false,"title":"Amsterdam - Hannover - Berlin","titleSections":[[{"type":"STATION","value":"Amsterdam C."},{"type":"STATION","value":"Bad Bentheim"},{"type":"ICON","value":"MAINTENANCE"},{"type":"STATION","value":"Berlin Hbf"}]],"isActive":false,"start":"2023-01-09T06:50:00+0100","end":"2023-01-11T12:50:00+0100","period":"Maandag 09-01-2023 06:50 uur t/m woensdag 11-01-2023 12:50 uur.","impact":{"value":2},"publicationSections":[{"section":{"stations":[{"uicCode":"8400058","stationCode":"ASD","name":"Amsterdam Centraal","coordinate":{"lat":52.3788871765137,"lng":4.90027761459351},"countryCode":"NL"},{"uicCode":"8400060","stationCode":"ASDM","name":"Amsterdam Muiderpoort","coordinate":{"lat":52.3605537414551,"lng":4.93111133575439},"countryCode":"NL"},{"uicCode":"8400235","stationCode":"ASSP","name":"Amsterdam Science Park","coordinate":{"lat":52.35526,"lng":4.94651},"countryCode":"NL"},{"uicCode":"8400165","stationCode":"DMN","name":"Diemen","coordinate":{"lat":52.34515,"lng":4.967566},"countryCode":"NL"},{"uicCode":"8400685","stationCode":"WP","name":"Weesp","coordinate":{"lat":52.3127784729004,"lng":5.04305553436279},"countryCode":"NL"},{"uicCode":"8400452","stationCode":"NDB","name":"Naarden-Bussum","coordinate":{"lat":52.2802772521973,"lng":5.15694427490234},"countryCode":"NL"},{"uicCode":"8400145","stationCode":"BSMZ","name":"Bussum Zuid","coordinate":{"lat":52.2658348083496,"lng":5.16305541992188},"countryCode":"NL"},{"uicCode":"8400324","stationCode":"HVSM","name":"Hilversum Media Park","coordinate":{"lat":52.2380561828613,"lng":5.17388868331909},"countryCode":"NL"},{"uicCode":"8400322","stationCode":"HVS","name":"Hilversum","coordinate":{"lat":52.2258338928223,"lng":5.18194437026978},"countryCode":"NL"},{"uicCode":"8400086","stationCode":"BRN","name":"Baarn","coordinate":{"lat":52.2083320617676,"lng":5.28083324432373},"countryCode":"NL"},{"uicCode":"8400055","stationCode":"AMF","name":"Amersfoort Centraal","coordinate":{"lat":52.1538887023926,"lng":5.37055540084839},"countryCode":"NL"},{"uicCode":"8400490","stationCode":"HVL","name":"Hoevelaken","coordinate":{"lat":52.16652,"lng":5.45718},"countryCode":"NL"},{"uicCode":"8400066","stationCode":"APD","name":"Apeldoorn","coordinate":{"lat":52.2091674804687,"lng":5.97027778625488},"countryCode":"NL"},{"uicCode":"8400229","stationCode":"APDO","name":"Apeldoorn Osseveld","coordinate":{"lat":52.2152786254883,"lng":6.00444459915161},"countryCode":"NL"},{"uicCode":"8400599","stationCode":"TWL","name":"Twello","coordinate":{"lat":52.2377777099609,"lng":6.09861087799072},"countryCode":"NL"},{"uicCode":"8400173","stationCode":"DV","name":"Deventer","coordinate":{"lat":52.2574996948242,"lng":6.16055536270142},"countryCode":"NL"},{"uicCode":"8400185","stationCode":"DVC","name":"Deventer Colmschate","coordinate":{"lat":52.2502784729004,"lng":6.21444463729858},"countryCode":"NL"},{"uicCode":"8400328","stationCode":"HON","name":"Holten","coordinate":{"lat":52.2838897705078,"lng":6.42027759552002},"countryCode":"NL"},{"uicCode":"8400538","stationCode":"RSN","name":"Rijssen","coordinate":{"lat":52.3122215270996,"lng":6.52027797698975},"countryCode":"NL"},{"uicCode":"8400691","stationCode":"WDN","name":"Wierden","coordinate":{"lat":52.3613891601562,"lng":6.59166669845581},"countryCode":"NL"},{"uicCode":"8400051","stationCode":"AML","name":"Almelo","coordinate":{"lat":52.3580551147461,"lng":6.65388870239258},"countryCode":"NL"},{"uicCode":"8400520","stationCode":"AMRI","name":"Almelo de Riet","coordinate":{"lat":52.3419456481934,"lng":6.66666650772095},"countryCode":"NL"},{"uicCode":"8400124","stationCode":"BN","name":"Borne","coordinate":{"lat":52.2988891601562,"lng":6.74805545806885},"countryCode":"NL"},{"uicCode":"8400316","stationCode":"HGL","name":"Hengelo","coordinate":{"lat":52.2616653442383,"lng":6.79388904571533},"countryCode":"NL"},{"uicCode":"8400312","stationCode":"HGLO","name":"Hengelo Oost","coordinate":{"lat":52.2688903808594,"lng":6.81944465637207},"countryCode":"NL"},{"uicCode":"8400483","stationCode":"ODZ","name":"Oldenzaal","coordinate":{"lat":52.3063888549805,"lng":6.93472242355347},"countryCode":"NL"},{"uicCode":"8021156","stationCode":"BH","name":"Bad Bentheim","coordinate":{"lat":52.309685595156,"lng":7.15853691101074},"countryCode":"D"},{"uicCode":"8021067","stationCode":"RHEINE","name":"Rheine","coordinate":{"lat":52.276299,"lng":7.434255},"countryCode":"D"},{"uicCode":"8021025","stationCode":"OSNH","name":"Osnabrück Hbf","coordinate":{"lat":52.272851,"lng":8.061781},"countryCode":"D"},{"uicCode":"8013552","stationCode":"HANN","name":"Hannover Hbf","coordinate":{"lat":52.3770401,"lng":9.7416759},"countryCode":"D"},{"uicCode":"8065969","stationCode":"BERHBL","name":"Berlin Hbf","coordinate":{"lat":52.52503,"lng":13.36946},"countryCode":"D"}],"direction":"ONE_WAY"},"consequence":{"section":{"stations":[{"uicCode":"8021156","stationCode":"BH","name":"Bad Bentheim","coordinate":{"lat":52.309685595156,"lng":7.15853691101074},"countryCode":"D"},{"uicCode":"8021067","stationCode":"RHEINE","name":"Rheine","coordinate":{"lat":52.276299,"lng":7.434255},"countryCode":"D"},{"uicCode":"8021025","stationCode":"OSNH","name":"Osnabrück Hbf","coordinate":{"lat":52.272851,"lng":8.061781},"countryCode":"D"},{"uicCode":"8013552","stationCode":"HANN","name":"Hannover Hbf","coordinate":{"lat":52.3770401,"lng":9.7416759},"countryCode":"D"},{"uicCode":"8065969","stationCode":"BERHBL","name":"Berlin Hbf","coordinate":{"lat":52.52503,"lng":13.36946},"countryCode":"D"}],"direction":"ONE_WAY"},"description":"aangepaste internationale dienstregeling","level":"LESS_TRAINS"},"sectionType":"NEIGHBORING_COUNTRY"}],"timespans":[{"start":"2023-01-09T06:50:00+0100","end":"2023-01-09T12:50:00+0100","period":"Maandag 09-01-2023 06:50 uur t/m maandag 09-01-2023 12:50 uur.","situation":{"label":"Door werkzaamheden: van Bad Bentheim naar Berlin Hbf is de internationale dienstregeling aangepast."},"cause":{"label":"Werkzaamheden"},"additionalTravelTime":{"label":"U heeft geen langere reistijd.","shortLabel":"Geen extra reistijd"},"advices":["Dit kan gevolgen hebben voor uw reis. Plan uw reis in de (Internationale) app."]},{"start":"2023-01-10T06:50:00+0100","end":"2023-01-10T12:50:00+0100","period":"Dinsdag 10-01-2023 06:50 uur t/m dinsdag 10-01-2023 12:50 uur.","situation":{"label":"Door werkzaamheden: van Bad Bentheim naar Berlin Hbf is de internationale dienstregeling aangepast."},"cause":{"label":"Werkzaamheden"},"additionalTravelTime":{"label":"U heeft geen langere reistijd.","shortLabel":"Geen extra reistijd"},"advices":["Dit kan gevolgen hebben voor uw reis. Plan uw reis in de (Internationale) app."]},{"start":"2023-01-11T06:50:00+0100","end":"2023-01-11T12:50:00+0100","period":"Woensdag 11-01-2023 06:50 uur t/m woensdag 11-01-2023 12:50 uur.","situation":{"label":"Door werkzaamheden: van Bad Bentheim naar Berlin Hbf is de internationale dienstregeling aangepast."},"cause":{"label":"Werkzaamheden"},"additionalTravelTime":{"label":"U heeft geen langere reistijd.","shortLabel":"Geen extra reistijd"},"advices":["Dit kan gevolgen hebben voor uw reis. Plan uw reis in de (Internationale) app."]}],"alternativeTransportTimespans":[]},{"id":"7003069","type":"MAINTENANCE","registrationTime":"2022-12-02T12:25:36+0100","releaseTime":"2022-12-02T12:25:36+0100","local":false,"title":"Amsterdam - Köln - Frankfurt","titleSections":[[{"type":"STATION","value":"Amsterdam C."},{"type":"ICON","value":"MAINTENANCE"},{"type":"STATION","value":"Frankfurt Hbf"}]],"isActive":false,"start":"2023-01-09T16:30:00+0100","end":"2023-01-12T17:35:00+0100","period":"Maandag 09-01-2023 16:30 uur t/m donderdag 12-01-2023 17:35 uur.","impact":{"value":2},"summaryAdditionalTravelTime":{"label":"U heeft geen langere reistijd.","shortLabel":"Geen extra reistijd"},"publicationSections":[{"section":{"stations":[{"uicCode":"8400058","stationCode":"ASD","name":"Amsterdam Centraal","coordinate":{"lat":52.3788871765137,"lng":4.90027761459351},"countryCode":"NL"},{"uicCode":"8400060","stationCode":"ASDM","name":"Amsterdam Muiderpoort","coordinate":{"lat":52.3605537414551,"lng":4.93111133575439},"countryCode":"NL"},{"uicCode":"8400057","stationCode":"ASA","name":"Amsterdam Amstel","coordinate":{"lat":52.3466682434082,"lng":4.91777801513672},"countryCode":"NL"},{"uicCode":"8400194","stationCode":"DVD","name":"Duivendrecht","coordinate":{"lat":52.3233337402344,"lng":4.93638896942139},"countryCode":"NL"},{"uicCode":"8400074","stationCode":"ASB","name":"Amsterdam Bijlmer ArenA","coordinate":{"lat":52.3122215270996,"lng":4.94694423675537},"countryCode":"NL"},{"uicCode":"8400231","stationCode":"ASHD","name":"Amsterdam Holendrecht","coordinate":{"lat":52.29844,"lng":4.95972},"countryCode":"NL"},{"uicCode":"8400047","stationCode":"AC","name":"Abcoude","coordinate":{"lat":52.2785,"lng":4.977},"countryCode":"NL"},{"uicCode":"8400133","stationCode":"BKL","name":"Breukelen","coordinate":{"lat":52.17149,"lng":4.9906},"countryCode":"NL"},{"uicCode":"8400419","stationCode":"MAS","name":"Maarssen","coordinate":{"lat":52.1352767944336,"lng":5.03361129760742},"countryCode":"NL"},{"uicCode":"8400613","stationCode":"UTZL","name":"Utrecht Zuilen","coordinate":{"lat":52.103055,"lng":5.09},"countryCode":"NL"},{"uicCode":"8400621","stationCode":"UT","name":"Utrecht Centraal","coordinate":{"lat":52.0888900756836,"lng":5.11027765274048},"countryCode":"NL"},{"uicCode":"8400606","stationCode":"UTVR","name":"Utrecht Vaartsche Rijn","coordinate":{"lat":52.078889,"lng":5.121667},"countryCode":"NL"},{"uicCode":"8400141","stationCode":"BNK","name":"Bunnik","coordinate":{"lat":52.0630569458008,"lng":5.19444465637207},"countryCode":"NL"},{"uicCode":"8400182","stationCode":"DB","name":"Driebergen-Zeist","coordinate":{"lat":52.0652770996094,"lng":5.25861120223999},"countryCode":"NL"},{"uicCode":"8400417","stationCode":"MRN","name":"Maarn","coordinate":{"lat":52.0641670227051,"lng":5.36999988555908},"countryCode":"NL"},{"uicCode":"8400637","stationCode":"KLP","name":"Veenendaal-De Klomp","coordinate":{"lat":52.0458335876465,"lng":5.57388877868652},"countryCode":"NL"},{"uicCode":"8400200","stationCode":"ED","name":"Ede-Wageningen","coordinate":{"lat":52.0277786254883,"lng":5.67305564880371},"countryCode":"NL"},{"uicCode":"8400704","stationCode":"WF","name":"Wolfheze","coordinate":{"lat":52.0055541992188,"lng":5.7936110496521},"countryCode":"NL"},{"uicCode":"8400489","stationCode":"OTB","name":"Oosterbeek","coordinate":{"lat":51.9949989318848,"lng":5.84000015258789},"countryCode":"NL"},