[{"id":"6019296","type":"DISRUPTION","registrationTime":"2022-10-19T06:21:37+0200","releaseTime":"2022-10-19T06:21:37+0200","local":false,"title":"Roosendaal-Vlissingen","titleSections":[[{"type":"STATION","value":"Roosendaal"},{"type":"ICON","value":"DISRUPTION"},{"type":"STATION","value":"Bergen op Zoom"},{"type":"STATION","value":"Vlissingen"}]],"topic":"disruption_6019296_nl","isActive":true,"start":"2022-10-17T09:53:56+0200","end":"2022-10-21T07:30:00+0200","phase":{"id":"3","label":"Vervangend vervoer"},"impact":{"value":3},"expectedDuration":{"description":"Dit duurt ten minste tot vrijdag 21 oktober 07:30 uur.","endTime":"2022-10-21T07:30:00+0200"},"summaryAdditionalTravelTime":{"label":"De extra reistijd kan oplopen tot 60 minuten.","shortLabel":"Extra reistijd tot 60 min.","maximumDurationInMinutes":60},"publicationSections":[{"section":{"stations":[{"uicCode":"8400526","stationCode":"RSD","name":"Roosendaal","coordinate":{"lat":51.5402793884277,"lng":4.45833349227905},"countryCode":"NL"},{"uicCode":"8400108","stationCode":"BGN","name":"Bergen op Zoom","coordinate":{"lat":51.4938888549805,"lng":4.29611110687256},"countryCode":"NL"},{"uicCode":"8400521","stationCode":"RB","name":"Rilland-Bath","coordinate":{"lat":51.422779083252,"lng":4.16111087799072},"countryCode":"NL"},{"uicCode":"8400367","stationCode":"KBD","name":"Krabbendijke","coordinate":{"lat":51.4333343505859,"lng":4.11694431304932},"countryCode":"NL"},{"uicCode":"8400370","stationCode":"KRG","name":"Kruiningen-Yerseke","coordinate":{"lat":51.4650001525879,"lng":4.03722238540649},"countryCode":"NL"},{"uicCode":"8400354","stationCode":"BZL","name":"Kapelle-Biezelinge","coordinate":{"lat":51.4808349609375,"lng":3.95611119270325},"countryCode":"NL"},{"uicCode":"8400253","stationCode":"GS","name":"Goes","coordinate":{"lat":51.4980545043945,"lng":3.89055562019348},"countryCode":"NL"},{"uicCode":"8400069","stationCode":"ARN","name":"Arnemuiden","coordinate":{"lat":51.5016670227051,"lng":3.66916656494141},"countryCode":"NL"},{"uicCode":"8400436","stationCode":"MDB","name":"Middelburg","coordinate":{"lat":51.4947204589844,"lng":3.61722230911255},"countryCode":"NL"},{"uicCode":"8400653","stationCode":"VSS","name":"Vlissingen Souburg","coordinate":{"lat":51.4647216796875,"lng":3.59527778625488},"countryCode":"NL"},{"uicCode":"8400652","stationCode":"VS","name":"Vlissingen","coordinate":{"lat":51.4458351135254,"lng":3.59527778625488},"countryCode":"NL"}],"direction":"BOTH"},"consequence":{"section":{"stations":[{"uicCode":"8400526","stationCode":"RSD","name":"Roosendaal","coordinate":{"lat":51.5402793884277,"lng":4.45833349227905},"countryCode":"NL"},{"uicCode":"8400108","stationCode":"BGN","name":"Bergen op Zoom","coordinate":{"lat":51.4938888549805,"lng":4.29611110687256},"countryCode":"NL"}],"direction":"ONE_WAY"},"description":"geen treinen","level":"NO_OR_MUCH_LESS_TRAINS"},"sectionType":"NL"}],"timespans":[{"start":"2022-10-17T09:53:56+0200","end":"2022-10-21T07:30:00+0200","situation":{"label":"Tussen Roosendaal en Bergen op Zoom rijden er geen treinen door herstelwerkzaamheden."},"cause":{"label":"Herstelwerkzaamheden"},"additionalTravelTime":{"label":"De extra reistijd kan oplopen tot 60 minuten.","shortLabel":"Extra reistijd tot 60 min.","maximumDurationInMinutes":60},"alternativeTransport":{"label":"Er rijden snelbussen.","shortLabel":"Er rijden snelbussen"},"advices":[]}],"alternativeTransportTimespans":[{"start":"2022-10-17T09:53:56+0200","end":"2022-10-21T07:30:00+0200","alternativeTransport":{"location":[{"station":{"uicCode":"8400526","stationCode":"RSD","name":"Roosendaal","coordinate":{"lat":51.5402793884277,"lng":4.45833349227905},"countryCode":"NL"},"description":"vanaf de voorzijde van het station"},{"station":{"uicCode":"8400108","stationCode":"BGN","name":"Bergen op Zoom","coordinate":{"lat":51.4938888549805,"lng":4.29611110687256},"countryCode":"NL"},"description":"vanaf het Stationsplein"}],"label":"Er rijden snelbussen tussen Roosendaal en Bergen op Zoom.","shortLabel":"Er rijden snelbussen: Roosendaal, Bergen op Zoom"}}]},{"id":"6019336","type":"DISRUPTION","registrationTime":"2022-10-20T15:10:39+0200","releaseTime":"2022-10-20T15:10:39+0200","local":false,"title":"Nijmegen-Roermond","titleSections":[[{"type":"STATION","value":"Nijmegen"},{"type":"ICON","value":"DISRUPTION"},{"type":"STATION","value":"Roermond"}]],"topic":"disruption_6019336_nl","isActive":true,"start":"2022-10-18T19:45:02+0200","end":"2022-10-22T01:00:00+0200","phase":{"id":"2","label":"Impact bekend"},"impact":{"value":3},"expectedDuration":{"description":"Dit duurt tot ongeveer zaterdag 22 oktober 01:00 uur.","endTime":"2022-10-22T01:00:00+0200"},"publicationSections":[{"section":{"stations":[{"uicCode":"8400470","stationCode":"NM","name":"Nijmegen","coordinate":{"lat":51.8436126708984,"lng":5.85222244262695},"countryCode":"NL"},{"uicCode":"8400468","stationCode":"NMH","name":"Nijmegen Heyendaal","coordinate":{"lat":51.8269462585449,"lng":5.86749982833862},"countryCode":"NL"},{"uicCode":"8400446","stationCode":"MMLH","name":"Mook-Molenhoek","coordinate":{"lat":51.766262,"lng":5.879133},"countryCode":"NL"},{"uicCode":"8400155","stationCode":"CK","name":"Cuijk","coordinate":{"lat":51.7266825879048,"lng":5.87429523468017},"countryCode":"NL"},{"uicCode":"8400128","stationCode":"BMR","name":"Boxmeer","coordinate":{"lat":51.6445217676531,"lng":5.93903303146362},"countryCode":"NL"},{"uicCode":"8400647","stationCode":"VLB","name":"Vierlingsbeek","coordinate":{"lat":51.59193,"lng":5.99714},"countryCode":"NL"},{"uicCode":"8400646","stationCode":"VRY","name":"Venray","coordinate":{"lat":51.526568099007,"lng":6.01417779922485},"countryCode":"NL"},{"uicCode":"8400117","stationCode":"BR","name":"Blerick","coordinate":{"lat":51.372501373291,"lng":6.15500020980835},"countryCode":"NL"},{"uicCode":"8400644","stationCode":"VL","name":"Venlo","coordinate":{"lat":51.3636093139648,"lng":6.17277765274048},"countryCode":"NL"},{"uicCode":"8400591","stationCode":"TG","name":"Tegelen","coordinate":{"lat":51.33894,"lng":6.14253},"countryCode":"NL"},{"uicCode":"8400518","stationCode":"RV","name":"Reuver","coordinate":{"lat":51.2832191665301,"lng":6.07895851135253},"countryCode":"NL"},{"uicCode":"8400583","stationCode":"SM","name":"Swalmen","coordinate":{"lat":51.23582,"lng":6.03228},"countryCode":"NL"},{"uicCode":"8400523","stationCode":"RM","name":"Roermond","coordinate":{"lat":51.1930541992188,"lng":5.9941668510437},"countryCode":"NL"}],"direction":"BOTH"},"consequence":{"section":{"stations":[{"uicCode":"8400470","stationCode":"NM","name":"Nijmegen","coordinate":{"lat":51.8436126708984,"lng":5.85222244262695},"countryCode":"NL"},{"uicCode":"8400468","stationCode":"NMH","name":"Nijmegen Heyendaal","coordinate":{"lat":51.8269462585449,"lng":5.86749982833862},"countryCode":"NL"},{"uicCode":"8400446","stationCode":"MMLH","name":"Mook-Molenhoek","coordinate":{"lat":51.766262,"lng":5.879133},"countryCode":"NL"},{"uicCode":"8400155","stationCode":"CK","name":"Cuijk","coordinate":{"lat":51.7266825879048,"lng":5.87429523468017},"countryCode":"NL"},{"uicCode":"8400128","stationCode":"BMR","name":"Boxmeer","coordinate":{"lat":51.6445217676531,"lng":5.93903303146362},"countryCode":"NL"},{"uicCode":"8400647","stationCode":"VLB","name":"Vierlingsbeek","coordinate":{"lat":51.59193,"lng":5.99714},"countryCode":"NL"},{"uicCode":"8400646","stationCode":"VRY","name":"Venray","coordinate":{"lat":51.526568099007,"lng":6.01417779922485},"countryCode":"NL"},{"uicCode":"8400117","stationCode":"BR","name":"Blerick","coordinate":{"lat":51.372501373291,"lng":6.15500020980835},"countryCode":"NL"},{"uicCode":"8400644","stationCode":"VL","name":"Venlo","coordinate":{"lat":51.3636093139648,"lng":6.17277765274048},"countryCode":"NL"},{"uicCode":"8400591","stationCode":"TG","name":"Tegelen","coordinate":{"lat":51.33894,"lng":6.14253},"countryCode":"NL"},{"uicCode":"8400518","stationCode":"RV","name":"Reuver","coordinate":{"lat":51.2832191665301,"lng":6.07895851135253},"countryCode":"NL"},{"uicCode":"8400583","stationCode":"SM","name":"Swalmen","coordinate":{"lat":51.23582,"lng":6.03228},"countryCode":"NL"},{"uicCode":"8400523","stationCode":"RM","name":"Roermond","coordinate":{"lat":51.1930541992188,"lng":5.9941668510437},"countryCode":"NL"}],"direction":"ONE_WAY"},"description":"geen treinen","level":"NO_OR_MUCH_LESS_TRAINS"},"sectionType":"NL"}],"timespans":[{"start":"2022-10-18T19:45:02+0200","end":"2022-10-22T01:00:00+0200","situation":{"label":"Tussen Nijmegen en Roermond rijden er geen treinen door een staking."},"cause":{"label":"Staking"},"advices":["Dit betreft alleen Arriva-treinen"]}],"alternativeTransportTimespans":[]},{"id":"6019337","type":"DISRUPTION","registrationTime":"2022-10-20T15:10:48+0200","releaseTime":"2022-10-20T15:10:48+0200","local":false,"title":"Sittard-Heerlen-Kerkrade","titleSections":[[{"type":"STATION","value":"Sittard"},{"type":"ICON","value":"DISRUPTION"},{"type":"STATION","value":"Kerkrade C."}]],"topic":"disruption_6019337_nl","isActive":true,"start":"2022-10-18T19:47:45+0200","end":"2022-10-22T01:00:00+0200","phase":{"id":"2","label":"Impact bekend"},"impact":{"value":3},"expectedDuration":{"description":"Dit duurt tot ongeveer zaterdag 22 oktober 01:00 uur.","endTime":"2022-10-22T01:00:00+0200"},"publicationSections":[{"section":{"stations":[{"uicCode":"8400564","stationCode":"STD","name":"Sittard","coordinate":{"lat":51.0016670227051,"lng":5.85861110687256},"countryCode":"NL"},{"uicCode":"8400246","stationCode":"GLN","name":"Geleen Oost","coordinate":{"lat":50.9669456481934,"lng":5.84305572509766},"countryCode":"NL"},{"uicCode":"8400572","stationCode":"SBK","name":"Spaubeek","coordinate":{"lat":50.94327,"lng":5.850529},"countryCode":"NL"},{"uicCode":"8400554","stationCode":"SN","name":"Schinnen","coordinate":{"lat":50.9391670227051,"lng":5.87444448471069},"countryCode":"NL"},{"uicCode":"8400467","stationCode":"NH","name":"Nuth","coordinate":{"lat":50.9194450378418,"lng":5.89277791976929},"countryCode":"NL"},{"uicCode":"8400326","stationCode":"HB","name":"Hoensbroek","coordinate":{"lat":50.9055557250977,"lng":5.93055534362793},"countryCode":"NL"},{"uicCode":"8400307","stationCode":"HRL","name":"Heerlen","coordinate":{"lat":50.8908348083496,"lng":5.97499990463257},"countryCode":"NL"},{"uicCode":"8400548","stationCode":"LG","name":"Landgraaf","coordinate":{"lat":50.8963890075684,"lng":6.01916646957398},"countryCode":"NL"},{"uicCode":"8400338","stationCode":"EGH","name":"Eygelshoven","coordinate":{"lat":50.8905563354492,"lng":6.04500007629395},"countryCode":"NL"},{"uicCode":"8400152","stationCode":"CVM","name":"Chevremont","coordinate":{"lat":50.8761100769043,"lng":6.05972242355347},"countryCode":"NL"},{"uicCode":"8400355","stationCode":"KRD","name":"Kerkrade Centrum","coordinate":{"lat":50.8616676330566,"lng":6.05749988555908},"countryCode":"NL"}],"direction":"BOTH"},"consequence":{"section":{"stations":[{"uicCode":"8400564","stationCode":"STD","name":"Sittard","coordinate":{"lat":51.0016670227051,"lng":5.85861110687256},"countryCode":"NL"},{"uicCode":"8400246","stationCode":"GLN","name":"Geleen Oost","coordinate":{"lat":50.9669456481934,"lng":5.84305572509766},"countryCode":"NL"},{"uicCode":"8400572","stationCode":"SBK","name":"Spaubeek","coordinate":{"lat":50.94327,"lng":5.850529},"countryCode":"NL"},{"uicCode":"8400554","stationCode":"SN","name":"Schinnen","coordinate":{"lat":50.9391670227051,"lng":5.87444448471069},"countryCode":"NL"},{"uicCode":"8400467","stationCode":"NH","name":"Nuth","coordinate":{"lat":50.9194450378418,"lng":5.89277791976929},"countryCode":"NL"},{"uicCode":"8400326","stationCode":"HB","name":"Hoensbroek","coordinate":{"lat":50.9055557250977,"lng":5.93055534362793},"countryCode":"NL"},{"uicCode":"8400307","stationCode":"HRL","name":"Heerlen","coordinate":{"lat":50.8908348083496,"lng":5.97499990463257},"countryCode":"NL"},{"uicCode":"8400548","stationCode":"LG","name":"Landgraaf","coordinate":{"lat":50.8963890075684,"lng":6.01916646957398},"countryCode":"NL"},{"uicCode":"8400338","stationCode":"EGH","name":"Eygelshoven","coordinate":{"lat":50.8905563354492,"lng":6.04500007629395},"countryCode":"NL"},{"uicCode":"8400152","stationCode":"CVM","name":"Chevremont","coordinate":{"lat":50.8761100769043,"lng":6.05972242355347},"countryCode":"NL"},{"uicCode":"8400355","stationCode":"KRD","name":"Kerkrade Centrum","coordinate":{"lat":50.8616676330566,"lng":6.05749988555908},"countryCode":"NL"}],"direction":"ONE_WAY"},"description":"geen stoptreinen","level":"LESS_TRAINS"},"sectionType":"NL"}],"timespans":[{"start":"2022-10-18T19:47:45+0200","end":"2022-10-22T01:00:00+0200","situation":{"label":"Tussen Sittard en Kerkrade Centrum rijden er geen stoptreinen door een staking."},"cause":{"label":"Staking"},"advices":["Dit betreft alleen Arriva-treinen"]}],"alternativeTransportTimespans":[]},{"id":"6019338","type":"DISRUPTION","registrationTime":"2022-10-20T15:10:57+0200","releaseTime":"2022-10-20T15:10:57+0200","local":false,"title":"Heerlen-Maastricht Randwyck","titleSections":[[{"type":"STATION","value":"Heerlen"},{"type":"ICON","value":"DISRUPTION"},{"type":"STATION","value":"Maastricht"},{"type":"STATION","value":"Randwyck"}]],"topic":"disruption_6019338_nl","isActive":true,"start":"2022-10-18T19:49:56+0200","end":"2022-10-22T01:00:00+0200","phase":{"id":"2","label":"Impact bekend"},"impact":{"value":3},"expectedDuration":{"description":"Dit duurt tot ongeveer zaterdag 22 oktober 01:00 uur.","endTime":"2022-10-22T01:00:00+0200"},"publicationSections":[{"section":{"stations":[{"uicCode":"8400307","stationCode":"HRL","name":"Heerlen","coordinate":{"lat":50.8908348083496,"lng":5.97499990463257},"countryCode":"NL"},{"uicCode":"8400404","stationCode":"HRLW","name":"Heerlen Woonboulevard","coordinate":{"lat":50.896667,"lng":5.952222},"countryCode":"NL"},{"uicCode":"8400656","stationCode":"VDL","name":"Voerendaal","coordinate":{"lat":50.8872222900391,"lng":5.93027782440186},"countryCode":"NL"},{"uicCode":"8400362","stationCode":"KMR","name":"Klimmen-Ransdaal","coordinate":{"lat":50.8663902282715,"lng":5.8905553817749},"countryCode":"NL"},{"uicCode":"8400555","stationCode":"SOG","name":"Schin op Geul","coordinate":{"lat":50.856388092041,"lng":5.87222242355347},"countryCode":"NL"},{"uicCode":"8400632","stationCode":"VK","name":"Valkenburg","coordinate":{"lat":50.8697204589844,"lng":5.83222198486328},"countryCode":"NL"},{"uicCode":"8400341","stationCode":"SGL","name":"Houthem-St. Gerlach","coordinate":{"lat":50.8733329772949,"lng":5.79722213745117},"countryCode":"NL"},{"uicCode":"8400434","stationCode":"MES","name":"Meerssen","coordinate":{"lat":50.882879392551,"lng":5.75099945068359},"countryCode":"NL"},{"uicCode":"8400449","stationCode":"MTN","name":"Maastricht Noord","coordinate":{"lat":50.87087,"lng":5.71774},"countryCode":"NL"},{"uicCode":"8400424","stationCode":"MT","name":"Maastricht","coordinate":{"lat":50.8502769470215,"lng":5.70555543899536},"countryCode":"NL"},{"uicCode":"8400426","stationCode":"MTR","name":"Maastricht Randwyck","coordinate":{"lat":50.8386116027832,"lng":5.71722221374512},"countryCode":"NL"}],"direction":"BOTH"},"consequence":{"section":{"stations":[{"uicCode":"8400307","stationCode":"HRL","name":"Heerlen","coordinate":{"lat":50.8908348083496,"lng":5.97499990463257},"countryCode":"NL"},{"uicCode":"8400404","stationCode":"HRLW","name":"Heerlen Woonboulevard","coordinate":{"lat":50.896667,"lng":5.952222},"countryCode":"NL"},{"uicCode":"8400656","stationCode":"VDL","name":"Voerendaal","coordinate":{"lat":50.8872222900391,"lng":5.93027782440186},"countryCode":"NL"},{"uicCode":"8400362","stationCode":"KMR","name":"Klimmen-Ransdaal","coordinate":{"lat":50.8663902282715,"lng":5.8905553817749},"countryCode":"NL"},{"uicCode":"8400555","stationCode":"SOG","name":"Schin op Geul","coordinate":{"lat":50.856388092041,"lng":5.87222242355347},"countryCode":"NL"},{"uicCode":"8400632","stationCode":"VK","name":"Valkenburg","coordinate":{"lat":50.8697204589844,"lng":5.83222198486328},"countryCode":"NL"},{"uicCode":"8400341","stationCode":"SGL","name":"Houthem-St. Gerlach","coordinate":{"lat":50.8733329772949,"lng":5.79722213745117},"countryCode":"NL"},{"uicCode":"8400434","stationCode":"MES","name":"Meerssen","coordinate":{"lat":50.882879392551,"lng":5.75099945068359},"countryCode":"NL"},{"uicCode":"8400449","stationCode":"MTN","name":"Maastricht Noord","coordinate":{"lat":50.87087,"lng":5.71774},"countryCode":"NL"},{"uicCode":"8400424","stationCode":"MT","name":"Maastricht","coordinate":{"lat":50.8502769470215,"lng":5.70555543899536},"countryCode":"NL"}],"direction":"ONE_WAY"},"description":"geen treinen","level":"NO_OR_MUCH_LESS_TRAINS"},"sectionType":"NL"}],"timespans":[{"start":"2022-10-18T19:49:56+0200","end":"2022-10-22T01:00:00+0200","situation":{"label":"Tussen Heerlen en Maastricht rijden er geen treinen door een staking."},"cause":{"label":"Staking"},"advices":["Dit betreft alleen Arriva-treinen"]}],"alternativeTransportTimespans":[]},{"id":"6019339","type":"DISRUPTION","registrationTime":"2022-10-20T15:11:04+0200","releaseTime":"2022-10-20T15:11:04+0200","local":false,"title":"Heerlen-Aachen Hbf","titleSections":[[{"type":"STATION","value":"Heerlen"},{"type":"ICON","value":"DISRUPTION"},{"type":"STATION","value":"Aachen Hbf"}]],"topic":"disruption_6019339_nl","isActive":true,"start":"2022-10-18T19:56:05+0200","end":"2022-10-22T01:00:00+0200","phase":{"id":"2","label":"Impact bekend"},"impact":{"value":3},"expectedDuration":{"description":"Dit duurt tot ongeveer zaterdag 22 oktober 01:00 uur.","endTime":"2022-10-22T01:00:00+0200"},"publicationSections":[{"section":{"stations":[{"uicCode":"8400307","stationCode":"HRL","name":"Heerlen","coordinate":{"lat":50.8908348083496,"lng":5.97499990463257},"countryCode":"NL"},{"uicCode":"8400548","stationCode":"LG","name":"Landgraaf","coordinate":{"lat":50.8963890075684,"lng":6.01916646957398},"countryCode":"NL"},{"uicCode":"8400234","stationCode":"EGHM","name":"Eygelshoven Markt","coordinate":{"lat":50.8960498196442,"lng":6.0602474212646396},"countryCode":"NL"},{"uicCode":"8015190","stationCode":"HZ","name":"Herzogenrath","coordinate":{"lat":50.870916,"lng":6.094486},"countryCode":"D"},{"uicCode":"8015345","stationCode":"AHBF","name":"Aachen Hbf","coordinate":{"lat":50.7678,"lng":6.091499},"countryCode":"D"}],"direction":"BOTH"},"consequence":{"section":{"stations":[{"uicCode":"8400307","stationCode":"HRL","name":"Heerlen","coordinate":{"lat":50.8908348083496,"lng":5.97499990463257},"countryCode":"NL"},{"uicCode":"8400548","stationCode":"LG","name":"Landgraaf","coordinate":{"lat":50.8963890075684,"lng":6.01916646957398},"countryCode":"NL"},{"uicCode":"8400234","stationCode":"EGHM","name":"Eygelshoven Markt","coordinate":{"lat":50.8960498196442,"lng":6.0602474212646396},"countryCode":"NL"},{"uicCode":"8015190","stationCode":"HZ","name":"Herzogenrath","coordinate":{"lat":50.870916,"lng":6.094486},"countryCode":"D"},{"uicCode":"8015345","stationCode":"AHBF","name":"Aachen Hbf","coordinate":{"lat":50.7678,"lng":6.091499},"countryCode":"D"}],"direction":"ONE_WAY"},"description":"geen treinen","level":"NO_OR_MUCH_LESS_TRAINS"},"sectionType":"NEIGHBORING_COUNTRY"}],"timespans":[{"start":"2022-10-18T19:56:05+0200","end":"2022-10-22T01:00:00+0200","situation":{"label":"Tussen Heerlen en Aachen Hbf rijden er geen treinen door een staking."},"cause":{"label":"Staking"},"advices":["Dit betreft alleen Arriva-treinen"]}],"alternativeTransportTimespans":[]},{"id":"6019340","type":"DISRUPTION","registrationTime":"2022-10-20T15:11:12+0200","releaseTime":"2022-10-20T15:11:12+0200","local":false,"title":"Roermond-Maastricht-Maastricht Randwyck","titleSections":[[{"type":"STATION","value":"Roermond"},{"type":"ICON","value":"DISRUPTION"},{"type":"STATION","value":"Maastricht"},{"type":"STATION","value":"Randwyck"}]],"topic":"disruption_6019340_nl","isActive":true,"start":"2022-10-18T19:57:23+0200","end":"2022-10-22T01:00:00+0200","phase":{"id":"2","label":"Impact bekend"},"impact":{"value":3},"expectedDuration":{"description":"Dit duurt tot ongeveer zaterdag 22 oktober 01:00 uur.","endTime":"2022-10-22T01:00:00+0200"},"publicationSections":[{"section":{"stations":[{"uicCode":"8400523","stationCode":"RM","name":"Roermond","coordinate":{"lat":51.1930541992188,"lng":5.9941668510437},"countryCode":"NL"},{"uicCode":"8400195","stationCode":"EC","name":"Echt","coordinate":{"lat":51.1005554199219,"lng":5.87888908386231},"countryCode":"NL"},{"uicCode":"8400582","stationCode":"SRN","name":"Susteren","coordinate":{"lat":51.0613899230957,"lng":5.86305570602417},"countryCode":"NL"},{"uicCode":"8400564","stationCode":"STD","name":"Sittard","coordinate":{"lat":51.0016670227051,"lng":5.85861110687256},"countryCode":"NL"},{"uicCode":"8400248","stationCode":"LUT","name":"Geleen-Lutterade","coordinate":{"lat":50.9755554199219,"lng":5.82472229003906},"countryCode":"NL"},{"uicCode":"8400096","stationCode":"BK","name":"Beek-Elsloo","coordinate":{"lat":50.9474983215332,"lng":5.78666687011719},"countryCode":"NL"},{"uicCode":"8400140","stationCode":"BDE","name":"Bunde","coordinate":{"lat":50.8969459533691,"lng":5.73666667938232},"countryCode":"NL"},{"uicCode":"8400424","stationCode":"MT","name":"Maastricht","coordinate":{"lat":50.8502769470215,"lng":5.70555543899536},"countryCode":"NL"},{"uicCode":"8400426","stationCode":"MTR","name":"Maastricht Randwyck","coordinate":{"lat":50.8386116027832,"lng":5.71722221374512},"countryCode":"NL"}],"direction":"BOTH"},"consequence":{"section":{"stations":[{"uicCode":"8400523","stationCode":"RM","name":"Roermond","coordinate":{"lat":51.1930541992188,"lng":5.9941668510437},"countryCode":"NL"},{"uicCode":"8400195","stationCode":"EC","name":"Echt","coordinate":{"lat":51.1005554199219,"lng":5.87888908386231},"countryCode":"NL"},{"uicCode":"8400582","stationCode":"SRN","name":"Susteren","coordinate":{"lat":51.0613899230957,"lng":5.86305570602417},"countryCode":"NL"},{"uicCode":"8400564","stationCode":"STD","name":"Sittard","coordinate":{"lat":51.0016670227051,"lng":5.85861110687256},"countryCode":"NL"},{"uicCode":"8400248","stationCode":"LUT","name":"Geleen-Lutterade","coordinate":{"lat":50.9755554199219,"lng":5.82472229003906},"countryCode":"NL"},{"uicCode":"8400096","stationCode":"BK","name":"Beek-Elsloo","coordinate":{"lat":50.9474983215332,"lng":5.78666687011719},"countryCode":"NL"},{"uicCode":"8400140","stationCode":"BDE","name":"Bunde","coordinate":{"lat":50.8969459533691,"lng":5.73666667938232},"countryCode":"NL"},{"uicCode":"8400424","stationCode":"MT","name":"Maastricht","coordinate":{"lat":50.8502769470215,"lng":5.70555543899536},"countryCode":"NL"}],"direction":"ONE_WAY"},"description":"geen stoptreinen","level":"LESS_TRAINS"},"sectionType":"NL"}],"timespans":[{"start":"2022-10-18T19:57:23+0200","end":"2022-10-22T01:00:00+0200","situation":{"label":"Tussen Roermond en Maastricht rijden er geen stoptreinen door een staking."},"cause":{"label":"Staking"},"advices":["Dit betreft alleen Arriva-treinen"]}],"alternativeTransportTimespans":[]},{"id":"d74f5e48-91db-4849-9662-cdbf5f971145","title":"Eindhoven Centraal-Venlo , zondag 23 oktober t/m dinsdag 1 november","topic":"disruption_d74f5e48-91db-4849-9662-cdbf5f971145_nl","description":"Door werkzaamheden rijden er bussen tussen  Eindhoven Centraal en Venlo. Plan je reis vooraf met de reisplanner.","priority":"PRIO_3","lastUpdated":"2022-10-19T05:00:00+0200","bodyItems":[],"buttons":{"position":["BOTTOM"],"items":[{"label":"Plan je reis","type":"PLANNER","accessibilityLabel":"Plan je reis","url":"https://www.ns.nl/reisplanner"}]},"url":"https://www.ns.nl/reisinformatie/calamiteiten/eindhoven-centraal-venlo--zondag-23-oktober-t-m-dinsdag-1-november.html","type":"CALAMITY","isActive":true},{"id":"7002850","type":"MAINTENANCE","registrationTime":"2022-10-20T15:34:14+0200","releaseTime":"2022-10-20T15:34:14+0200","local":false,"title":"Leiden - Den Haag; Leiden - Den Haag HS; Den Haag - Rotterdam","titleSections":[[{"type":"STATION","value":"Leiden C."},{"type":"ICON","value":"MAINTENANCE"},{"type":"STATION","value":"Den Haag C."}],[{"type":"STATION","value":"Leiden C."},{"type":"ICON","value":"MAINTENANCE"},{"type":"STATION","value":"Den Haag HS"}],[{"type":"STATION","value":"Den Haag C."},{"type":"ICON","value":"MAINTENANCE"},{"type":"STATION","value":"Den Haag HS"},{"type":"STATION","value":"Rotterdam C."}]],"isActive":false,"start":"2022-10-27T01:00:00+0200","end":"2022-10-31T03:00:00+0100","period":"Donderdag 27-10-2022 01:00 uur t/m maandag 31-10-2022 03:00 uur.","impact":{"value":5},"summaryAdditionalTravelTime":{"label":"De extra reistijd kan oplopen tot 45 minuten.","shortLabel":"Extra reistijd tot 45 min.","maximumDurationInMinutes":45},"publicationSections":[{"section":{"stations":[{"uicCode":"8400390","stationCode":"LEDN","name":"Leiden Centraal","coordinate":{"lat":52.1661109924316,"lng":4.48166656494141},"countryCode":"NL"},{"uicCode":"8400188","stationCode":"DVNK","name":"De Vink","coordinate":{"lat":52.1472206115723,"lng":4.4563889503479},"countryCode":"NL"},{"uicCode":"8400659","stationCode":"VST","name":"Voorschoten","coordinate":{"lat":52.1252784729004,"lng":4.43249988555908},"countryCode":"NL"},{"uicCode":"8400278","stationCode":"GVM","name":"Den Haag Mariahoeve","coordinate":{"lat":52.0905570983887,"lng":4.36944437026978},"countryCode":"NL"},{"uicCode":"8400380","stationCode":"LAA","name":"Den Haag Laan v NOI","coordinate":{"lat":52.0786094665527,"lng":4.34277772903442},"countryCode":"NL"},{"uicCode":"8400282","stationCode":"GVC","name":"Den Haag Centraal","coordinate":{"lat":52.0802764892578,"lng":4.32499980926514},"countryCode":"NL"}],"direction":"BOTH"},"consequence":{"section":{"stations":[{"uicCode":"8400390","stationCode":"LEDN","name":"Leiden Centraal","coordinate":{"lat":52.1661109924316,"lng":4.48166656494141},"countryCode":"NL"},{"uicCode":"8400188","stationCode":"DVNK","name":"De Vink","coordinate":{"lat":52.1472206115723,"lng":4.4563889503479},"countryCode":"NL"},{"uicCode":"8400659","stationCode":"VST","name":"Voorschoten","coordinate":{"lat":52.1252784729004,"lng":4.43249988555908},"countryCode":"NL"},{"uicCode":"8400278","stationCode":"GVM","name":"Den Haag Mariahoeve","coordinate":{"lat":52.0905570983887,"lng":4.36944437026978},"countryCode":"NL"},{"uicCode":"8400380","stationCode":"LAA","name":"Den Haag Laan v NOI","coordinate":{"lat":52.0786094665527,"lng":4.34277772903442},"countryCode":"NL"},{"uicCode":"8400282","stationCode":"GVC","name":"Den Haag Centraal","coordinate":{"lat":52.0802764892578,"lng":4.32499980926514},"countryCode":"NL"}],"direction":"ONE_WAY"},"description":"rijden bussen","level":"NO_OR_MUCH_LESS_TRAINS"},"sectionType":"NL"},{"section":{"stations":[{"uicCode":"8400390","stationCode":"LEDN","name":"Leiden Centraal","coordinate":{"lat":52.1661109924316,"lng":4.48166656494141},"countryCode":"NL"},{"uicCode":"8400188","stationCode":"DVNK","name":"De Vink","coordinate":{"lat":52.1472206115723,"lng":4.4563889503479},"countryCode":"NL"},{"uicCode":"8400659","stationCode":"VST","name":"Voorschoten","coordinate":{"lat":52.1252784729004,"lng":4.43249988555908},"countryCode":"NL"},{"uicCode":"8400278","stationCode":"GVM","name":"Den Haag Mariahoeve","coordinate":{"lat":52.0905570983887,"lng":4.36944437026978},"countryCode":"NL"},{"uicCode":"8400380","stationCode":"LAA","name":"Den Haag Laan v NOI","coordinate":{"lat":52.0786094665527,"lng":4.34277772903442},"countryCode":"NL"},{"uicCode":"8400280","stationCode":"GV","name":"Den Haag HS","coordinate":{"lat":52.0697212219238,"lng":4.32250022888184},"countryCode":"NL"}],"direction":"BOTH"},"consequence":{"section":{"stations":[{"uicCode":"8400390","stationCode":"LEDN","name":"Leiden Centraal","coordinate":{"lat":52.1661109924316,"lng":4.48166656494141},"countryCode":"NL"},{"uicCode":"8400188","stationCode":"DVNK","name":"De Vink","coordinate":{"lat":52.1472206115723,"lng":4.4563889503479},"countryCode":"NL"},{"uicCode":"8400659","stationCode":"VST","name":"Voorschoten","coordinate":{"lat":52.1252784729004,"lng":4.43249988555908},"countryCode":"NL"},{"uicCode":"8400278","stationCode":"GVM","name":"Den Haag Mariahoeve","coordinate":{"lat":52.0905570983887,"lng":4.36944437026978},"countryCode":"NL"},{"uicCode":"8400380","stationCode":"LAA","name":"Den Haag Laan v NOI","coordinate":{"lat":52.0786094665527,"lng":4.34277772903442},"countryCode":"NL"},{"uicCode":"8400280","stationCode":"GV","name":"Den Haag HS","coordinate":{"lat":52.0697212219238,"lng":4.32250022888184},"countryCode":"NL"}],"direction":"ONE_WAY"},"description":"geen treinen","level":"NO_OR_MUCH_LESS_TRAINS"},"sectionType":"NL"},{"section":{"stations":[{"uicCode":"8400282","stationCode":"GVC","name":"Den Haag Centraal","coordinate":{"lat":52.0802764892578,"lng":4.32499980926514},"countryCode":"NL"},{"uicCode":"8400280","stationCode":"GV","name":"Den Haag HS","coordinate":{"lat":52.0697212219238,"lng":4.32250022888184},"countryCode":"NL"},{"uicCode":"8400279","stationCode":"GVMW","name":"Den Haag Moerwijk","coordinate":{"lat":52.0538902282715,"lng":4.3086109161377},"countryCode":"NL"},{"uicCode":"8400505","stationCode":"RSW","name":"Rijswijk","coordinate":{"lat":52.039722442627,"lng":4.31916666030884},"countryCode":"NL"},{"uicCode":"8400170","stationCode":"DT","name":"Delft","coordinate":{"lat":52.0066680908203,"lng":4.35638904571533},"countryCode":"NL"},{"uicCode":"8400166","stationCode":"DTCP","name":"Delft Campus","coordinate":{"lat":51.9908332824707,"lng":4.36472225189209},"countryCode":"NL"},{"uicCode":"8400553","stationCode":"SDM","name":"Schiedam Centrum","coordinate":{"lat":51.9212438128032,"lng":4.4089937210083},"countryCode":"NL"},{"uicCode":"8400530","stationCode":"RTD","name":"Rotterdam Centraal","coordinate":{"lat":51.9249992370605,"lng":4.46888875961304},"countryCode":"NL"}],"direction":"BOTH"},"consequence":{"section":{"stations":[{"uicCode":"8400282","stationCode":"GVC","name":"Den Haag Centraal","coordinate":{"lat":52.0802764892578,"lng":4.32499980926514},"countryCode":"NL"},{"uicCode":"8400280","stationCode":"GV","name":"Den Haag HS","coordinate":{"lat":52.0697212219238,"lng":4.32250022888184},"countryCode":"NL"}],"direction":"ONE_WAY"},"description":"rijden bussen","level":"NO_OR_MUCH_LESS_TRAINS"},"sectionType":"NL"}],"timespans":[{"start":"2022-10-27T01:00:00+0200","end":"2022-10-31T03:00:00+0100","period":"Donderdag 27-10-2022 01:00 uur t/m maandag 31-10-2022 03:00 uur.","situation":{"label":"Door werkzaamheden: tussen Leiden Centraal en Den Haag Centraal rijden er bussen en tussen Leiden Centraal en Den Haag HS rijden er geen treinen en tussen Den Haag Centraal en Den Haag HS rijden er bussen."},"cause":{"label":"Werkzaamheden"},"additionalTravelTime":{"label":"De extra reistijd kan oplopen tot 45 minuten.","shortLabel":"Extra reistijd tot 45 min.","maximumDurationInMinutes":45},"alternativeTransport":{"label":"Maak gebruik van het vervangende vervoer.","shortLabel":"gebruik het vervangende vervoer"},"advices":["Tussen Leiden C en Den Haag C kunt u ook reizen met omgeleide IC's via Woerden.","Tussen Leiden C. en Den Haag HS reist u via Den Haag C.","Tussen Leiden C. en Rotterdam C. reist u via Woerden","Tussen Leiden C. en Laan v NOI reist u via Den Haag C."]}],"alternativeTransportTimespans":[{"start":"2022-10-27T01:00:00+0200","end":"2022-10-31T03:00:00+0100","alternativeTransport":{"location":[{"station":{"uicCode":"8400282","stationCode":"GVC","name":"Den Haag Centraal","coordinate":{"lat":52.0802764892578,"lng":4.32499980926514},"countryCode":"NL"},"description":"vanaf het busplatform"},{"station":{"uicCode":"8400280","stationCode":"GV","name":"Den Haag HS","coordinate":{"lat":52.0697212219238,"lng":4.32250022888184},"countryCode":"NL"},"description":"vanaf de achterzijde van het station"}],"label":"Er rijden bussen tussen Den Haag Centraal en Den Haag HS.","shortLabel":"Er rijden bussen Den Haag C. - Den Haag HS"}},{"start":"2022-10-27T01:00:00+0200","end":"2022-10-31T03:00:00+0100","alternativeTransport":{"location":[{"station":{"uicCode":"8400390","stationCode":"LEDN","name":"Leiden Centraal","coordinate":{"lat":52.1661109924316,"lng":4.48166656494141},"countryCode":"NL"},"description":"vanaf het stadsbusstation"},{"station":{"uicCode":"8400188","stationCode":"DVNK","name":"De Vink","coordinate":{"lat":52.1472206115723,"lng":4.4563889503479},"countryCode":"NL"},"description":"vanaf het busstation"},{"station":{"uicCode":"8400659","stationCode":"VST","name":"Voorschoten","coordinate":{"lat":52.1252784729004,"lng":4.43249988555908},"countryCode":"NL"},"description":"vanaf de Wijngaardenlaan"},{"station":{"uicCode":"8400278","stationCode":"GVM","name":"Den Haag Mariahoeve","coordinate":{"lat":52.0905570983887,"lng":4.36944437026978},"countryCode":"NL"},"description":"vanaf de voorzijde van het station"},{"station":{"uicCode":"8400282","stationCode":"GVC","name":"Den Haag Centraal","coordinate":{"lat":52.0802764892578,"lng":4.32499980926514},"countryCode":"NL"},"description":"vanaf het busplatform"}],"label":"Er rijden bussen tussen Leiden Centraal, De Vink, Voorschoten, Den Haag Mariahoeve en Den Haag Centraal.","shortLabel":"Er rijden bussen Leiden C. - De Vink - Voorschoten - Mariahoeve - Den Haag C."}},{"start":"2022-10-27T01:00:00+0200","end":"2022-10-27T05:00:00+0200","alternativeTransport":{"location":[{"station":{"uicCode":"8400390","stationCode":"LEDN","name":"Leiden Centraal","coordinate":{"lat":52.1661109924316,"lng":4.48166656494141},"countryCode":"NL"},"description":"vanaf het stadsbusstation"},{"station":{"uicCode":"8400282","stationCode":"GVC","name":"Den Haag Centraal","coordinate":{"lat":52.0802764892578,"lng":4.32499980926514},"countryCode":"NL"},"description":"vanaf het busplatform"}],"label":"Er rijden snelbussen tussen Leiden Centraal en Den Haag Centraal.","shortLabel":"Er rijden snelbussen Leiden C. - Den Haag C."}},{"start":"2022-10-27T01:00:00+0200","end":"2022-10-27T05:00:00+0200","alternativeTransport":{"location":[{"station":{"uicCode":"8400282","stationCode":"GVC","name":"Den Haag Centraal","coordinate":{"lat":52.0802764892578,"lng":4.32499980926514},"countryCode":"NL"},"description":"vanaf het busplatform"},{"station":{"uicCode":"8400280","stationCode":"GV","name":"Den Haag HS","coordinate":{"lat":52.0697212219238,"lng":4.32250022888184},"countryCode":"NL"},"description":"vanaf de achterzijde van het station"},{"station":{"uicCode":"8400170","stationCode":"DT","name":"Delft","coordinate":{"lat":52.0066680908203,"lng":4.35638904571533},"countryCode":"NL"},"description":"vanaf het busplatform"},{"station":{"uicCode":"8400530","stationCode":"RTD","name":"Rotterdam Centraal","coordinate":{"lat":51.9249992370605,"lng":4.46888875961304},"countryCode":"NL"},"description":"vanaf de Conradstraat aan de centrumzijde"}],"label":"Er rijden snelbussen tussen Den Haag Centraal, Den Haag HS, Delft en Rotterdam Centraal.","shortLabel":"Er rijden snelbussen Den Haag C. - Den Haag HS - Delft - Rotterdam C."}},{"start":"2022-10-27T01:00:00+0200","end":"2022-10-31T03:00:00+0100","alternativeTransport":{"location":[],"label":"Maak gebruik van de Haagse tram lijn 3 of lijn 4 tussen Den Haag Laan v NOI en Den Haag Centraal.","shortLabel":"Gebruik de Haagse tram lijn 3/4 Laan v NOI - Den Haag C."}},{"start":"2022-10-28T01:25:00+0200","end":"2022-10-28T05:40:00+0200","alternativeTransport":{"location":[{"station":{"uicCode":"8400390","stationCode":"LEDN","name":"Leiden Centraal","coordinate":{"lat":52.1661109924316,"lng":4.48166656494141},"countryCode":"NL"},"description":"vanaf het stadsbusstation"},{"station":{"uicCode":"8400280","stationCode":"GV","name":"Den Haag HS","coordinate":{"lat":52.0697212219238,"lng":4.32250022888184},"countryCode":"NL"},"description":"vanaf de achterzijde van het station"}],"label":"Er rijden snelbussen tussen Leiden Centraal en Den Haag HS.","shortLabel":"Er rijden snelbussen Leiden C. - Den Haag HS"}},{"start":"2022-10-29T02:00:00+0200","end":"2022-10-29T05:40:00+0200","alternativeTransport":{"location":[{"station":{"uicCode":"8400390","stationCode":"LEDN","name":"Leiden Centraal","coordinate":{"lat":52.1661109924316,"lng":4.48166656494141},"countryCode":"NL"},"description":"vanaf het stadsbusstation"},{"station":{"uicCode":"8400280","stationCode":"GV","name":"Den Haag HS","coordinate":{"lat":52.0697212219238,"lng":4.32250022888184},"countryCode":"NL"},"description":"vanaf de achterzijde van het station"}],"label":"Er rijden snelbussen tussen Leiden Centraal en Den Haag HS.","shortLabel":"Er rijden snelbussen Leiden C. - Den Haag HS"}},{"start":"2022-10-30T01:00:00+0200","end":"2022-10-30T05:40:00+0100","alternativeTransport":{"location":[{"station":{"uicCode":"8400561","stationCode":"SHL","name":"Schiphol Airport","coordinate":{"lat":52.3094444274902,"lng":4.76194429397583},"countryCode":"NL"},"description":"van het busstation halte C15 en C17"},{"station":{"uicCode":"8400390","stationCode":"LEDN","name":"Leiden Centraal","coordinate":{"lat":52.1661109924316,"lng":4.48166656494141},"countryCode":"NL"},"description":"vanaf het stadsbusstation"},{"station":{"uicCode":"8400280","stationCode":"GV","name":"Den Haag HS","coordinate":{"lat":52.0697212219238,"lng":4.32250022888184},"countryCode":"NL"},"description":"vanaf de achterzijde van het station"}],"label":"Er rijden snelbussen tussen Schiphol Airport, Leiden Centraal en Den Haag HS.","shortLabel":"Er rijden snelbussen Schiphol Airport - Leiden C. - Den Haag HS"}},{"start":"2022-10-31T01:20:00+0100","end":"2022-10-31T02:40:00+0100","alternativeTransport":{"location":[{"station":{"uicCode":"8400390","stationCode":"LEDN","name":"Leiden Centraal","coordinate":{"lat":52.1661109924316,"lng":4.48166656494141},"countryCode":"NL"},"description":"vanaf het stadsbusstation"},{"station":{"uicCode":"8400280","stationCode":"GV","name":"Den Haag HS","coordinate":{"lat":52.0697212219238,"lng":4.32250022888184},"countryCode":"NL"},"description":"vanaf de achterzijde van het station"}],"label":"Er rijden snelbussen tussen Leiden Centraal en Den Haag HS.","shortLabel":"Er rijden snelbussen Leiden C. - Den Haag HS"}}]},{"id":"7002933","type":"MAINTENANCE","registrationTime":"2022-10-20T11:42:14+0200","releaseTime":"2022-10-20T11:42:14+0200","local":false,"title":"Dordrecht - Geldermalsen","titleSections":[[{"type":"STATION","value":"Dordrecht"},{"type":"ICON","value":"MAINTENANCE"},{"type":"STATION","value":"Geldermalsen"}]],"isActive":false,"start":"2022-11-12T00:30:00+0100","end":"2022-11-12T03:15:00+0100","period":"Zaterdag 12-11-2022 00:30 uur t/m zaterdag 12-11-2022 03:15 uur.","impact":{"value":3},"summaryAdditionalTravelTime":{"label":"De extra reistijd kan oplopen tot 30 minuten.","shortLabel":"Extra reistijd tot 30 min.","maximumDurationInMinutes":30},"publicationSections":[{"section":{"stations":[{"uicCode":"8400180","stationCode":"DDR","name":"Dordrecht","coordinate":{"lat":51.8072204589844,"lng":4.66833353042603},"countryCode":"NL"},{"uicCode":"8400186","stationCode":"DDRS","name":"Dordrecht Stadspolders","coordinate":{"lat":51.801944732666,"lng":4.71666669845581},"countryCode":"NL"},{"uicCode":"8400497","stationCode":"SDTB","name":"Sliedrecht Baanhoek","coordinate":{"lat":51.829722,"lng":4.743333},"countryCode":"NL"},{"uicCode":"8400565","stationCode":"SDT","name":"Sliedrecht","coordinate":{"lat":51.8297233581543,"lng":4.77833318710327},"countryCode":"NL"},{"uicCode":"8400438","stationCode":"HBZM","name":"Hardinxveld Blauwe Zoom","coordinate":{"lat":51.82944,"lng":4.81556},"countryCode":"NL"},{"uicCode":"8400295","stationCode":"GND","name":"Hardinxveld-Giessendam","coordinate":{"lat":51.8305549621582,"lng":4.83583354949951},"countryCode":"NL"},{"uicCode":"8400236","stationCode":"BHDV","name":"Boven-Hardinxveld","coordinate":{"lat":51.832222,"lng":4.878056},"countryCode":"NL"},{"uicCode":"8400256","stationCode":"GR","name":"Gorinchem","coordinate":{"lat":51.8338890075684,"lng":4.96833324432373},"countryCode":"NL"},{"uicCode":"8400068","stationCode":"AKL","name":"Arkel","coordinate":{"lat":51.8719444274902,"lng":4.99277782440186},"countryCode":"NL"},{"uicCode":"8400386","stationCode":"LDM","name":"Leerdam","coordinate":{"lat":51.8947219848633,"lng":5.09138870239258},"countryCode":"NL"},{"uicCode":"8400097","stationCode":"BSD","name":"Beesd","coordinate":{"lat":51.8994445800781,"lng":5.19444465637207},"countryCode":"NL"},{"uicCode":"8400244","stationCode":"GDM","name":"Geldermalsen","coordinate":{"lat":51.88301,"lng":5.27127},"countryCode":"NL"}],"direction":"BOTH"},"consequence":{"section":{"stations":[{"uicCode":"8400180","stationCode":"DDR","name":"Dordrecht","coordinate":{"lat":51.8072204589844,"lng":4.66833353042603},"countryCode":"NL"},{"uicCode":"8400186","stationCode":"DDRS","name":"Dordrecht Stadspolders","coordinate":{"lat":51.801944732666,"lng":4.71666669845581},"countryCode":"NL"},{"uicCode":"8400497","stationCode":"SDTB","name":"Sliedrecht Baanhoek","coordinate":{"lat":51.829722,"lng":4.743333},"countryCode":"NL"},{"uicCode":"8400565","stationCode":"SDT","name":"Sliedrecht","coordinate":{"lat":51.8297233581543,"lng":4.77833318710327},"countryCode":"NL"},{"uicCode":"8400438","stationCode":"HBZM","name":"Hardinxveld Blauwe Zoom","coordinate":{"lat":51.82944,"lng":4.81556},"countryCode":"NL"},{"uicCode":"8400295","stationCode":"GND","name":"Hardinxveld-Giessendam","coordinate":{"lat":51.8305549621582,"lng":4.83583354949951},"countryCode":"NL"},{"uicCode":"8400236","stationCode":"BHDV","name":"Boven-Hardinxveld","coordinate":{"lat":51.832222,"lng":4.878056},"countryCode":"NL"},{"uicCode":"8400256","stationCode":"GR","name":"Gorinchem","coordinate":{"lat":51.8338890075684,"lng":4.96833324432373},"countryCode":"NL"},{"uicCode":"8400068","stationCode":"AKL","name":"Arkel","coordinate":{"lat":51.8719444274902,"lng":4.99277782440186},"countryCode":"NL"},{"uicCode":"8400386","stationCode":"LDM","name":"Leerdam","coordinate":{"lat":51.8947219848633,"lng":5.09138870239258},"countryCode":"NL"},{"uicCode":"8400097","stationCode":"BSD","name":"Beesd","coordinate":{"lat":51.8994445800781,"lng":5.19444465637207},"countryCode":"NL"},{"uicCode":"8400244","stationCode":"GDM","name":"Geldermalsen","coordinate":{"lat":51.88301,"lng":5.27127},"countryCode":"NL"}],"direction":"ONE_WAY"},"description":"rijden bussen","level":"NO_OR_MUCH_LESS_TRAINS"},"sectionType":"NL"}],"timespans":[{"start":"2022-11-12T00:30:00+0100","end":"2022-11-12T03:15:00+0100","period":"Zaterdag 12-11-2022 00:30 uur t/m zaterdag 12-11-2022 03:15 uur.","situation":{"label":"Door werkzaamheden: tussen Dordrecht en Geldermalsen rijden er bussen."},"cause":{"label":"Werkzaamheden"},"additionalTravelTime":{"label":"De extra reistijd kan oplopen tot 30 minuten.","shortLabel":"Extra reistijd tot 30 min.","maximumDurationInMinutes":30},"alternativeTransport":{"label":"Er rijden bussen.","shortLabel":"er rijden bussen"},"advices":[]}],"alternativeTransportTimespans":[{"start":"2022-11-12T00:30:00+0100","end":"2022-11-12T03:15:00+0100","alternativeTransport":{"location":[{"station":{"uicCode":"8400180","stationCode":"DDR","name":"Dordrecht","coordinate":{"lat":51.8072204589844,"lng":4.66833353042603},"countryCode":"NL"},"description":"vanaf de achterzijde van het station"},{"station":{"uicCode":"8400186","stationCode":"DDRS","name":"Dordrecht Stadspolders","coordinate":{"lat":51.801944732666,"lng":4.71666669845581},"countryCode":"NL"},"description":"vanaf de voorzijde van het station"},{"station":{"uicCode":"8400497","stationCode":"SDTB","name":"Sliedrecht Baanhoek","coordinate":{"lat":51.829722,"lng":4.743333},"countryCode":"NL"},"description":"onder het spoorviaduct"},{"station":{"uicCode":"8400565","stationCode":"SDT","name":"Sliedrecht","coordinate":{"lat":51.8297233581543,"lng":4.77833318710327},"countryCode":"NL"},"description":"vanaf de voorzijde van het station"},{"station":{"uicCode":"8400438","stationCode":"HBZM","name":"Hardinxveld Blauwe Zoom","coordinate":{"lat":51.82944,"lng":4.81556},"countryCode":"NL"},"description":"vanaf de voorzijde van het station"},{"station":{"uicCode":"8400295","stationCode":"GND","name":"Hardinxveld-Giessendam","coordinate":{"lat":51.8305549621582,"lng":4.83583354949951},"countryCode":"NL"},"description":"vanaf de voorzijde van het station"},{"station":{"uicCode":"8400236","stationCode":"BHDV","name":"Boven-Hardinxveld","coordinate":{"lat":51.832222,"lng":4.878056},"countryCode":"NL"},"description":"vanaf de bushalte"}],"label":"Er rijden bussen van Dordrecht, Dordrecht Stadspolders, Sliedrecht Baanhoek, Sliedrecht, Hardinxveld Blauwe Zoom, Hardinxveld-Giessendam, Boven-Hardinxveld naar Gorinchem.","shortLabel":"Er rijden bussen Dordrecht -> Stadspolders -> Baanhoek -> Sliedrecht -> Blauwe Zoom -> Hardinxveld-G. -> Boven-Hardinxv. -> Gorinchem"}},{"start":"2022-11-12T00:30:00+0100","end":"2022-11-12T03:15:00+0100","alternativeTransport":{"location":[{"station":{"uicCode":"8400244","stationCode":"GDM","name":"Geldermalsen","coordinate":{"lat":51.88301,"lng":5.27127},"countryCode":"NL"},"description":"vanaf de bushalte"},{"station":{"uicCode":"8400097","stationCode":"BSD","name":"Beesd","coordinate":{"lat":51.8994445800781,"lng":5.19444465637207},"countryCode":"NL"},"description":"vanaf de Parkweg bij het tankstation"},{"station":{"uicCode":"8400386","stationCode":"LDM","name":"Leerdam","coordinate":{"lat":51.8947219848633,"lng":5.09138870239258},"countryCode":"NL"},"description":"vanaf de bushalte"},{"station":{"uicCode":"8400068","stationCode":"AKL","name":"Arkel","coordinate":{"lat":51.8719444274902,"lng":4.99277782440186},"countryCode":"NL"},"description":"vanaf de bushalte"},{"station":{"uicCode":"8400256","stationCode":"GR","name":"Gorinchem","coordinate":{"lat":51.8338890075684,"lng":4.96833324432373},"countryCode":"NL"},"description":"vanaf de voorzijde van het station"},{"station":{"uicCode":"8400236","stationCode":"BHDV","name":"Boven-Hardinxveld","coordinate":{"lat":51.832222,"lng":4.878056},"countryCode":"NL"},"description":"vanaf de bushalte"},{"station":{"uicCode":"8400295","stationCode":"GND","name":"Hardinxveld-Giessendam","coordinate":{"lat":51.8305549621582,"lng":4.83583354949951},"countryCode":"NL"},"description":"vanaf de voorzijde van het station"},{"station":{"uicCode":"8400438","stationCode":"HBZM","name":"Hardinxveld Blauwe Zoom","coordinate":{"lat":51.82944,"lng":4.81556},"countryCode":"NL"},"description":"vanaf de voorzijde van het station"},{"station":{"uicCode":"8400565","stationCode":"SDT","name":"Sliedrecht","coordinate":{"lat":51.8297233581543,"lng":4.77833318710327},"countryCode":"NL"},"description":"vanaf de voorzijde van het station"},{"station":{"uicCode":"8400497","stationCode":"SDTB","name":"Sliedrecht Baanhoek","coordinate":{"lat":51.829722,"lng":4.743333},"countryCode":"NL"},"description":"onder het spoorviaduct"},{"station":{"uicCode":"8400186","stationCode":"DDRS","name":"Dordrecht Stadspolders","coordinate":{"lat":51.801944732666,"lng":4.71666669845581},"countryCode":"NL"},"description":"vanaf de voorzijde van het station"}],"label":"Er rijden bussen van Geldermalsen, Beesd, Leerdam, Arkel, Gorinchem, Boven-Hardinxveld, Hardinxveld-Giessendam, Hardinxveld Blauwe Zoom, Sliedrecht, Sliedrecht Baanhoek, Dordrecht Stadspolders naar Dordrecht.","shortLabel":"Er rijden bussen Geldermalsen -> Beesd -> Leerdam -> Arkel -> Gorinchem -> Boven-Hardinxv. -> Hardinxveld-G. -> Blauwe Zoom -> Sliedrecht -> Baanhoek -> Stadspolders -> Dordrecht"}}]},{"id":"7002934","type":"MAINTENANCE","registrationTime":"2022-10-20T11:53:02+0200","releaseTime":"2022-10-20T11:53:02+0200","local":false,"title":"Utrecht - Almere","titleSections":[[{"type":"STATION","value":"Utrecht C."},{"type":"STATION","value":"Naarden-Bussum"},{"type":"ICON","value":"MAINTENANCE"},{"type":"STATION","value":"Poort"},{"type":"STATION","value":"Almere C."}]],"isActive":false,"start":"2022-11-13T04:00:00+0100","end":"2022-11-14T02:00:00+0100","period":"Zondag 13-11-2022 04:00 uur t/m maandag 14-11-2022 02:00 uur.","impact":{"value":2},"summaryAdditionalTravelTime":{"label":"U heeft geen langere reistijd.","shortLabel":"Geen extra reistijd"},"publicationSections":[{"section":{"stations":[{"uicCode":"8400621","stationCode":"UT","name":"Utrecht Centraal","coordinate":{"lat":52.0888900756836,"lng":5.11027765274048},"countryCode":"NL"},{"uicCode":"8400620","stationCode":"UTO","name":"Utrecht Overvecht","coordinate":{"lat":52.1100006103516,"lng":5.12472200393677},"countryCode":"NL"},{"uicCode":"8400327","stationCode":"HOR","name":"Hollandsche Rading","coordinate":{"lat":52.1777763366699,"lng":5.17916679382324},"countryCode":"NL"},{"uicCode":"8400570","stationCode":"HVSP","name":"Hilversum Sportpark","coordinate":{"lat":52.2161102294922,"lng":5.18722200393677},"countryCode":"NL"},{"uicCode":"8400322","stationCode":"HVS","name":"Hilversum","coordinate":{"lat":52.2258338928223,"lng":5.18194437026978},"countryCode":"NL"},{"uicCode":"8400324","stationCode":"HVSM","name":"Hilversum Media Park","coordinate":{"lat":52.2380561828613,"lng":5.17388868331909},"countryCode":"NL"},{"uicCode":"8400145","stationCode":"BSMZ","name":"Bussum Zuid","coordinate":{"lat":52.2658348083496,"lng":5.16305541992188},"countryCode":"NL"},{"uicCode":"8400452","stationCode":"NDB","name":"Naarden-Bussum","coordinate":{"lat":52.2802772521973,"lng":5.15694427490234},"countryCode":"NL"},{"uicCode":"8400450","stationCode":"AMPO","name":"Almere Poort","coordinate":{"lat":52.342778,"lng":5.151944},"countryCode":"NL"},{"uicCode":"8400082","stationCode":"ALMM","name":"Almere Muziekwijk","coordinate":{"lat":52.3675003051758,"lng":5.19027757644653},"countryCode":"NL"},{"uicCode":"8400080","stationCode":"ALM","name":"Almere Centrum","coordinate":{"lat":52.37503,"lng":5.21764},"countryCode":"NL"}],"direction":"BOTH"},"consequence":{"section":{"stations":[{"uicCode":"8400452","stationCode":"NDB","name":"Naarden-Bussum","coordinate":{"lat":52.2802772521973,"lng":5.15694427490234},"countryCode":"NL"},{"uicCode":"8400450","stationCode":"AMPO","name":"Almere Poort","coordinate":{"lat":52.342778,"lng":5.151944},"countryCode":"NL"}],"direction":"ONE_WAY"},"description":"dienstregeling aangepast","level":"LESS_TRAINS"},"sectionType":"NL"}],"timespans":[{"start":"2022-11-13T04:00:00+0100","end":"2022-11-14T02:00:00+0100","period":"Zondag 13-11-2022 04:00 uur t/m maandag 14-11-2022 02:00 uur.","situation":{"label":"Door werkzaamheden: tussen Naarden-Bussum en Almere Poort is de dienstregeling aangepast."},"cause":{"label":"Werkzaamheden"},"additionalTravelTime":{"label":"U heeft geen langere reistijd.","shortLabel":"Geen extra reistijd"},"advices":["Tussen Naarden-Bussum en Almere C. reist u via Weesp"]}],"alternativeTransportTimespans":[]},{"id":"7002932","type":"MAINTENANCE","registrationTime":"2022-10-20T12:40:11+0200","releaseTime":"2022-10-20T12:40:11+0200","local":false,"title":"Schiphol Airport","titleSections":[[{"type":"STATION","value":"Schiphol Airport"}]],"isActive":false,"start":"2022-11-13T04:01:00+0100","end":"2022-11-26T08:01:00+0100","period":"Zondag 13-11-2022 04:01 uur t/m zaterdag 26-11-2022 08:01 uur.","impact":{"value":5},"summaryAdditionalTravelTime":{"label":"De extra reistijd kan oplopen tot 45 minuten.","shortLabel":"Extra reistijd tot 45 min.","maximumDurationInMinutes":45},"publicationSections":[{"section":{"stations":[{"uicCode":"8400058","stationCode":"ASD","name":"Amsterdam Centraal","coordinate":{"lat":52.3788871765137,"lng":4.90027761459351},"countryCode":"NL"},{"uicCode":"8400059","stationCode":"ASS","name":"Amsterdam Sloterdijk","coordinate":{"lat":52.3888893127441,"lng":4.83777761459351},"countryCode":"NL"},{"uicCode":"8400079","stationCode":"ASDL","name":"Amsterdam Lelylaan","coordinate":{"lat":52.3577766418457,"lng":4.83388900756836},"countryCode":"NL"},{"uicCode":"8400561","stationCode":"SHL","name":"Schiphol Airport","coordinate":{"lat":52.3094444274902,"lng":4.76194429397583},"countryCode":"NL"},{"uicCode":"8400332","stationCode":"HFD","name":"Hoofddorp","coordinate":{"lat":52.2933349609375,"lng":4.70055532455444},"countryCode":"NL"},{"uicCode":"8400460","stationCode":"NVP","name":"Nieuw Vennep","coordinate":{"lat":52.2588882446289,"lng":4.64555549621582},"countryCode":"NL"},{"uicCode":"8400603","stationCode":"SSH","name":"Sassenheim","coordinate":{"lat":52.215278,"lng":4.517222},"countryCode":"NL"},{"uicCode":"8400390","stationCode":"LEDN","name":"Leiden Centraal","coordinate":{"lat":52.1661109924316,"lng":4.48166656494141},"countryCode":"NL"}],"direction":"BOTH"},"consequence":{"section":{"stations":[{"uicCode":"8400561","stationCode":"SHL","name":"Schiphol Airport","coordinate":{"lat":52.3094444274902,"lng":4.76194429397583},"countryCode":"NL"}],"direction":"ONE_WAY"},"description":"dienstregeling aangepast","level":"LESS_TRAINS"},"sectionType":"NL"},{"section":{"stations":[{"uicCode":"8400061","stationCode":"ASDZ","name":"Amsterdam Zuid","coordinate":{"lat":52.338889,"lng":4.872356},"countryCode":"NL"},{"uicCode":"8400561","stationCode":"SHL","name":"Schiphol Airport","coordinate":{"lat":52.3094444274902,"lng":4.76194429397583},"countryCode":"NL"},{"uicCode":"8400332","stationCode":"HFD","name":"Hoofddorp","coordinate":{"lat":52.2933349609375,"lng":4.70055532455444},"countryCode":"NL"},{"uicCode":"8400460","stationCode":"NVP","name":"Nieuw Vennep","coordinate":{"lat":52.2588882446289,"lng":4.64555549621582},"countryCode":"NL"},{"uicCode":"8400603","stationCode":"SSH","name":"Sassenheim","coordinate":{"lat":52.215278,"lng":4.517222},"countryCode":"NL"},{"uicCode":"8400390","stationCode":"LEDN","name":"Leiden Centraal","coordinate":{"lat":52.1661109924316,"lng":4.48166656494141},"countryCode":"NL"}],"direction":"BOTH"},"consequence":{"section":{"stations":[{"uicCode":"8400561","stationCode":"SHL","name":"Schiphol Airport","coordinate":{"lat":52.3094444274902,"lng":4.76194429397583},"countryCode":"NL"}],"direction":"ONE_WAY"},"description":"dienstregeling aangepast","level":"LESS_TRAINS"},"sectionType":"NL"}],"timespans":[{"start":"2022-11-13T04:01:00+0100","end":"2022-11-26T08:01:00+0100","period":"Zondag 13-11-2022 04:01 uur t/m zaterdag 26-11-2022 08:01 uur.","situation":{"label":"Door werkzaamheden: van, via en naar Schiphol Airport is de dienstregeling aangepast."},"cause":{"label":"Werkzaamheden"},"additionalTravelTime":{"label":"De extra reistijd kan oplopen tot 45 minuten.","shortLabel":"Extra reistijd tot 45 min.","maximumDurationInMinutes":45},"advices":["In metro 50, 51 en 52 is uw NS-vervoerbewijs geldig. Ook werkzaamheden van/naar Amsterdam Zuid.","Tussen Almere C. en Amsterdam Zuid/Schiphol Airport reist u via Amsterdam C.","Tussen Amsterdam Zuid en Utrecht C./Amersfoort C. reist u via RAI","Tussen Schiphol Airport en Utrecht C./Amersfoort C. reist u via Amsterdam C.","Tussen Amsterdam Zuid en Schiphol Airport reist u via Amsterdam C."]}],"alternativeTransportTimespans":[]},{"id":"7002930","type":"MAINTENANCE","registrationTime":"2022-10-20T10:08:33+0200","releaseTime":"2022-10-20T10:08:33+0200","local":false,"title":"Sittard - Maastricht; Roermond - Maastricht - Maastricht Randwyck","titleSections":[[{"type":"STATION","value":"Sittard"},{"type":"ICON","value":"MAINTENANCE"},{"type":"STATION","value":"Maastricht"}],[{"type":"STATION","value":"Roermond"},{"type":"STATION","value":"Sittard"},{"type":"ICON","value":"MAINTENANCE"},{"type":"STATION","value":"Maastricht"},{"type":"STATION","value":"Randwyck"}]],"isActive":false,"start":"2022-11-19T04:00:00+0100","end":"2022-11-21T02:00:00+0100","period":"Zaterdag 19-11-2022 04:00 uur t/m maandag 21-11-2022 02:00 uur.","impact":{"value":4},"summaryAdditionalTravelTime":{"label":"De extra reistijd kan oplopen tot 30 minuten.","shortLabel":"Extra reistijd tot 30 min.","maximumDurationInMinutes":30},"publicationSections":[{"section":{"stations":[{"uicCode":"8400564","stationCode":"STD","name":"Sittard","coordinate":{"lat":51.0016670227051,"lng":5.85861110687256},"countryCode":"NL"},{"uicCode":"8400248","stationCode":"LUT","name":"Geleen-Lutterade","coordinate":{"lat":50.9755554199219,"lng":5.82472229003906},"countryCode":"NL"},{"uicCode":"8400096","stationCode":"BK","name":"Beek-Elsloo","coordinate":{"lat":50.9474983215332,"lng":5.78666687011719},"countryCode":"NL"},{"uicCode":"8400140","stationCode":"BDE","name":"Bunde","coordinate":{"lat":50.8969459533691,"lng":5.73666667938232},"countryCode":"NL"},{"uicCode":"8400424","stationCode":"MT","name":"Maastricht","coordinate":{"lat":50.8502769470215,"lng":5.70555543899536},"countryCode":"NL"}],"direction":"BOTH"},"consequence":{"section":{"stations":[{"uicCode":"8400564","stationCode":"STD","name":"Sittard","coordinate":{"lat":51.0016670227051,"lng":5.85861110687256},"countryCode":"NL"},{"uicCode":"8400248","stationCode":"LUT","name":"Geleen-Lutterade","coordinate":{"lat":50.9755554199219,"lng":5.82472229003906},"countryCode":"NL"},{"uicCode":"8400096","stationCode":"BK","name":"Beek-Elsloo","coordinate":{"lat":50.9474983215332,"lng":5.78666687011719},"countryCode":"NL"},{"uicCode":"8400140","stationCode":"BDE","name":"Bunde","coordinate":{"lat":50.8969459533691,"lng":5.73666667938232},"countryCode":"NL"},{"uicCode":"8400424","stationCode":"MT","name":"Maastricht","coordinate":{"lat":50.8502769470215,"lng":5.70555543899536},"countryCode":"NL"}],"direction":"ONE_WAY"},"description":"rijden bussen","level":"NO_OR_MUCH_LESS_TRAINS"},"sectionType":"NL"},{"section":{"stations":[{"uicCode":"8400523","stationCode":"RM","name":"Roermond","coordinate":{"lat":51.1930541992188,"lng":5.9941668510437},"countryCode":"NL"},{"uicCode":"8400195","stationCode":"EC","name":"Echt","coordinate":{"lat":51.1005554199219,"lng":5.87888908386231},"countryCode":"NL"},{"uicCode":"8400582","stationCode":"SRN","name":"Susteren","coordinate":{"lat":51.0613899230957,"lng":5.86305570602417},"countryCode":"NL"},{"uicCode":"8400564","stationCode":"STD","name":"Sittard","coordinate":{"lat":51.0016670227051,"lng":5.85861110687256},"countryCode":"NL"},{"uicCode":"8400248","stationCode":"LUT","name":"Geleen-Lutterade","coordinate":{"lat":50.9755554199219,"lng":5.82472229003906},"countryCode":"NL"},{"uicCode":"8400096","stationCode":"BK","name":"Beek-Elsloo","coordinate":{"lat":50.9474983215332,"lng":5.78666687011719},"countryCode":"NL"},{"uicCode":"8400140","stationCode":"BDE","name":"Bunde","coordinate":{"lat":50.8969459533691,"lng":5.73666667938232},"countryCode":"NL"},{"uicCode":"8400424","stationCode":"MT","name":"Maastricht","coordinate":{"lat":50.8502769470215,"lng":5.70555543899536},"countryCode":"NL"},{"uicCode":"8400426","stationCode":"MTR","name":"Maastricht Randwyck","coordinate":{"lat":50.8386116027832,"lng":5.71722221374512},"countryCode":"NL"}],"direction":"BOTH"},"consequence":{"section":{"stations":[{"uicCode":"8400564","stationCode":"STD","name":"Sittard","coordinate":{"lat":51.0016670227051,"lng":5.85861110687256},"countryCode":"NL"},{"uicCode":"8400248","stationCode":"LUT","name":"Geleen-Lutterade","coordinate":{"lat":50.9755554199219,"lng":5.82472229003906},"countryCode":"NL"},{"uicCode":"8400096","stationCode":"BK","name":"Beek-Elsloo","coordinate":{"lat":50.9474983215332,"lng":5.78666687011719},"countryCode":"NL"},{"uicCode":"8400140","stationCode":"BDE","name":"Bunde","coordinate":{"lat":50.8969459533691,"lng":5.73666667938232},"countryCode":"NL"},{"uicCode":"8400424","stationCode":"MT","name":"Maastricht","coordinate":{"lat":50.8502769470215,"lng":5.70555543899536},"countryCode":"NL"}],"direction":"ONE_WAY"},"description":"rijden bussen","level":"NO_OR_MUCH_LESS_TRAINS"},"sectionType":"NL"}],"timespans":[{"start":"2022-11-19T04:00:00+0100","end":"2022-11-21T02:00:00+0100","period":"Zaterdag 19-11-2022 04:00 uur t/m maandag 21-11-2022 02:00 uur.","situation":{"label":"Door werkzaamheden: tussen Sittard en Maastricht rijden er bussen en tussen Sittard en Maastricht rijden er bussen."},"cause":{"label":"Werkzaamheden"},"additionalTravelTime":{"label":"De extra reistijd kan oplopen tot 30 minuten.","shortLabel":"Extra reistijd tot 30 min.","maximumDurationInMinutes":30},"alternativeTransport":{"label":"Er rijden stop- en snelbussen.","shortLabel":"er rijden stop- en snelbussen"},"advices":[]}],"alternativeTransportTimespans":[{"start":"2022-11-19T04:00:00+0100","end":"2022-11-21T02:00:00+0100","alternativeTransport":{"location":[{"station":{"uicCode":"8400564","stationCode":"STD","name":"Sittard","coordinate":{"lat":51.0016670227051,"lng":5.85861110687256},"countryCode":"NL"},"description":"vanaf de achterzijde van het station"},{"station":{"uicCode":"8400424","stationCode":"MT","name":"Maastricht","coordinate":{"lat":50.8502769470215,"lng":5.70555543899536},"countryCode":"NL"},"description":"vanaf het Stationsplein"}],"label":"Er rijden snelbussen tussen Sittard en Maastricht.","shortLabel":"Er rijden snelbussen Sittard - Maastricht"}},{"start":"2022-11-19T04:00:00+0100","end":"2022-11-19T07:15:00+0100","alternativeTransport":{"location":[{"station":{"uicCode":"8400424","stationCode":"MT","name":"Maastricht","coordinate":{"lat":50.8502769470215,"lng":5.70555543899536},"countryCode":"NL"},"description":"vanaf het Stationsplein"},{"station":{"uicCode":"8400426","stationCode":"MTR","name":"Maastricht Randwyck","coordinate":{"lat":50.8386116027832,"lng":5.71722221374512},"countryCode":"NL"},"description":"vanaf de Universiteitssingel"}],"label":"Er rijden stopbussen tussen Maastricht en Maastricht Randwyck.","shortLabel":"Er rijden stopbussen Maastricht - Randwyck"}},{"start":"2022-11-19T04:00:00+0100","end":"2022-11-21T02:00:00+0100","alternativeTransport":{"location":[{"station":{"uicCode":"8400564","stationCode":"STD","name":"Sittard","coordinate":{"lat":51.0016670227051,"lng":5.85861110687256},"countryCode":"NL"},"description":"vanaf de achterzijde van het station"},{"station":{"uicCode":"8400248","stationCode":"LUT","name":"Geleen-Lutterade","coordinate":{"lat":50.9755554199219,"lng":5.82472229003906},"countryCode":"NL"},"description":"vanaf de achterzijde van het station"},{"station":{"uicCode":"8400096","stationCode":"BK","name":"Beek-Elsloo","coordinate":{"lat":50.9474983215332,"lng":5.78666687011719},"countryCode":"NL"},"description":"vanaf de voorzijde van het station"},{"station":{"uicCode":"8400140","stationCode":"BDE","name":"Bunde","coordinate":{"lat":50.8969459533691,"lng":5.73666667938232},"countryCode":"NL"},"description":"vanaf de voorzijde van het station"},{"station":{"uicCode":"8400424","stationCode":"MT","name":"Maastricht","coordinate":{"lat":50.8502769470215,"lng":5.70555543899536},"countryCode":"NL"},"description":"vanaf het Stationsplein"}],"label":"Er rijden stopbussen tussen Sittard, Geleen-Lutterade, Beek-Elsloo, Bunde en Maastricht.","shortLabel":"Er rijden stopbussen Sittard - Geleen-Lut. - Beek-Elsloo - Bunde - Maastricht"}},{"start":"2022-11-20T00:00:00+0100","end":"2022-11-20T01:30:00+0100","alternativeTransport":{"location":[{"station":{"uicCode":"8400424","stationCode":"MT","name":"Maastricht","coordinate":{"lat":50.8502769470215,"lng":5.70555543899536},"countryCode":"NL"},"description":"vanaf het Stationsplein"},{"station":{"uicCode":"8400426","stationCode":"MTR","name":"Maastricht Randwyck","coordinate":{"lat":50.8386116027832,"lng":5.71722221374512},"countryCode":"NL"},"description":"vanaf de Universiteitssingel"}],"label":"Er rijden stopbussen tussen Maastricht en Maastricht Randwyck.","shortLabel":"Er rijden stopbussen Maastricht - Randwyck"}},{"start":"2022-11-20T05:30:00+0100","end":"2022-11-20T07:15:00+0100","alternativeTransport":{"location":[{"station":{"uicCode":"8400424","stationCode":"MT","name":"Maastricht","coordinate":{"lat":50.8502769470215,"lng":5.70555543899536},"countryCode":"NL"},"description":"vanaf het Stationsplein"},{"station":{"uicCode":"8400426","stationCode":"MTR","name":"Maastricht Randwyck","coordinate":{"lat":50.8386116027832,"lng":5.71722221374512},"countryCode":"NL"},"description":"vanaf de Universiteitssingel"}],"label":"Er rijden stopbussen tussen Maastricht en Maastricht Randwyck.","shortLabel":"Er rijden stopbussen Maastricht - Randwyck"}},{"start":"2022-11-21T00:00:00+0100","end":"2022-11-21T01:30:00+0100","alternativeTransport":{"location":[{"station":{"uicCode":"8400424","stationCode":"MT","name":"Maastricht","coordinate":{"lat":50.8502769470215,"lng":5.70555543899536},"countryCode":"NL"},"description":"vanaf het Stationsplein"},{"station":{"uicCode":"8400426","stationCode":"MTR","name":"Maastricht Randwyck","coordinate":{"lat":50.8386116027832,"lng":5.71722221374512},"countryCode":"NL"},"description":"vanaf de Universiteitssingel"}],"label":"Er rijden stopbussen tussen Maastricht en Maastricht Randwyck.","shortLabel":"Er rijden stopbussen Maastricht - Randwyck"}}]}]