[{"id":"6019932","type":"DISRUPTION","registrationTime":"2022-11-23T20:28:36+0100","releaseTime":"2022-11-23T20:28:36+0100","local":false,"title":"Amsterdam-Haarlem","titleSections":[[{"type":"STATION","value":"Amsterdam C."},{"type":"ICON","value":"DISRUPTION"},{"type":"STATION","value":"Haarlem"}]],"topic":"disruption_6019932_nl","isActive":true,"start":"2022-11-20T20:43:52+0100","end":"2022-11-23T22:58:36+0100","phase":{"id":"2","label":"Impact bekend"},"impact":{"value":1},"expectedDuration":{"description":"Dit duurt de rest van de dag."},"publicationSections":[{"section":{"stations":[{"uicCode":"8400058","stationCode":"ASD","name":"Amsterdam Centraal","coordinate":{"lat":52.3788871765137,"lng":4.90027761459351},"countryCode":"NL"},{"uicCode":"8400059","stationCode":"ASS","name":"Amsterdam Sloterdijk","coordinate":{"lat":52.3888893127441,"lng":4.83777761459351},"countryCode":"NL"},{"uicCode":"8400400","stationCode":"HWZB","name":"Halfweg-Zwanenburg","coordinate":{"lat":52.385935,"lng":4.747165},"countryCode":"NL"},{"uicCode":"8400270","stationCode":"HLMS","name":"Haarlem Spaarnwoude","coordinate":{"lat":52.3827781677246,"lng":4.67305564880371},"countryCode":"NL"},{"uicCode":"8400285","stationCode":"HLM","name":"Haarlem","coordinate":{"lat":52.3877792358398,"lng":4.63833332061768},"countryCode":"NL"}],"direction":"BOTH"},"consequence":{"section":{"stations":[{"uicCode":"8400058","stationCode":"ASD","name":"Amsterdam Centraal","coordinate":{"lat":52.3788871765137,"lng":4.90027761459351},"countryCode":"NL"},{"uicCode":"8400059","stationCode":"ASS","name":"Amsterdam Sloterdijk","coordinate":{"lat":52.3888893127441,"lng":4.83777761459351},"countryCode":"NL"},{"uicCode":"8400400","stationCode":"HWZB","name":"Halfweg-Zwanenburg","coordinate":{"lat":52.385935,"lng":4.747165},"countryCode":"NL"},{"uicCode":"8400270","stationCode":"HLMS","name":"Haarlem Spaarnwoude","coordinate":{"lat":52.3827781677246,"lng":4.67305564880371},"countryCode":"NL"},{"uicCode":"8400285","stationCode":"HLM","name":"Haarlem","coordinate":{"lat":52.3877792358398,"lng":4.63833332061768},"countryCode":"NL"}],"direction":"ONE_WAY"},"description":"vertraging","level":"LESS_TRAINS"},"sectionType":"NL"}],"timespans":[{"start":"2022-11-20T20:43:52+0100","end":"2022-11-23T22:58:36+0100","situation":{"label":"Tussen Amsterdam Centraal en Haarlem is er vertraging door een defect spoor."},"cause":{"label":"Defect spoor"},"advices":["Houd ook aankomende woensdag en donderdag rekening met hinder. De Reisplanner wordt één dag van tevoren bijgewerkt."]}],"alternativeTransportTimespans":[]},{"id":"7002938","type":"MAINTENANCE","registrationTime":"2022-11-08T05:04:22+0100","releaseTime":"2022-11-08T05:04:22+0100","local":false,"title":"Lelystad - Zwolle","titleSections":[[{"type":"STATION","value":"Lelystad C."},{"type":"ICON","value":"MAINTENANCE"},{"type":"STATION","value":"Dronten"},{"type":"STATION","value":"Zwolle"}]],"isActive":true,"start":"2022-10-21T11:31:00+0200","end":"2022-12-15T02:00:00+0100","period":"Vrijdag 21-10-2022 11:31 uur t/m donderdag 15-12-2022 02:00 uur.","impact":{"value":4},"publicationSections":[{"section":{"stations":[{"uicCode":"8400394","stationCode":"LLS","name":"Lelystad Centrum","coordinate":{"lat":52.5077781677246,"lng":5.47277784347534},"countryCode":"NL"},{"uicCode":"8400198","stationCode":"DRON","name":"Dronten","coordinate":{"lat":52.5344,"lng":5.72089},"countryCode":"NL"},{"uicCode":"8400360","stationCode":"KPNZ","name":"Kampen Zuid","coordinate":{"lat":52.5331,"lng":5.91309},"countryCode":"NL"},{"uicCode":"8400747","stationCode":"ZL","name":"Zwolle","coordinate":{"lat":52.5047225952148,"lng":6.09194421768188},"countryCode":"NL"}],"direction":"BOTH"},"consequence":{"section":{"stations":[{"uicCode":"8400394","stationCode":"LLS","name":"Lelystad Centrum","coordinate":{"lat":52.5077781677246,"lng":5.47277784347534},"countryCode":"NL"},{"uicCode":"8400198","stationCode":"DRON","name":"Dronten","coordinate":{"lat":52.5344,"lng":5.72089},"countryCode":"NL"}],"direction":"ONE_WAY"},"description":"rijden bussen","level":"NO_OR_MUCH_LESS_TRAINS"},"sectionType":"NL"}],"timespans":[{"start":"2022-10-21T11:31:00+0200","end":"2022-12-15T02:00:00+0100","period":"Vrijdag 21-10-2022 11:31 uur t/m donderdag 15-12-2022 02:00 uur.","situation":{"label":"Door herstelwerkzaamheden: tussen Lelystad Centrum en Dronten rijden er bussen."},"cause":{"label":"Herstelwerkzaamheden"},"alternativeTransport":{"label":"Er rijden bussen.","shortLabel":"er rijden bussen"},"advices":["Tussen Schiphol Airport en Zwolle reist u via Amersfoort C.","Tussen Amsterdam C. en Zwolle reist u via Amersfoort C."]}],"alternativeTransportTimespans":[{"start":"2022-10-21T11:31:00+0200","end":"2022-12-15T02:00:00+0100","alternativeTransport":{"location":[{"station":{"uicCode":"8400394","stationCode":"LLS","name":"Lelystad Centrum","coordinate":{"lat":52.5077781677246,"lng":5.47277784347534},"countryCode":"NL"},"description":"vanaf de achterzijde van het station"},{"station":{"uicCode":"8400198","stationCode":"DRON","name":"Dronten","coordinate":{"lat":52.5344,"lng":5.72089},"countryCode":"NL"},"description":"vanaf de voorzijde van het station"}],"label":"Er rijden bussen tussen Lelystad Centrum en Dronten.","shortLabel":"Er rijden bussen Lelystad C. - Dronten"}}]},{"id":"7002897","type":"MAINTENANCE","registrationTime":"2022-11-17T10:34:05+0100","releaseTime":"2022-11-17T10:34:05+0100","local":false,"title":"Heerlen - Aachen Hbf","titleSections":[[{"type":"STATION","value":"Heerlen"},{"type":"ICON","value":"MAINTENANCE"},{"type":"STATION","value":"Aachen Hbf"}]],"isActive":true,"start":"2022-11-11T21:00:00+0100","end":"2022-11-25T21:00:00+0100","period":"Vrijdag 11-11-2022 21:00 uur t/m vrijdag 25-11-2022 21:00 uur.","impact":{"value":3},"summaryAdditionalTravelTime":{"label":"De extra reistijd kan oplopen tot 30 minuten.","shortLabel":"Extra reistijd tot 30 min.","maximumDurationInMinutes":30},"publicationSections":[{"section":{"stations":[{"uicCode":"8400307","stationCode":"HRL","name":"Heerlen","coordinate":{"lat":50.8908348083496,"lng":5.97499990463257},"countryCode":"NL"},{"uicCode":"8400548","stationCode":"LG","name":"Landgraaf","coordinate":{"lat":50.8963890075684,"lng":6.01916646957398},"countryCode":"NL"},{"uicCode":"8400234","stationCode":"EGHM","name":"Eygelshoven Markt","coordinate":{"lat":50.8960498196442,"lng":6.0602474212646396},"countryCode":"NL"},{"uicCode":"8015190","stationCode":"HZ","name":"Herzogenrath","coordinate":{"lat":50.870916,"lng":6.094486},"countryCode":"D"},{"uicCode":"8015345","stationCode":"AHBF","name":"Aachen Hbf","coordinate":{"lat":50.7678,"lng":6.091499},"countryCode":"D"}],"direction":"BOTH"},"consequence":{"section":{"stations":[{"uicCode":"8400307","stationCode":"HRL","name":"Heerlen","coordinate":{"lat":50.8908348083496,"lng":5.97499990463257},"countryCode":"NL"},{"uicCode":"8400548","stationCode":"LG","name":"Landgraaf","coordinate":{"lat":50.8963890075684,"lng":6.01916646957398},"countryCode":"NL"},{"uicCode":"8400234","stationCode":"EGHM","name":"Eygelshoven Markt","coordinate":{"lat":50.8960498196442,"lng":6.0602474212646396},"countryCode":"NL"},{"uicCode":"8015190","stationCode":"HZ","name":"Herzogenrath","coordinate":{"lat":50.870916,"lng":6.094486},"countryCode":"D"},{"uicCode":"8015345","stationCode":"AHBF","name":"Aachen Hbf","coordinate":{"lat":50.7678,"lng":6.091499},"countryCode":"D"}],"direction":"ONE_WAY"},"description":"rijden bussen","level":"NO_OR_MUCH_LESS_TRAINS"},"sectionType":"NEIGHBORING_COUNTRY"}],"timespans":[{"start":"2022-11-11T21:00:00+0100","end":"2022-11-25T21:00:00+0100","period":"Vrijdag 11-11-2022 21:00 uur t/m vrijdag 25-11-2022 21:00 uur.","situation":{"label":"Door werkzaamheden: tussen Heerlen en Aachen Hbf rijden er bussen."},"cause":{"label":"Werkzaamheden"},"additionalTravelTime":{"label":"De extra reistijd kan oplopen tot 30 minuten.","shortLabel":"Extra reistijd tot 30 min.","maximumDurationInMinutes":30},"alternativeTransport":{"label":"Er rijden bussen.","shortLabel":"er rijden bussen"},"advices":[]}],"alternativeTransportTimespans":[{"start":"2022-11-11T21:00:00+0100","end":"2022-11-25T21:00:00+0100","alternativeTransport":{"location":[{"station":{"uicCode":"8400307","stationCode":"HRL","name":"Heerlen","coordinate":{"lat":50.8908348083496,"lng":5.97499990463257},"countryCode":"NL"},"description":"vanaf de achterzijde van het station"},{"station":{"uicCode":"8400548","stationCode":"LG","name":"Landgraaf","coordinate":{"lat":50.8963890075684,"lng":6.01916646957398},"countryCode":"NL"},"description":"vanaf de voorzijde van het station"},{"station":{"uicCode":"8400234","stationCode":"EGHM","name":"Eygelshoven Markt","coordinate":{"lat":50.8960498196442,"lng":6.0602474212646396},"countryCode":"NL"},"description":"vanaf de voorzijde van het station"}],"label":"Er rijden bussen tussen Heerlen, Landgraaf, Eygelshoven Markt, Herzogenrath, Aachen West en Aachen Hbf.","shortLabel":"Er rijden bussen Heerlen - Landgraaf - Eygelshoven Mrkt - Herzogenrath - Aachen West - Aachen Hbf"}}]},{"id":"7002906","type":"MAINTENANCE","registrationTime":"2022-11-13T20:45:45+0100","releaseTime":"2022-11-13T20:45:45+0100","local":false,"title":"Amersfoort - Amersfoort Vathorst","titleSections":[[{"type":"STATION","value":"Amersfoort C."},{"type":"ICON","value":"MAINTENANCE"},{"type":"STATION","value":"Vathorst"}]],"isActive":true,"start":"2022-11-13T04:00:00+0100","end":"2022-11-26T02:00:00+0100","period":"Zondag 13-11-2022 04:00 uur t/m zaterdag 26-11-2022 02:00 uur.","impact":{"value":3},"summaryAdditionalTravelTime":{"label":"U heeft geen langere reistijd.","shortLabel":"Geen extra reistijd"},"publicationSections":[{"section":{"stations":[{"uicCode":"8400055","stationCode":"AMF","name":"Amersfoort Centraal","coordinate":{"lat":52.1538887023926,"lng":5.37055540084839},"countryCode":"NL"},{"uicCode":"8400054","stationCode":"AMFS","name":"Amersfoort Schothorst","coordinate":{"lat":52.1748221374512,"lng":5.40388870239258},"countryCode":"NL"},{"uicCode":"8400228","stationCode":"AVAT","name":"Amersfoort Vathorst","coordinate":{"lat":52.1927795410156,"lng":5.43388891220093},"countryCode":"NL"}],"direction":"BOTH"},"consequence":{"section":{"stations":[{"uicCode":"8400055","stationCode":"AMF","name":"Amersfoort Centraal","coordinate":{"lat":52.1538887023926,"lng":5.37055540084839},"countryCode":"NL"},{"uicCode":"8400054","stationCode":"AMFS","name":"Amersfoort Schothorst","coordinate":{"lat":52.1748221374512,"lng":5.40388870239258},"countryCode":"NL"},{"uicCode":"8400228","stationCode":"AVAT","name":"Amersfoort Vathorst","coordinate":{"lat":52.1927795410156,"lng":5.43388891220093},"countryCode":"NL"}],"direction":"ONE_WAY"},"description":"dienstregeling aangepast","level":"LESS_TRAINS"},"sectionType":"NL"}],"timespans":[{"start":"2022-11-13T04:00:00+0100","end":"2022-11-26T02:00:00+0100","period":"Zondag 13-11-2022 04:00 uur t/m zaterdag 26-11-2022 02:00 uur.","situation":{"label":"Door werkzaamheden elders: tussen Amersfoort Centraal en Amersfoort Vathorst is de dienstregeling aangepast."},"cause":{"label":"Werkzaamheden elders"},"additionalTravelTime":{"label":"U heeft geen langere reistijd.","shortLabel":"Geen extra reistijd"},"advices":[]}],"alternativeTransportTimespans":[]},{"id":"7002907","type":"MAINTENANCE","registrationTime":"2022-11-16T10:27:45+0100","releaseTime":"2022-11-16T10:27:45+0100","local":false,"title":"Utrecht - Nijmegen","titleSections":[[{"type":"STATION","value":"Utrecht C."},{"type":"ICON","value":"MAINTENANCE"},{"type":"STATION","value":"Nijmegen"}]],"isActive":true,"start":"2022-11-13T04:00:00+0100","end":"2022-11-26T02:00:00+0100","period":"Zondag 13-11-2022 04:00 uur t/m zaterdag 26-11-2022 02:00 uur.","impact":{"value":3},"summaryAdditionalTravelTime":{"label":"U heeft geen langere reistijd.","shortLabel":"Geen extra reistijd"},"publicationSections":[{"section":{"stations":[{"uicCode":"8400621","stationCode":"UT","name":"Utrecht Centraal","coordinate":{"lat":52.0888900756836,"lng":5.11027765274048},"countryCode":"NL"},{"uicCode":"8400606","stationCode":"UTVR","name":"Utrecht Vaartsche Rijn","coordinate":{"lat":52.078889,"lng":5.121667},"countryCode":"NL"},{"uicCode":"8400141","stationCode":"BNK","name":"Bunnik","coordinate":{"lat":52.0630569458008,"lng":5.19444465637207},"countryCode":"NL"},{"uicCode":"8400182","stationCode":"DB","name":"Driebergen-Zeist","coordinate":{"lat":52.0652770996094,"lng":5.25861120223999},"countryCode":"NL"},{"uicCode":"8400417","stationCode":"MRN","name":"Maarn","coordinate":{"lat":52.0641670227051,"lng":5.36999988555908},"countryCode":"NL"},{"uicCode":"8400637","stationCode":"KLP","name":"Veenendaal-De Klomp","coordinate":{"lat":52.0458335876465,"lng":5.57388877868652},"countryCode":"NL"},{"uicCode":"8400200","stationCode":"ED","name":"Ede-Wageningen","coordinate":{"lat":52.0277786254883,"lng":5.67305564880371},"countryCode":"NL"},{"uicCode":"8400704","stationCode":"WF","name":"Wolfheze","coordinate":{"lat":52.0055541992188,"lng":5.7936110496521},"countryCode":"NL"},{"uicCode":"8400489","stationCode":"OTB","name":"Oosterbeek","coordinate":{"lat":51.9949989318848,"lng":5.84000015258789},"countryCode":"NL"},{"uicCode":"8400071","stationCode":"AH","name":"Arnhem Centraal","coordinate":{"lat":51.9850006103516,"lng":5.89916658401489},"countryCode":"NL"},{"uicCode":"8400227","stationCode":"AHZ","name":"Arnhem Zuid","coordinate":{"lat":51.9550018310547,"lng":5.85194444656372},"countryCode":"NL"},{"uicCode":"8400207","stationCode":"EST","name":"Elst","coordinate":{"lat":51.9169425964355,"lng":5.85500001907349},"countryCode":"NL"},{"uicCode":"8400451","stationCode":"NML","name":"Nijmegen Lent","coordinate":{"lat":51.863154,"lng":5.859625},"countryCode":"NL"},{"uicCode":"8400470","stationCode":"NM","name":"Nijmegen","coordinate":{"lat":51.8436126708984,"lng":5.85222244262695},"countryCode":"NL"}],"direction":"BOTH"},"consequence":{"section":{"stations":[{"uicCode":"8400621","stationCode":"UT","name":"Utrecht Centraal","coordinate":{"lat":52.0888900756836,"lng":5.11027765274048},"countryCode":"NL"},{"uicCode":"8400606","stationCode":"UTVR","name":"Utrecht Vaartsche Rijn","coordinate":{"lat":52.078889,"lng":5.121667},"countryCode":"NL"},{"uicCode":"8400141","stationCode":"BNK","name":"Bunnik","coordinate":{"lat":52.0630569458008,"lng":5.19444465637207},"countryCode":"NL"},{"uicCode":"8400182","stationCode":"DB","name":"Driebergen-Zeist","coordinate":{"lat":52.0652770996094,"lng":5.25861120223999},"countryCode":"NL"},{"uicCode":"8400417","stationCode":"MRN","name":"Maarn","coordinate":{"lat":52.0641670227051,"lng":5.36999988555908},"countryCode":"NL"},{"uicCode":"8400637","stationCode":"KLP","name":"Veenendaal-De Klomp","coordinate":{"lat":52.0458335876465,"lng":5.57388877868652},"countryCode":"NL"},{"uicCode":"8400200","stationCode":"ED","name":"Ede-Wageningen","coordinate":{"lat":52.0277786254883,"lng":5.67305564880371},"countryCode":"NL"},{"uicCode":"8400704","stationCode":"WF","name":"Wolfheze","coordinate":{"lat":52.0055541992188,"lng":5.7936110496521},"countryCode":"NL"},{"uicCode":"8400489","stationCode":"OTB","name":"Oosterbeek","coordinate":{"lat":51.9949989318848,"lng":5.84000015258789},"countryCode":"NL"},{"uicCode":"8400071","stationCode":"AH","name":"Arnhem Centraal","coordinate":{"lat":51.9850006103516,"lng":5.89916658401489},"countryCode":"NL"},{"uicCode":"8400227","stationCode":"AHZ","name":"Arnhem Zuid","coordinate":{"lat":51.9550018310547,"lng":5.85194444656372},"countryCode":"NL"},{"uicCode":"8400207","stationCode":"EST","name":"Elst","coordinate":{"lat":51.9169425964355,"lng":5.85500001907349},"countryCode":"NL"},{"uicCode":"8400451","stationCode":"NML","name":"Nijmegen Lent","coordinate":{"lat":51.863154,"lng":5.859625},"countryCode":"NL"},{"uicCode":"8400470","stationCode":"NM","name":"Nijmegen","coordinate":{"lat":51.8436126708984,"lng":5.85222244262695},"countryCode":"NL"}],"direction":"ONE_WAY"},"description":"dienstregeling aangepast","level":"LESS_TRAINS"},"sectionType":"NL"}],"timespans":[{"start":"2022-11-13T04:00:00+0100","end":"2022-11-26T02:00:00+0100","period":"Zondag 13-11-2022 04:00 uur t/m zaterdag 26-11-2022 02:00 uur.","situation":{"label":"Door werkzaamheden elders: tussen Utrecht Centraal en Nijmegen is de dienstregeling aangepast."},"cause":{"label":"Werkzaamheden elders"},"additionalTravelTime":{"label":"U heeft geen langere reistijd.","shortLabel":"Geen extra reistijd"},"advices":[]}],"alternativeTransportTimespans":[]},{"id":"7002896","type":"MAINTENANCE","registrationTime":"2022-11-19T11:56:43+0100","releaseTime":"2022-11-19T11:56:43+0100","local":false,"title":"Amsterdam Zuid","titleSections":[[{"type":"STATION","value":"Amsterdam Zuid"}]],"isActive":true,"start":"2022-11-13T04:00:00+0100","end":"2022-11-26T08:00:00+0100","period":"Zondag 13-11-2022 04:00 uur t/m zaterdag 26-11-2022 08:00 uur.","impact":{"value":5},"summaryAdditionalTravelTime":{"label":"De extra reistijd kan oplopen tot 45 minuten.","shortLabel":"Extra reistijd tot 45 min.","maximumDurationInMinutes":45},"publicationSections":[{"section":{"stations":[{"uicCode":"8400561","stationCode":"SHL","name":"Schiphol Airport","coordinate":{"lat":52.3094444274902,"lng":4.76194429397583},"countryCode":"NL"},{"uicCode":"8400061","stationCode":"ASDZ","name":"Amsterdam Zuid","coordinate":{"lat":52.338889,"lng":4.872356},"countryCode":"NL"},{"uicCode":"8400056","stationCode":"RAI","name":"Amsterdam RAI","coordinate":{"lat":52.3372230529785,"lng":4.89027786254883},"countryCode":"NL"},{"uicCode":"8400194","stationCode":"DVD","name":"Duivendrecht","coordinate":{"lat":52.3233337402344,"lng":4.93638896942139},"countryCode":"NL"},{"uicCode":"8400163","stationCode":"DMNZ","name":"Diemen Zuid","coordinate":{"lat":52.3302764892578,"lng":4.95583343505859},"countryCode":"NL"},{"uicCode":"8400685","stationCode":"WP","name":"Weesp","coordinate":{"lat":52.3127784729004,"lng":5.04305553436279},"countryCode":"NL"},{"uicCode":"8400452","stationCode":"NDB","name":"Naarden-Bussum","coordinate":{"lat":52.2802772521973,"lng":5.15694427490234},"countryCode":"NL"},{"uicCode":"8400145","stationCode":"BSMZ","name":"Bussum Zuid","coordinate":{"lat":52.2658348083496,"lng":5.16305541992188},"countryCode":"NL"},{"uicCode":"8400324","stationCode":"HVSM","name":"Hilversum Media Park","coordinate":{"lat":52.2380561828613,"lng":5.17388868331909},"countryCode":"NL"},{"uicCode":"8400322","stationCode":"HVS","name":"Hilversum","coordinate":{"lat":52.2258338928223,"lng":5.18194437026978},"countryCode":"NL"},{"uicCode":"8400086","stationCode":"BRN","name":"Baarn","coordinate":{"lat":52.2083320617676,"lng":5.28083324432373},"countryCode":"NL"},{"uicCode":"8400055","stationCode":"AMF","name":"Amersfoort Centraal","coordinate":{"lat":52.1538887023926,"lng":5.37055540084839},"countryCode":"NL"}],"direction":"BOTH"},"consequence":{"section":{"stations":[{"uicCode":"8400061","stationCode":"ASDZ","name":"Amsterdam Zuid","coordinate":{"lat":52.338889,"lng":4.872356},"countryCode":"NL"}],"direction":"ONE_WAY"},"description":"dienstregeling aangepast","level":"LESS_TRAINS"},"sectionType":"NL"},{"section":{"stations":[{"uicCode":"8400561","stationCode":"SHL","name":"Schiphol Airport","coordinate":{"lat":52.3094444274902,"lng":4.76194429397583},"countryCode":"NL"},{"uicCode":"8400061","stationCode":"ASDZ","name":"Amsterdam Zuid","coordinate":{"lat":52.338889,"lng":4.872356},"countryCode":"NL"},{"uicCode":"8400056","stationCode":"RAI","name":"Amsterdam RAI","coordinate":{"lat":52.3372230529785,"lng":4.89027786254883},"countryCode":"NL"},{"uicCode":"8400194","stationCode":"DVD","name":"Duivendrecht","coordinate":{"lat":52.3233337402344,"lng":4.93638896942139},"countryCode":"NL"},{"uicCode":"8400163","stationCode":"DMNZ","name":"Diemen Zuid","coordinate":{"lat":52.3302764892578,"lng":4.95583343505859},"countryCode":"NL"},{"uicCode":"8400685","stationCode":"WP","name":"Weesp","coordinate":{"lat":52.3127784729004,"lng":5.04305553436279},"countryCode":"NL"},{"uicCode":"8400450","stationCode":"AMPO","name":"Almere Poort","coordinate":{"lat":52.342778,"lng":5.151944},"countryCode":"NL"},{"uicCode":"8400082","stationCode":"ALMM","name":"Almere Muziekwijk","coordinate":{"lat":52.3675003051758,"lng":5.19027757644653},"countryCode":"NL"},{"uicCode":"8400080","stationCode":"ALM","name":"Almere Centrum","coordinate":{"lat":52.37503,"lng":5.21764},"countryCode":"NL"},{"uicCode":"8400104","stationCode":"ALMP","name":"Almere Parkwijk","coordinate":{"lat":52.3766670227051,"lng":5.24472236633301},"countryCode":"NL"},{"uicCode":"8400081","stationCode":"ALMB","name":"Almere Buiten","coordinate":{"lat":52.3941650390625,"lng":5.2780556678772},"countryCode":"NL"},{"uicCode":"8400226","stationCode":"ALMO","name":"Almere Oostvaarders","coordinate":{"lat":52.4033317565918,"lng":5.30055570602417},"countryCode":"NL"},{"uicCode":"8400394","stationCode":"LLS","name":"Lelystad Centrum","coordinate":{"lat":52.5077781677246,"lng":5.47277784347534},"countryCode":"NL"}],"direction":"BOTH"},"consequence":{"section":{"stations":[{"uicCode":"8400061","stationCode":"ASDZ","name":"Amsterdam Zuid","coordinate":{"lat":52.338889,"lng":4.872356},"countryCode":"NL"}],"direction":"ONE_WAY"},"description":"dienstregeling aangepast","level":"LESS_TRAINS"},"sectionType":"NL"},{"section":{"stations":[{"uicCode":"8400561","stationCode":"SHL","name":"Schiphol Airport","coordinate":{"lat":52.3094444274902,"lng":4.76194429397583},"countryCode":"NL"},{"uicCode":"8400061","stationCode":"ASDZ","name":"Amsterdam Zuid","coordinate":{"lat":52.338889,"lng":4.872356},"countryCode":"NL"},{"uicCode":"8400056","stationCode":"RAI","name":"Amsterdam RAI","coordinate":{"lat":52.3372230529785,"lng":4.89027786254883},"countryCode":"NL"},{"uicCode":"8400074","stationCode":"ASB","name":"Amsterdam Bijlmer ArenA","coordinate":{"lat":52.3122215270996,"lng":4.94694423675537},"countryCode":"NL"},{"uicCode":"8400231","stationCode":"ASHD","name":"Amsterdam Holendrecht","coordinate":{"lat":52.29844,"lng":4.95972},"countryCode":"NL"},{"uicCode":"8400047","stationCode":"AC","name":"Abcoude","coordinate":{"lat":52.2785,"lng":4.977},"countryCode":"NL"},{"uicCode":"8400133","stationCode":"BKL","name":"Breukelen","coordinate":{"lat":52.17149,"lng":4.9906},"countryCode":"NL"},{"uicCode":"8400419","stationCode":"MAS","name":"Maarssen","coordinate":{"lat":52.1352767944336,"lng":5.03361129760742},"countryCode":"NL"},{"uicCode":"8400613","stationCode":"UTZL","name":"Utrecht Zuilen","coordinate":{"lat":52.103055,"lng":5.09},"countryCode":"NL"},{"uicCode":"8400621","stationCode":"UT","name":"Utrecht Centraal","coordinate":{"lat":52.0888900756836,"lng":5.11027765274048},"countryCode":"NL"},{"uicCode":"8400606","stationCode":"UTVR","name":"Utrecht Vaartsche Rijn","coordinate":{"lat":52.078889,"lng":5.121667},"countryCode":"NL"},{"uicCode":"8400141","stationCode":"BNK","name":"Bunnik","coordinate":{"lat":52.0630569458008,"lng":5.19444465637207},"countryCode":"NL"},{"uicCode":"8400182","stationCode":"DB","name":"Driebergen-Zeist","coordinate":{"lat":52.0652770996094,"lng":5.25861120223999},"countryCode":"NL"},{"uicCode":"8400417","stationCode":"MRN","name":"Maarn","coordinate":{"lat":52.0641670227051,"lng":5.36999988555908},"countryCode":"NL"},{"uicCode":"8400637","stationCode":"KLP","name":"Veenendaal-De Klomp","coordinate":{"lat":52.0458335876465,"lng":5.57388877868652},"countryCode":"NL"},{"uicCode":"8400200","stationCode":"ED","name":"Ede-Wageningen","coordinate":{"lat":52.0277786254883,"lng":5.67305564880371},"countryCode":"NL"},{"uicCode":"8400704","stationCode":"WF","name":"Wolfheze","coordinate":{"lat":52.0055541992188,"lng":5.7936110496521},"countryCode":"NL"},{"uicCode":"8400489","stationCode":"OTB","name":"Oosterbeek","coordinate":{"lat":51.9949989318848,"lng":5.84000015258789},"countryCode":"NL"},{"uicCode":"8400071","stationCode":"AH","name":"Arnhem Centraal","coordinate":{"lat":51.9850006103516,"lng":5.89916658401489},"countryCode":"NL"},{"uicCode":"8400227","stationCode":"AHZ","name":"Arnhem Zuid","coordinate":{"lat":51.9550018310547,"lng":5.85194444656372},"countryCode":"NL"},{"uicCode":"8400207","stationCode":"EST","name":"Elst","coordinate":{"lat":51.9169425964355,"lng":5.85500001907349},"countryCode":"NL"},{"uicCode":"8400451","stationCode":"NML","name":"Nijmegen Lent","coordinate":{"lat":51.863154,"lng":5.859625},"countryCode":"NL"},{"uicCode":"8400470","stationCode":"NM","name":"Nijmegen","coordinate":{"lat":51.8436126708984,"lng":5.85222244262695},"countryCode":"NL"}],"direction":"BOTH"},"consequence":{"section":{"stations":[{"uicCode":"8400061","stationCode":"ASDZ","name":"Amsterdam Zuid","coordinate":{"lat":52.338889,"lng":4.872356},"countryCode":"NL"}],"direction":"ONE_WAY"},"description":"dienstregeling aangepast","level":"LESS_TRAINS"},"sectionType":"NL"},{"section":{"stations":[{"uicCode":"8400061","stationCode":"ASDZ","name":"Amsterdam Zuid","coordinate":{"lat":52.338889,"lng":4.872356},"countryCode":"NL"},{"uicCode":"8400561","stationCode":"SHL","name":"Schiphol Airport","coordinate":{"lat":52.3094444274902,"lng":4.76194429397583},"countryCode":"NL"},{"uicCode":"8400332","stationCode":"HFD","name":"Hoofddorp","coordinate":{"lat":52.2933349609375,"lng":4.70055532455444},"countryCode":"NL"},{"uicCode":"8400460","stationCode":"NVP","name":"Nieuw Vennep","coordinate":{"lat":52.2588882446289,"lng":4.64555549621582},"countryCode":"NL"},{"uicCode":"8400603","stationCode":"SSH","name":"Sassenheim","coordinate":{"lat":52.215278,"lng":4.517222},"countryCode":"NL"},{"uicCode":"8400390","stationCode":"LEDN","name":"Leiden Centraal","coordinate":{"lat":52.1661109924316,"lng":4.48166656494141},"countryCode":"NL"},{"uicCode":"8400188","stationCode":"DVNK","name":"De Vink","coordinate":{"lat":52.1472206115723,"lng":4.4563889503479},"countryCode":"NL"},{"uicCode":"8400659","stationCode":"VST","name":"Voorschoten","coordinate":{"lat":52.1252784729004,"lng":4.43249988555908},"countryCode":"NL"},{"uicCode":"8400278","stationCode":"GVM","name":"Den Haag Mariahoeve","coordinate":{"lat":52.0905570983887,"lng":4.36944437026978},"countryCode":"NL"},{"uicCode":"8400380","stationCode":"LAA","name":"Den Haag Laan v NOI","coordinate":{"lat":52.0786094665527,"lng":4.34277772903442},"countryCode":"NL"},{"uicCode":"8400282","stationCode":"GVC","name":"Den Haag Centraal","coordinate":{"lat":52.0802764892578,"lng":4.32499980926514},"countryCode":"NL"}],"direction":"BOTH"},"consequence":{"section":{"stations":[{"uicCode":"8400061","stationCode":"ASDZ","name":"Amsterdam Zuid","coordinate":{"lat":52.338889,"lng":4.872356},"countryCode":"NL"}],"direction":"ONE_WAY"},"description":"dienstregeling aangepast","level":"LESS_TRAINS"},"sectionType":"NL"}],"timespans":[{"start":"2022-11-13T04:00:00+0100","end":"2022-11-26T08:00:00+0100","period":"Zondag 13-11-2022 04:00 uur t/m zaterdag 26-11-2022 08:00 uur.","situation":{"label":"Door werkzaamheden: van, via en naar Amsterdam Zuid is de dienstregeling aangepast."},"cause":{"label":"Werkzaamheden"},"additionalTravelTime":{"label":"De extra reistijd kan oplopen tot 45 minuten.","shortLabel":"Extra reistijd tot 45 min.","maximumDurationInMinutes":45},"alternativeTransport":{"label":"Maak gebruik van het vervangende vervoer.","shortLabel":"gebruik het vervangende vervoer"},"advices":["In metro 50, 51 en 52 is uw NS-vervoerbewijs geldig. Ook werkzaamheden van/naar Schiphol.","Tussen Almere C. en Amsterdam Zuid/Schiphol Airport reist u via Amsterdam C.","Tussen Amsterdam Zuid en Utrecht C./Amersfoort C. reist u via RAI","Tussen Schiphol Airport en Utrecht C./Amersfoort C. reist u via Amsterdam C.","Tussen Amsterdam Zuid en Schiphol Airport reist u via Amsterdam C."]}],"alternativeTransportTimespans":[{"start":"2022-11-13T05:30:00+0100","end":"2022-11-13T07:20:00+0100","alternativeTransport":{"location":[{"station":{"uicCode":"8400194","stationCode":"DVD","name":"Duivendrecht","coordinate":{"lat":52.3233337402344,"lng":4.93638896942139},"countryCode":"NL"},"description":"vanaf het busstation"},{"station":{"uicCode":"8400056","stationCode":"RAI","name":"Amsterdam RAI","coordinate":{"lat":52.3372230529785,"lng":4.89027786254883},"countryCode":"NL"},"description":"vanaf de voorzijde van het station"},{"station":{"uicCode":"8400061","stationCode":"ASDZ","name":"Amsterdam Zuid","coordinate":{"lat":52.338889,"lng":4.872356},"countryCode":"NL"},"description":"vanaf de Strawinskylaan uitgang Zuidplein"},{"station":{"uicCode":"8400561","stationCode":"SHL","name":"Schiphol Airport","coordinate":{"lat":52.3094444274902,"lng":4.76194429397583},"countryCode":"NL"},"description":"van het busstation halte C15 en C17"}],"label":"Er rijden bussen tussen Duivendrecht, Amsterdam RAI, Amsterdam Zuid en Schiphol Airport.","shortLabel":"Er rijden bussen Duivendrecht - RAI - Amsterdam Zuid - Schiphol Airport"}},{"start":"2022-11-13T06:10:00+0100","end":"2022-11-13T10:15:00+0100","alternativeTransport":{"location":[],"label":"Gebruik de metro tussen Amsterdam Bijlmer ArenA, Duivendrecht, Amsterdam RAI, Amsterdam Zuid en Amsterdam Lelylaan.","shortLabel":"Gebruik de metro Bijlmer ArenA - Duivendrecht - RAI - Amsterdam Zuid - Lelylaan"}},{"start":"2022-11-13T07:10:00+0100","end":"2022-11-14T01:05:00+0100","alternativeTransport":{"location":[],"label":"Gebruik de metro tussen Amsterdam Lelylaan, Amsterdam Zuid en Amsterdam RAI.","shortLabel":"Gebruik de metro Lelylaan - Amsterdam Zuid - RAI"}},{"start":"2022-11-13T07:20:00+0100","end":"2022-11-14T00:55:00+0100","alternativeTransport":{"location":[],"label":"Gebruik de metro tussen Amsterdam Centraal en Amsterdam Zuid.","shortLabel":"Gebruik de metro Amsterdam C. - Amsterdam Zuid"}},{"start":"2022-11-13T10:15:00+0100","end":"2022-11-14T01:00:00+0100","alternativeTransport":{"location":[],"label":"Gebruik de metro tussen Duivendrecht, Amsterdam RAI, Amsterdam Zuid en Amsterdam Lelylaan.","shortLabel":"Gebruik de metro Duivendrecht - RAI - Amsterdam Zuid - Lelylaan"}},{"start":"2022-11-14T00:50:00+0100","end":"2022-11-14T01:25:00+0100","alternativeTransport":{"location":[{"station":{"uicCode":"8400561","stationCode":"SHL","name":"Schiphol Airport","coordinate":{"lat":52.3094444274902,"lng":4.76194429397583},"countryCode":"NL"},"description":"van het busstation halte C15 en C17"},{"station":{"uicCode":"8400061","stationCode":"ASDZ","name":"Amsterdam Zuid","coordinate":{"lat":52.338889,"lng":4.872356},"countryCode":"NL"},"description":"vanaf de Strawinskylaan uitgang Zuidplein"},{"station":{"uicCode":"8400056","stationCode":"RAI","name":"Amsterdam RAI","coordinate":{"lat":52.3372230529785,"lng":4.89027786254883},"countryCode":"NL"},"description":"vanaf de voorzijde van het station"},{"station":{"uicCode":"8400194","stationCode":"DVD","name":"Duivendrecht","coordinate":{"lat":52.3233337402344,"lng":4.93638896942139},"countryCode":"NL"},"description":"vanaf het busstation"},{"station":{"uicCode":"8400163","stationCode":"DMNZ","name":"Diemen Zuid","coordinate":{"lat":52.3302764892578,"lng":4.95583343505859},"countryCode":"NL"},"description":"vanaf de voorzijde van het station"}],"label":"Er rijden bussen van Schiphol Airport, Amsterdam Zuid, Amsterdam RAI, Duivendrecht, Diemen Zuid naar Weesp.","shortLabel":"Er rijden bussen Schiphol Airport -> Amsterdam Zuid -> RAI -> Duivendrecht -> Diemen Zuid -> Weesp"}},{"start":"2022-11-14T05:20:00+0100","end":"2022-11-19T00:55:00+0100","alternativeTransport":{"location":[],"label":"Gebruik de metro tussen Amsterdam Centraal en Amsterdam Zuid.","shortLabel":"Gebruik de metro Amsterdam C. - Amsterdam Zuid"}},{"start":"2022-11-14T05:40:00+0100","end":"2022-11-19T01:05:00+0100","alternativeTransport":{"location":[],"label":"Gebruik de metro tussen Amsterdam Lelylaan, Amsterdam Zuid en Amsterdam RAI.","shortLabel":"Gebruik de metro Lelylaan - Amsterdam Zuid - RAI"}},{"start":"2022-11-14T05:50:00+0100","end":"2022-11-19T00:30:00+0100","alternativeTransport":{"location":[],"label":"Gebruik de metro tussen Duivendrecht, Amsterdam RAI, Amsterdam Zuid en Amsterdam Lelylaan.","shortLabel":"Gebruik de metro Duivendrecht - RAI - Amsterdam Zuid - Lelylaan"}},{"start":"2022-11-15T01:10:00+0100","end":"2022-11-15T01:25:00+0100","alternativeTransport":{"location":[{"station":{"uicCode":"8400056","stationCode":"RAI","name":"Amsterdam RAI","coordinate":{"lat":52.3372230529785,"lng":4.89027786254883},"countryCode":"NL"},"description":"vanaf de voorzijde van het station"},{"station":{"uicCode":"8400194","stationCode":"DVD","name":"Duivendrecht","coordinate":{"lat":52.3233337402344,"lng":4.93638896942139},"countryCode":"NL"},"description":"vanaf het busstation"},{"station":{"uicCode":"8400163","stationCode":"DMNZ","name":"Diemen Zuid","coordinate":{"lat":52.3302764892578,"lng":4.95583343505859},"countryCode":"NL"},"description":"vanaf de voorzijde van het station"}],"label":"Er rijden bussen van Amsterdam RAI, Duivendrecht, Diemen Zuid naar Weesp.","shortLabel":"Er rijden bussen RAI -> Duivendrecht -> Diemen Zuid -> Weesp"}},{"start":"2022-11-16T01:10:00+0100","end":"2022-11-16T01:25:00+0100","alternativeTransport":{"location":[{"station":{"uicCode":"8400056","stationCode":"RAI","name":"Amsterdam RAI","coordinate":{"lat":52.3372230529785,"lng":4.89027786254883},"countryCode":"NL"},"description":"vanaf de voorzijde van het station"},{"station":{"uicCode":"8400194","stationCode":"DVD","name":"Duivendrecht","coordinate":{"lat":52.3233337402344,"lng":4.93638896942139},"countryCode":"NL"},"description":"vanaf het busstation"},{"station":{"uicCode":"8400163","stationCode":"DMNZ","name":"Diemen Zuid","coordinate":{"lat":52.3302764892578,"lng":4.95583343505859},"countryCode":"NL"},"description":"vanaf de voorzijde van het station"}],"label":"Er rijden bussen van Amsterdam RAI, Duivendrecht, Diemen Zuid naar Weesp.","shortLabel":"Er rijden bussen RAI -> Duivendrecht -> Diemen Zuid -> Weesp"}},{"start":"2022-11-17T01:10:00+0100","end":"2022-11-17T01:25:00+0100","alternativeTransport":{"location":[{"station":{"uicCode":"8400056","stationCode":"RAI","name":"Amsterdam RAI","coordinate":{"lat":52.3372230529785,"lng":4.89027786254883},"countryCode":"NL"},"description":"vanaf de voorzijde van het station"},{"station":{"uicCode":"8400194","stationCode":"DVD","name":"Duivendrecht","coordinate":{"lat":52.3233337402344,"lng":4.93638896942139},"countryCode":"NL"},"description":"vanaf het busstation"},{"station":{"uicCode":"8400163","stationCode":"DMNZ","name":"Diemen Zuid","coordinate":{"lat":52.3302764892578,"lng":4.95583343505859},"countryCode":"NL"},"description":"vanaf de voorzijde van het station"}],"label":"Er rijden bussen van Amsterdam RAI, Duivendrecht, Diemen Zuid naar Weesp.","shortLabel":"Er rijden bussen RAI -> Duivendrecht -> Diemen Zuid -> Weesp"}},{"start":"2022-11-18T01:10:00+0100","end":"2022-11-18T01:25:00+0100","alternativeTransport":{"location":[{"station":{"uicCode":"8400056","stationCode":"RAI","name":"Amsterdam RAI","coordinate":{"lat":52.3372230529785,"lng":4.89027786254883},"countryCode":"NL"},"description":"vanaf de voorzijde van het station"},{"station":{"uicCode":"8400194","stationCode":"DVD","name":"Duivendrecht","coordinate":{"lat":52.3233337402344,"lng":4.93638896942139},"countryCode":"NL"},"description":"vanaf het busstation"},{"station":{"uicCode":"8400163","stationCode":"DMNZ","name":"Diemen Zuid","coordinate":{"lat":52.3302764892578,"lng":4.95583343505859},"countryCode":"NL"},"description":"vanaf de voorzijde van het station"}],"label":"Er rijden bussen van Amsterdam RAI, Duivendrecht, Diemen Zuid naar Weesp.","shortLabel":"Er rijden bussen RAI -> Duivendrecht -> Diemen Zuid -> Weesp"}},{"start":"2022-11-19T01:05:00+0100","end":"2022-11-19T05:55:00+0100","alternativeTransport":{"location":[{"station":{"uicCode":"8400056","stationCode":"RAI","name":"Amsterdam RAI","coordinate":{"lat":52.3372230529785,"lng":4.89027786254883},"countryCode":"NL"},"description":"vanaf de voorzijde van het station"},{"station":{"uicCode":"8400061","stationCode":"ASDZ","name":"Amsterdam Zuid","coordinate":{"lat":52.338889,"lng":4.872356},"countryCode":"NL"},"description":"vanaf de Strawinskylaan uitgang Zuidplein"},{"station":{"uicCode":"8400561","stationCode":"SHL","name":"Schiphol Airport","coordinate":{"lat":52.3094444274902,"lng":4.76194429397583},"countryCode":"NL"},"description":"van het busstation halte C15 en C17"}],"label":"Er rijden bussen tussen Amsterdam RAI, Amsterdam Zuid en Schiphol Airport.","shortLabel":"Er rijden bussen RAI - Amsterdam Zuid - Schiphol Airport"}},{"start":"2022-11-19T06:10:00+0100","end":"2022-11-20T00:30:00+0100","alternativeTransport":{"location":[],"label":"Gebruik de metro tussen Duivendrecht, Amsterdam RAI, Amsterdam Zuid en Amsterdam Lelylaan.","shortLabel":"Gebruik de metro Duivendrecht - RAI - Amsterdam Zuid - Lelylaan"}},{"start":"2022-11-19T06:10:00+0100","end":"2022-11-20T01:05:00+0100","alternativeTransport":{"location":[],"label":"Gebruik de metro tussen Amsterdam Lelylaan, Amsterdam Zuid en Amsterdam RAI.","shortLabel":"Gebruik de metro Lelylaan - Amsterdam Zuid - RAI"}},{"start":"2022-11-19T06:20:00+0100","end":"2022-11-20T00:55:00+0100","alternativeTransport":{"location":[],"label":"Gebruik de metro tussen Amsterdam Centraal en Amsterdam Zuid.","shortLabel":"Gebruik de metro Amsterdam C. - Amsterdam Zuid"}},{"start":"2022-11-20T01:05:00+0100","end":"2022-11-20T06:50:00+0100","alternativeTransport":{"location":[{"station":{"uicCode":"8400056","stationCode":"RAI","name":"Amsterdam RAI","coordinate":{"lat":52.3372230529785,"lng":4.89027786254883},"countryCode":"NL"},"description":"vanaf de voorzijde van het station"},{"station":{"uicCode":"8400061","stationCode":"ASDZ","name":"Amsterdam Zuid","coordinate":{"lat":52.338889,"lng":4.872356},"countryCode":"NL"},"description":"vanaf de Strawinskylaan uitgang Zuidplein"},{"station":{"uicCode":"8400561","stationCode":"SHL","name":"Schiphol Airport","coordinate":{"lat":52.3094444274902,"lng":4.76194429397583},"countryCode":"NL"},"description":"van het busstation halte C15 en C17"}],"label":"Er rijden bussen tussen Amsterdam RAI, Amsterdam Zuid en Schiphol Airport.","shortLabel":"Er rijden bussen RAI - Amsterdam Zuid - Schiphol Airport"}},{"start":"2022-11-20T07:10:00+0100","end":"2022-11-21T01:05:00+0100","alternativeTransport":{"location":[],"label":"Gebruik de metro tussen Amsterdam Lelylaan, Amsterdam Zuid en Amsterdam RAI.","shortLabel":"Gebruik de metro Lelylaan - Amsterdam Zuid - RAI"}},{"start":"2022-11-20T07:20:00+0100","end":"2022-11-21T00:55:00+0100","alternativeTransport":{"location":[],"label":"Gebruik de metro tussen Amsterdam Centraal en Amsterdam Zuid.","shortLabel":"Gebruik de metro Amsterdam C. - Amsterdam Zuid"}},{"start":"2022-11-21T00:50:00+0100","end":"2022-11-21T01:25:00+0100","alternativeTransport":{"location":[{"station":{"uicCode":"8400561","stationCode":"SHL","name":"Schiphol Airport","coordinate":{"lat":52.3094444274902,"lng":4.76194429397583},"countryCode":"NL"},"description":"van het busstation halte C15 en C17"},{"station":{"uicCode":"8400061","stationCode":"ASDZ","name":"Amsterdam Zuid","coordinate":{"lat":52.338889,"lng":4.872356},"countryCode":"NL"},"description":"vanaf de Strawinskylaan uitgang Zuidplein"},{"station":{"uicCode":"8400056","stationCode":"RAI","name":"Amsterdam RAI","coordinate":{"lat":52.3372230529785,"lng":4.89027786254883},"countryCode":"NL"},"description":"vanaf de voorzijde van het station"},{"station":{"uicCode":"8400194","stationCode":"DVD","name":"Duivendrecht","coordinate":{"lat":52.3233337402344,"lng":4.93638896942139},"countryCode":"NL"},"description":"vanaf het busstation"},{"station":{"uicCode":"8400163","stationCode":"DMNZ","name":"Diemen Zuid","coordinate":{"lat":52.3302764892578,"lng":4.95583343505859},"countryCode":"NL"},"description":"vanaf de voorzijde van het station"}],"label":"Er rijden bussen van Schiphol Airport, Amsterdam Zuid, Amsterdam RAI, Duivendrecht, Diemen Zuid naar Weesp.","shortLabel":"Er rijden bussen Schiphol Airport -> Amsterdam Zuid -> RAI -> Duivendrecht -> Diemen Zuid -> Weesp"}},{"start":"2022-11-21T05:20:00+0100","end":"2022-11-26T00:55:00+0100","alternativeTransport":{"location":[],"label":"Gebruik de metro tussen Amsterdam Centraal en Amsterdam Zuid.","shortLabel":"Gebruik de metro Amsterdam C. - Amsterdam Zuid"}},{"start":"2022-11-21T05:40:00+0100","end":"2022-11-26T01:05:00+0100","alternativeTransport":{"location":[],"label":"Gebruik de metro tussen Amsterdam Lelylaan, Amsterdam Zuid en Amsterdam RAI.","shortLabel":"Gebruik de metro Lelylaan - Amsterdam Zuid - RAI"}},{"start":"2022-11-21T05:50:00+0100","end":"2022-11-25T20:15:00+0100","alternativeTransport":{"location":[],"label":"Gebruik de metro tussen Duivendrecht, Amsterdam RAI, Amsterdam Zuid en Amsterdam Lelylaan.","shortLabel":"Gebruik de metro Duivendrecht - RAI - Amsterdam Zuid - Lelylaan"}},{"start":"2022-11-22T01:10:00+0100","end":"2022-11-22T01:25:00+0100","alternativeTransport":{"location":[{"station":{"uicCode":"8400056","stationCode":"RAI","name":"Amsterdam RAI","coordinate":{"lat":52.3372230529785,"lng":4.89027786254883},"countryCode":"NL"},"description":"vanaf de voorzijde van het station"},{"station":{"uicCode":"8400194","stationCode":"DVD","name":"Duivendrecht","coordinate":{"lat":52.3233337402344,"lng":4.93638896942139},"countryCode":"NL"},"description":"vanaf het busstation"},{"station":{"uicCode":"8400163","stationCode":"DMNZ","name":"Diemen Zuid","coordinate":{"lat":52.3302764892578,"lng":4.95583343505859},"countryCode":"NL"},"description":"vanaf de voorzijde van het station"}],"label":"Er rijden bussen van Amsterdam RAI, Duivendrecht, Diemen Zuid naar Weesp.","shortLabel":"Er rijden bussen RAI -> Duivendrecht -> Diemen Zuid -> Weesp"}},{"start":"2022-11-23T01:10:00+0100","end":"2022-11-23T01:25:00+0100","alternativeTransport":{"location":[{"station":{"uicCode":"8400056","stationCode":"RAI","name":"Amsterdam RAI","coordinate":{"lat":52.3372230529785,"lng":4.89027786254883},"countryCode":"NL"},"description":"vanaf de voorzijde van het station"},{"station":{"uicCode":"8400194","stationCode":"DVD","name":"Duivendrecht","coordinate":{"lat":52.3233337402344,"lng":4.93638896942139},"countryCode":"NL"},"description":"vanaf het busstation"},{"station":{"uicCode":"8400163","stationCode":"DMNZ","name":"Diemen Zuid","coordinate":{"lat":52.3302764892578,"lng":4.95583343505859},"countryCode":"NL"},"description":"vanaf de voorzijde van het station"}],"label":"Er rijden bussen van Amsterdam RAI, Duivendrecht, Diemen Zuid naar Weesp.","shortLabel":"Er rijden bussen RAI -> Duivendrecht -> Diemen Zuid -> Weesp"}},{"start":"2022-11-24T01:10:00+0100","end":"2022-11-24T01:25:00+0100","alternativeTransport":{"location":[{"station":{"uicCode":"8400056","stationCode":"RAI","name":"Amsterdam RAI","coordinate":{"lat":52.3372230529785,"lng":4.89027786254883},"countryCode":"NL"},"description":"vanaf de voorzijde van het station"},{"station":{"uicCode":"8400194","stationCode":"DVD","name":"Duivendrecht","coordinate":{"lat":52.3233337402344,"lng":4.93638896942139},"countryCode":"NL"},"description":"vanaf het busstation"},{"station":{"uicCode":"8400163","stationCode":"DMNZ","name":"Diemen Zuid","coordinate":{"lat":52.3302764892578,"lng":4.95583343505859},"countryCode":"NL"},"description":"vanaf de voorzijde van het station"}],"label":"Er rijden bussen van Amsterdam RAI, Duivendrecht, Diemen Zuid naar Weesp.","shortLabel":"Er rijden bussen RAI -> Duivendrecht -> Diemen Zuid -> Weesp"}},{"start":"2022-11-25T01:10:00+0100","end":"2022-11-25T01:25:00+0100","alternativeTransport":{"location":[{"station":{"uicCode":"8400056","stationCode":"RAI","name":"Amsterdam RAI","coordinate":{"lat":52.3372230529785,"lng":4.89027786254883},"countryCode":"NL"},"description":"vanaf de voorzijde van het station"},{"station":{"uicCode":"8400194","stationCode":"DVD","name":"Duivendrecht","coordinate":{"lat":52.3233337402344,"lng":4.93638896942139},"countryCode":"NL"},"description":"vanaf het busstation"},{"station":{"uicCode":"8400163","stationCode":"DMNZ","name":"Diemen Zuid","coordinate":{"lat":52.3302764892578,"lng":4.95583343505859},"countryCode":"NL"},"description":"vanaf de voorzijde van het station"}],"label":"Er rijden bussen van Amsterdam RAI, Duivendrecht, Diemen Zuid naar Weesp.","shortLabel":"Er rijden bussen RAI -> Duivendrecht -> Diemen Zuid -> Weesp"}},{"start":"2022-11-25T20:15:00+0100","end":"2022-11-26T00:30:00+0100","alternativeTransport":{"location":[],"label":"Gebruik de metro tussen Amsterdam Bijlmer ArenA, Duivendrecht, Amsterdam RAI, Amsterdam Zuid en Amsterdam Lelylaan.","shortLabel":"Gebruik de metro Bijlmer ArenA - Duivendrecht - RAI - Amsterdam Zuid - Lelylaan"}},{"start":"2022-11-26T01:00:00+0100","end":"2022-11-26T06:20:00+0100","alternativeTransport":{"location":[{"station":{"uicCode":"8400194","stationCode":"DVD","name":"Duivendrecht","coordinate":{"lat":52.3233337402344,"lng":4.93638896942139},"countryCode":"NL"},"description":"vanaf het busstation"},{"station":{"uicCode":"8400056","stationCode":"RAI","name":"Amsterdam RAI","coordinate":{"lat":52.3372230529785,"lng":4.89027786254883},"countryCode":"NL"},"description":"vanaf de voorzijde van het station"},{"station":{"uicCode":"8400061","stationCode":"ASDZ","name":"Amsterdam Zuid","coordinate":{"lat":52.338889,"lng":4.872356},"countryCode":"NL"},"description":"vanaf de Strawinskylaan uitgang Zuidplein"},{"station":{"uicCode":"8400561","stationCode":"SHL","name":"Schiphol Airport","coordinate":{"lat":52.3094444274902,"lng":4.76194429397583},"countryCode":"NL"},"description":"van het busstation halte C15 en C17"}],"label":"Er rijden bussen tussen Duivendrecht, Amsterdam RAI, Amsterdam Zuid en Schiphol Airport.","shortLabel":"Er rijden bussen Duivendrecht - RAI - Amsterdam Zuid - Schiphol Airport"}},{"start":"2022-11-26T06:10:00+0100","end":"2022-11-26T08:00:00+0100","alternativeTransport":{"location":[],"label":"Gebruik de metro tussen Amsterdam Bijlmer ArenA, Duivendrecht, Amsterdam RAI, Amsterdam Zuid en Amsterdam Lelylaan.","shortLabel":"Gebruik de metro Bijlmer ArenA - Duivendrecht - RAI - Amsterdam Zuid - Lelylaan"}},{"start":"2022-11-26T06:10:00+0100","end":"2022-11-26T08:00:00+0100","alternativeTransport":{"location":[],"label":"Gebruik de metro tussen Amsterdam Lelylaan, Amsterdam Zuid en Amsterdam RAI.","shortLabel":"Gebruik de metro Lelylaan - Amsterdam Zuid - RAI"}},{"start":"2022-11-26T06:20:00+0100","end":"2022-11-26T08:00:00+0100","alternativeTransport":{"location":[],"label":"Gebruik de metro tussen Amsterdam Centraal en Amsterdam Zuid.","shortLabel":"Gebruik de metro Amsterdam C. - Amsterdam Zuid"}}]},{"id":"7002911","type":"MAINTENANCE","registrationTime":"2022-11-20T18:09:48+0100","releaseTime":"2022-11-20T18:09:48+0100","local":false,"title":"Amsterdam - Schiphol - Rotterdam (HSL)","titleSections":[[{"type":"STATION","value":"Amsterdam C."},{"type":"ICON","value":"MAINTENANCE"},{"type":"STATION","value":"Rotterdam C."}]],"isActive":true,"start":"2022-11-13T04:00:00+0100","end":"2022-11-28T02:00:00+0100","period":"Zondag 13-11-2022 04:00 uur t/m maandag 28-11-2022 02:00 uur.","impact":{"value":2},"summaryAdditionalTravelTime":{"label":"U heeft geen langere reistijd.","shortLabel":"Geen extra reistijd"},"publicationSections":[{"section":{"stations":[{"uicCode":"8400058","stationCode":"ASD","name":"Amsterdam Centraal","coordinate":{"lat":52.3788871765137,"lng":4.90027761459351},"countryCode":"NL"},{"uicCode":"8400059","stationCode":"ASS","name":"Amsterdam Sloterdijk","coordinate":{"lat":52.3888893127441,"lng":4.83777761459351},"countryCode":"NL"},{"uicCode":"8400079","stationCode":"ASDL","name":"Amsterdam Lelylaan","coordinate":{"lat":52.3577766418457,"lng":4.83388900756836},"countryCode":"NL"},{"uicCode":"8400561","stationCode":"SHL","name":"Schiphol Airport","coordinate":{"lat":52.3094444274902,"lng":4.76194429397583},"countryCode":"NL"},{"uicCode":"8400332","stationCode":"HFD","name":"Hoofddorp","coordinate":{"lat":52.2933349609375,"lng":4.70055532455444},"countryCode":"NL"},{"uicCode":"8400530","stationCode":"RTD","name":"Rotterdam Centraal","coordinate":{"lat":51.9249992370605,"lng":4.46888875961304},"countryCode":"NL"}],"direction":"BOTH"},"consequence":{"section":{"stations":[{"uicCode":"8400058","stationCode":"ASD","name":"Amsterdam Centraal","coordinate":{"lat":52.3788871765137,"lng":4.90027761459351},"countryCode":"NL"},{"uicCode":"8400059","stationCode":"ASS","name":"Amsterdam Sloterdijk","coordinate":{"lat":52.3888893127441,"lng":4.83777761459351},"countryCode":"NL"},{"uicCode":"8400079","stationCode":"ASDL","name":"Amsterdam Lelylaan","coordinate":{"lat":52.3577766418457,"lng":4.83388900756836},"countryCode":"NL"},{"uicCode":"8400561","stationCode":"SHL","name":"Schiphol Airport","coordinate":{"lat":52.3094444274902,"lng":4.76194429397583},"countryCode":"NL"},{"uicCode":"8400332","stationCode":"HFD","name":"Hoofddorp","coordinate":{"lat":52.2933349609375,"lng":4.70055532455444},"countryCode":"NL"},{"uicCode":"8400530","stationCode":"RTD","name":"Rotterdam Centraal","coordinate":{"lat":51.9249992370605,"lng":4.46888875961304},"countryCode":"NL"}],"direction":"ONE_WAY"},"description":"dienstregeling aangepast","level":"LESS_TRAINS"},"sectionType":"HSL"}],"timespans":[{"start":"2022-11-13T04:00:00+0100","end":"2022-11-28T02:00:00+0100","period":"Zondag 13-11-2022 04:00 uur t/m maandag 28-11-2022 02:00 uur.","situation":{"label":"Door werkzaamheden aan de Hogesnelheidslijn: tussen Amsterdam Centraal en Rotterdam Centraal is de dienstregeling aangepast."},"cause":{"label":"Werkzaamheden HSL"},"additionalTravelTime":{"label":"U heeft geen langere reistijd.","shortLabel":"Geen extra reistijd"},"advices":[]}],"alternativeTransportTimespans":[]},{"id":"7002932","type":"MAINTENANCE","registrationTime":"2022-11-21T11:40:16+0100","releaseTime":"2022-11-21T11:40:16+0100","local":false,"title":"Schiphol Airport","titleSections":[[{"type":"STATION","value":"Schiphol Airport"}]],"isActive":true,"start":"2022-11-13T04:01:00+0100","end":"2022-11-26T08:01:00+0100","period":"Zondag 13-11-2022 04:01 uur t/m zaterdag 26-11-2022 08:01 uur.","impact":{"value":2},"summaryAdditionalTravelTime":{"label":"De extra reistijd kan oplopen tot 45 minuten.","shortLabel":"Extra reistijd tot 45 min.","maximumDurationInMinutes":45},"publicationSections":[{"section":{"stations":[{"uicCode":"8400058","stationCode":"ASD","name":"Amsterdam Centraal","coordinate":{"lat":52.3788871765137,"lng":4.90027761459351},"countryCode":"NL"},{"uicCode":"8400059","stationCode":"ASS","name":"Amsterdam Sloterdijk","coordinate":{"lat":52.3888893127441,"lng":4.83777761459351},"countryCode":"NL"},{"uicCode":"8400079","stationCode":"ASDL","name":"Amsterdam Lelylaan","coordinate":{"lat":52.3577766418457,"lng":4.83388900756836},"countryCode":"NL"},{"uicCode":"8400561","stationCode":"SHL","name":"Schiphol Airport","coordinate":{"lat":52.3094444274902,"lng":4.76194429397583},"countryCode":"NL"},{"uicCode":"8400332","stationCode":"HFD","name":"Hoofddorp","coordinate":{"lat":52.2933349609375,"lng":4.70055532455444},"countryCode":"NL"},{"uicCode":"8400460","stationCode":"NVP","name":"Nieuw Vennep","coordinate":{"lat":52.2588882446289,"lng":4.64555549621582},"countryCode":"NL"},{"uicCode":"8400603","stationCode":"SSH","name":"Sassenheim","coordinate":{"lat":52.215278,"lng":4.517222},"countryCode":"NL"},{"uicCode":"8400390","stationCode":"LEDN","name":"Leiden Centraal","coordinate":{"lat":52.1661109924316,"lng":4.48166656494141},"countryCode":"NL"}],"direction":"BOTH"},"consequence":{"section":{"stations":[{"uicCode":"8400561","stationCode":"SHL","name":"Schiphol Airport","coordinate":{"lat":52.3094444274902,"lng":4.76194429397583},"countryCode":"NL"}],"direction":"ONE_WAY"},"description":"dienstregeling aangepast","level":"LESS_TRAINS"},"sectionType":"NL"},{"section":{"stations":[{"uicCode":"8400061","stationCode":"ASDZ","name":"Amsterdam Zuid","coordinate":{"lat":52.338889,"lng":4.872356},"countryCode":"NL"},{"uicCode":"8400561","stationCode":"SHL","name":"Schiphol Airport","coordinate":{"lat":52.3094444274902,"lng":4.76194429397583},"countryCode":"NL"},{"uicCode":"8400332","stationCode":"HFD","name":"Hoofddorp","coordinate":{"lat":52.2933349609375,"lng":4.70055532455444},"countryCode":"NL"},{"uicCode":"8400460","stationCode":"NVP","name":"Nieuw Vennep","coordinate":{"lat":52.2588882446289,"lng":4.64555549621582},"countryCode":"NL"},{"uicCode":"8400603","stationCode":"SSH","name":"Sassenheim","coordinate":{"lat":52.215278,"lng":4.517222},"countryCode":"NL"},{"uicCode":"8400390","stationCode":"LEDN","name":"Leiden Centraal","coordinate":{"lat":52.1661109924316,"lng":4.48166656494141},"countryCode":"NL"}],"direction":"BOTH"},"consequence":{"section":{"stations":[{"uicCode":"8400561","stationCode":"SHL","name":"Schiphol Airport","coordinate":{"lat":52.3094444274902,"lng":4.76194429397583},"countryCode":"NL"}],"direction":"ONE_WAY"},"description":"dienstregeling aangepast","level":"LESS_TRAINS"},"sectionType":"NL"}],"timespans":[{"start":"2022-11-13T04:01:00+0100","end":"2022-11-26T08:01:00+0100","period":"Zondag 13-11-2022 04:01 uur t/m zaterdag 26-11-2022 08:01 uur.","situation":{"label":"Door werkzaamheden: van, via en naar Schiphol Airport is de dienstregeling aangepast."},"cause":{"label":"Werkzaamheden"},"additionalTravelTime":{"label":"De extra reistijd kan oplopen tot 45 minuten.","shortLabel":"Extra reistijd tot 45 min.","maximumDurationInMinutes":45},"advices":["In metro 50, 51 en 52 is uw NS-vervoerbewijs geldig. Ook werkzaamheden van/naar Amsterdam Zuid.","Tussen Almere C. en Amsterdam Zuid/Schiphol Airport reist u via Amsterdam C.","Tussen Amsterdam Zuid en Utrecht C./Amersfoort C. reist u via RAI","Tussen Schiphol Airport en Utrecht C./Amersfoort C. reist u via Amsterdam C.","Tussen Amsterdam Zuid en Schiphol Airport reist u via Amsterdam C."]}],"alternativeTransportTimespans":[]},{"id":"7002946","type":"MAINTENANCE","registrationTime":"2022-10-24T12:33:41+0200","releaseTime":"2022-10-24T12:33:41+0200","local":false,"title":"Amsterdam - Köln - Basel SBB","titleSections":[[{"type":"STATION","value":"Amsterdam C."},{"type":"ICON","value":"MAINTENANCE"},{"type":"STATION","value":"Basel SBB"}]],"isActive":true,"start":"2022-11-20T08:00:00+0100","end":"2022-11-24T09:05:00+0100","period":"Zondag 20-11-2022 08:00 uur t/m donderdag 24-11-2022 09:05 uur.","impact":{"value":2},"summaryAdditionalTravelTime":{"label":"U heeft geen langere reistijd.","shortLabel":"Geen extra reistijd"},"publicationSections":[{"section":{"stations":[{"uicCode":"8400058","stationCode":"ASD","name":"Amsterdam Centraal","coordinate":{"lat":52.3788871765137,"lng":4.90027761459351},"countryCode":"NL"},{"uicCode":"8400060","stationCode":"ASDM","name":"Amsterdam Muiderpoort","coordinate":{"lat":52.3605537414551,"lng":4.93111133575439},"countryCode":"NL"},{"uicCode":"8400057","stationCode":"ASA","name":"Amsterdam Amstel","coordinate":{"lat":52.3466682434082,"lng":4.91777801513672},"countryCode":"NL"},{"uicCode":"8400194","stationCode":"DVD","name":"Duivendrecht","coordinate":{"lat":52.3233337402344,"lng":4.93638896942139},"countryCode":"NL"},{"uicCode":"8400074","stationCode":"ASB","name":"Amsterdam Bijlmer ArenA","coordinate":{"lat":52.3122215270996,"lng":4.94694423675537},"countryCode":"NL"},{"uicCode":"8400231","stationCode":"ASHD","name":"Amsterdam Holendrecht","coordinate":{"lat":52.29844,"lng":4.95972},"countryCode":"NL"},{"uicCode":"8400047","stationCode":"AC","name":"Abcoude","coordinate":{"lat":52.2785,"lng":4.977},"countryCode":"NL"},{"uicCode":"8400133","stationCode":"BKL","name":"Breukelen","coordinate":{"lat":52.17149,"lng":4.9906},"countryCode":"NL"},{"uicCode":"8400419","stationCode":"MAS","name":"Maarssen","coordinate":{"lat":52.1352767944336,"lng":5.03361129760742},"countryCode":"NL"},{"uicCode":"8400613","stationCode":"UTZL","name":"Utrecht Zuilen","coordinate":{"lat":52.103055,"lng":5.09},"countryCode":"NL"},{"uicCode":"8400621","stationCode":"UT","name":"Utrecht Centraal","coordinate":{"lat":52.0888900756836,"lng":5.11027765274048},"countryCode":"NL"},{"uicCode":"8400606","stationCode":"UTVR","name":"Utrecht Vaartsche Rijn","coordinate":{"lat":52.078889,"lng":5.121667},"countryCode":"NL"},{"uicCode":"8400141","stationCode":"BNK","name":"Bunnik","coordinate":{"lat":52.0630569458008,"lng":5.19444465637207},"countryCode":"NL"},{"uicCode":"8400182","stationCode":"DB","name":"Driebergen-Zeist","coordinate":{"lat":52.0652770996094,"lng":5.25861120223999},"countryCode":"NL"},{"uicCode":"8400417","stationCode":"MRN","name":"Maarn","coordinate":{"lat":52.0641670227051,"lng":5.36999988555908},"countryCode":"NL"},{"uicCode":"8400637","stationCode":"KLP","name":"Veenendaal-De Klomp","coordinate":{"lat":52.0458335876465,"lng":5.57388877868652},"countryCode":"NL"},{"uicCode":"8400200","stationCode":"ED","name":"Ede-Wageningen","coordinate":{"lat":52.0277786254883,"lng":5.67305564880371},"countryCode":"NL"},{"uicCode":"8400704","stationCode":"WF","name":"Wolfheze","coordinate":{"lat":52.0055541992188,"lng":5.7936110496521},"countryCode":"NL"},{"uicCode":"8400489","stationCode":"OTB","name":"Oosterbeek","coordinate":{"lat":51.9949989318848,"lng":5.84000015258789},"countryCode":"NL"},{"uicCode":"8400071","stationCode":"AH","name":"Arnhem Centraal","coordinate":{"lat":51.9850006103516,"lng":5.89916658401489},"countryCode":"NL"},{"uicCode":"8400072","stationCode":"AHP","name":"Arnhem Velperpoort","coordinate":{"lat":51.985279083252,"lng":5.91944456100464},"countryCode":"NL"},{"uicCode":"8400688","stationCode":"WTV","name":"Westervoort","coordinate":{"lat":51.96286,"lng":5.9695},"countryCode":"NL"},{"uicCode":"8400193","stationCode":"DVN","name":"Duiven","coordinate":{"lat":51.9433326721191,"lng":6.01472234725952},"countryCode":"NL"},{"uicCode":"8400735","stationCode":"ZV","name":"Zevenaar","coordinate":{"lat":51.9230537414551,"lng":6.07194423675537},"countryCode":"NL"},{"uicCode":"8033415","stationCode":"EL","name":"Emmerich-Elten","coordinate":{"lat":51.8743,"lng":6.15417},"countryCode":"D"},{"uicCode":"8010288","stationCode":"EM","name":"Emmerich","coordinate":{"lat":51.834283,"lng":6.255718},"countryCode":"D"},{"uicCode":"8010263","stationCode":"OBERH","name":"Oberhausen Hbf","coordinate":{"lat":51.47512,"lng":6.852038},"countryCode":"D"},{"uicCode":"8010316","stationCode":"DUISB","name":"Duisburg Hbf","coordinate":{"lat":51.4297785713316,"lng":6.77590370178222},"countryCode":"D"},{"uicCode":"8008094","stationCode":"DUSSEL","name":"Düsseldorf Hbf","coordinate":{"lat":51.220146,"lng":6.793137},"countryCode":"D"},{"uicCode":"8015561","stationCode":"KKD","name":"Köln Messe/Deutz","coordinate":{"lat":50.940874,"lng":6.975001},"countryCode":"D"},{"uicCode":"8015458","stationCode":"KOLN","name":"Köln Hbf","coordinate":{"lat":50.9432158,"lng":6.9589214},"countryCode":"D"},{"uicCode":"8015588","stationCode":"KSB","name":"Siegburg/Bonn","coordinate":{"lat":50.7939411,"lng":7.2030017},"countryCode":"D"},{"uicCode":"8019585","stationCode":"KMB","name":"Montabaur","coordinate":{"lat":50.444834,"lng":7.825333},"countryCode":"D"},{"uicCode":"8032572","stationCode":"FLB","name":"Limburg Süd","coordinate":{"lat":50.382498,"lng":8.096112},"countryCode":"D"},{"uicCode":"8061676","stationCode":"FNAF","name":"Frankfurt Flughafen Fernb","coordinate":{"lat":50.0531710299286,"lng":8.570237159729},"countryCode":"D"},{"uicCode":"8011068","stationCode":"FFFM","name":"Frankfurt (M) Hbf","coordinate":{"lat":50.1071222,"lng":8.6638338},"countryCode":"D"},{"uicCode":"8014008","stationCode":"MANNHE","name":"Mannheim Hbf","coordinate":{"lat":49.479354,"lng":8.468921},"countryCode":"D"},{"uicCode":"8014228","stationCode":"KARLSR","name":"Karlsruhe Hbf","coordinate":{"lat":48.9936223,"lng":8.400743},"countryCode":"D"},{"uicCode":"8014309","stationCode":"RO","name":"Offenburg","coordinate":{"lat":48.476475,"lng":7.946723},"countryCode":"D"},{"uicCode":"8014350","stationCode":"RF","name":"Freiburg (Breisgau) Hbf","coordinate":{"lat":47.99789,"lng":7.84134},"countryCode":"D"},{"uicCode":"8014431","stationCode":"BASELB","name":"Basel Bad Bf","coordinate":{"lat":47.56815,"lng":7.6073},"countryCode":"D"},{"uicCode":"8500010","stationCode":"BASELS","name":"Basel SBB","coordinate":{"lat":47.5474,"lng":7.58956},"countryCode":"CH"}],"direction":"ONE_WAY"},"consequence":{"section":{"stations":[{"uicCode":"8400058","stationCode":"ASD","name":"Amsterdam Centraal","coordinate":{"lat":52.3788871765137,"lng":4.90027761459351},"countryCode":"NL"},{"uicCode":"8400060","stationCode":"ASDM","name":"Amsterdam Muiderpoort","coordinate":{"lat":52.3605537414551,"lng":4.93111133575439},"countryCode":"NL"},{"uicCode":"8400057","stationCode":"ASA","name":"Amsterdam Amstel","coordinate":{"lat":52.3466682434082,"lng":4.91777801513672},"countryCode":"NL"},{"uicCode":"8400194","stationCode":"DVD","name":"Duivendrecht","coordinate":{"lat":52.3233337402344,"lng":4.93638896942139},"countryCode":"NL"},{"uicCode":"8400074","stationCode":"ASB","name":"Amsterdam Bijlmer ArenA","coordinate":{"lat":52.3122215270996,"lng":4.94694423675537},"countryCode":"NL"},{"uicCode":"8400231","stationCode":"ASHD","name":"Amsterdam Holendrecht","coordinate":{"lat":52.29844,"lng":4.95972},"countryCode":"NL"},{"uicCode":"8400047","stationCode":"AC","name":"Abcoude","coordinate":{"lat":52.2785,"lng":4.977},"countryCode":"NL"},{"uicCode":"8400133","stationCode":"BKL","name":"Breukelen","coordinate":{"lat":52.17149,"lng":4.9906},"countryCode":"NL"},{"uicCode":"8400419","stationCode":"MAS","name":"Maarssen","coordinate":{"lat":52.1352767944336,"lng":5.03361129760742},"countryCode":"NL"},{"uicCode":"8400613","stationCode":"UTZL","name":"Utrecht Zuilen","coordinate":{"lat":52.103055,"lng":5.09},"countryCode":"NL"},{"uicCode":"8400621","stationCode":"UT","name":"Utrecht Centraal","coordinate":{"lat":52.0888900756836,"lng":5.11027765274048},"countryCode":"NL"},{"uicCode":"8400606","stationCode":"UTVR","name":"Utrecht Vaartsche Rijn","coordinate":{"lat":52.078889,"lng":5.121667},"countryCode":"NL"},{"uicCode":"8400141","stationCode":"BNK","name":"Bunnik","coordinate":{"lat":52.0630569458008,"lng":5.19444465637207},"countryCode":"NL"},{"uicCode":"8400182","stationCode":"DB","name":"Driebergen-Zeist","coordinate":{"lat":52.0652770996094,"lng":5.25861120223999},"countryCode":"NL"},{"uicCode":"8400417","stationCode":"MRN","name":"Maarn","coordinate":{"lat":52.0641670227051,"lng":5.36999988555908},"countryCode":"NL"},{"uicCode":"8400637","stationCode":"KLP","name":"Veenendaal-De Klomp","coordinate":{"lat":52.0458335876465,"lng":5.57388877868652},"countryCode":"NL"},{"uicCode":"8400200","stationCode":"ED","name":"Ede-Wageningen","coordinate":{"lat":52.0277786254883,"lng":5.67305564880371},"countryCode":"NL"},{"uicCode":"8400704","stationCode":"WF","name":"Wolfheze","coordinate":{"lat":52.0055541992188,"lng":5.7936110496521},"countryCode":"NL"},{"uicCode":"8400489","stationCode":"OTB","name":"Oosterbeek","coordinate":{"lat":51.9949989318848,"lng":5.84000015258789},"countryCode":"NL"},{"uicCode":"8400071","stationCode":"AH","name":"Arnhem Centraal","coordinate":{"lat":51.9850006103516,"lng":5.89916658401489},"countryCode":"NL"},{"uicCode":"8400072","stationCode":"AHP","name":"Arnhem Velperpoort","coordinate":{"lat":51.985279083252,"lng":5.91944456100464},"countryCode":"NL"},{"uicCode":"8400688","stationCode":"WTV","name":"Westervoort","coordinate":{"lat":51.96286,"lng":5.9695},"countryCode":"NL"},{"uicCode":"8400193","stationCode":"DVN","name":"Duiven","coordinate":{"lat":51.9433326721191,"lng":6.01472234725952},"countryCode":"NL"},{"uicCode":"8400735","stationCode":"ZV","name":"Zevenaar","coordinate":{"lat":51.9230537414551,"lng":6.07194423675537},"countryCode":"NL"},{"uicCode":"8033415","stationCode":"EL","name":"Emmerich-Elten","coordinate":{"lat":51.8743,"lng":6.15417},"countryCode":"D"},{"uicCode":"8010288","stationCode":"EM","name":"Emmerich","coordinate":{"lat":51.834283,"lng":6.255718},"countryCode":"D"},{"uicCode":"8010263","stationCode":"OBERH","name":"Oberhausen Hbf","coordinate":{"lat":51.47512,"lng":6.852038},"countryCode":"D"},{"uicCode":"8010316","stationCode":"DUISB","name":"Duisburg Hbf","coordinate":{"lat":51.4297785713316,"lng":6.77590370178222},"countryCode":"D"},{"uicCode":"8008094","stationCode":"DUSSEL","name":"Düsseldorf Hbf","coordinate":{"lat":51.220146,"lng":6.793137},"countryCode":"D"},{"uicCode":"8015561","stationCode":"KKD","name":"Köln Messe/Deutz","coordinate":{"lat":50.940874,"lng":6.975001},"countryCode":"D"},{"uicCode":"8015458","stationCode":"KOLN","name":"Köln Hbf","coordinate":{"lat":50.9432158,"lng":6.9589214},"countryCode":"D"},{"uicCode":"8015588","stationCode":"KSB","name":"Siegburg/Bonn","coordinate":{"lat":50.7939411,"lng":7.2030017},"countryCode":"D"},{"uicCode":"8019585","stationCode":"KMB","name":"Montabaur","coordinate":{"lat":50.444834,"lng":7.825333},"countryCode":"D"},{"uicCode":"8032572","stationCode":"FLB","name":"Limburg Süd","coordinate":{"lat":50.382498,"lng":8.096112},"countryCode":"D"},{"uicCode":"8061676","stationCode":"FNAF","name":"Frankfurt Flughafen Fernb","coordinate":{"lat":50.0531710299286,"lng":8.570237159729},"countryCode":"D"},{"uicCode":"8011068","stationCode":"FFFM","name":"Frankfurt (M) Hbf","coordinate":{"lat":50.1071222,"lng":8.6638338},"countryCode":"D"},{"uicCode":"8014008","stationCode":"MANNHE","name":"Mannheim Hbf","coordinate":{"lat":49.479354,"lng":8.468921},"countryCode":"D"},{"uicCode":"8014228","stationCode":"KARLSR","name":"Karlsruhe Hbf","coordinate":{"lat":48.9936223,"lng":8.400743},"countryCode":"D"},{"uicCode":"8014309","stationCode":"RO","name":"Offenburg","coordinate":{"lat":48.476475,"lng":7.946723},"countryCode":"D"},{"uicCode":"8014350","stationCode":"RF","name":"Freiburg (Breisgau) Hbf","coordinate":{"lat":47.99789,"lng":7.84134},"countryCode":"D"},{"uicCode":"8014431","stationCode":"BASELB","name":"Basel Bad Bf","coordinate":{"lat":47.56815,"lng":7.6073},"countryCode":"D"},{"uicCode":"8500010","stationCode":"BASELS","name":"Basel SBB","coordinate":{"lat":47.5474,"lng":7.58956},"countryCode":"CH"}],"direction":"ONE_WAY"},"description":"aangepaste internationale dienstregeling","level":"LESS_TRAINS"},"sectionType":"NEIGHBORING_COUNTRY"}],"timespans":[{"start":"2022-11-20T08:00:00+0100","end":"2022-11-24T09:05:00+0100","period":"Zondag 20-11-2022 08:00 uur t/m donderdag 24-11-2022 09:05 uur.","situation":{"label":"Door werkzaamheden: van Amsterdam Centraal naar Basel SBB is de internationale dienstregeling aangepast."},"cause":{"label":"Werkzaamheden"},"additionalTravelTime":{"label":"U heeft geen langere reistijd.","shortLabel":"Geen extra reistijd"},"advices":["Dit kan gevolgen hebben voor uw reis. Plan uw reis in de (Internationale) app."]}],"alternativeTransportTimespans":[]},{"id":"7002885","type":"MAINTENANCE","registrationTime":"2022-10-11T10:15:43+0200","releaseTime":"2022-10-11T10:15:43+0200","local":false,"title":"Amsterdam - Brussel - London (HSL)","titleSections":[[{"type":"STATION","value":"Amsterdam C."},{"type":"ICON","value":"MAINTENANCE"},{"type":"STATION","value":"Brussel-Z. Midi"},{"type":"STATION","value":"London St. P Int"}]],"isActive":true,"start":"2022-11-21T04:00:00+0100","end":"2022-11-26T02:00:00+0100","period":"Maandag 21-11-2022 04:00 uur t/m zaterdag 26-11-2022 02:00 uur.","impact":{"value":2},"summaryAdditionalTravelTime":{"label":"U heeft geen langere reistijd.","shortLabel":"Geen extra reistijd"},"publicationSections":[{"section":{"stations":[{"uicCode":"8400058","stationCode":"ASD","name":"Amsterdam Centraal","coordinate":{"lat":52.3788871765137,"lng":4.90027761459351},"countryCode":"NL"},{"uicCode":"8400059","stationCode":"ASS","name":"Amsterdam Sloterdijk","coordinate":{"lat":52.3888893127441,"lng":4.83777761459351},"countryCode":"NL"},{"uicCode":"8400079","stationCode":"ASDL","name":"Amsterdam Lelylaan","coordinate":{"lat":52.3577766418457,"lng":4.83388900756836},"countryCode":"NL"},{"uicCode":"8400561","stationCode":"SHL","name":"Schiphol Airport","coordinate":{"lat":52.3094444274902,"lng":4.76194429397583},"countryCode":"NL"},{"uicCode":"8400332","stationCode":"HFD","name":"Hoofddorp","coordinate":{"lat":52.2933349609375,"lng":4.70055532455444},"countryCode":"NL"},{"uicCode":"8400530","stationCode":"RTD","name":"Rotterdam Centraal","coordinate":{"lat":51.9249992370605,"lng":4.46888875961304},"countryCode":"NL"},{"uicCode":"8400529","stationCode":"RTB","name":"Rotterdam Blaak","coordinate":{"lat":51.9202766418457,"lng":4.48888874053955},"countryCode":"NL"},{"uicCode":"8400533","stationCode":"RTZ","name":"Rotterdam Zuid","coordinate":{"lat":51.9044456481934,"lng":4.51027774810791},"countryCode":"NL"},{"uicCode":"8400542","stationCode":"RLB","name":"Rotterdam Lombardijen","coordinate":{"lat":51.8800010681152,"lng":4.53138875961304},"countryCode":"NL"},{"uicCode":"8400132","stationCode":"BDPB","name":"Breda-Prinsenbeek","coordinate":{"lat":51.606388092041,"lng":4.72083330154419},"countryCode":"NL"},{"uicCode":"8400131","stationCode":"BD","name":"Breda","coordinate":{"lat":51.5955543518066,"lng":4.78000020980835},"countryCode":"NL"},{"uicCode":"8821105","stationCode":"NDKP","name":"Noorderkempen","coordinate":{"lat":51.358088,"lng":4.633977},"countryCode":"B"},{"uicCode":"8821063","stationCode":"ATWLB","name":"Antwerpen-Luchtbal","coordinate":{"lat":51.2449375,"lng":4.4251543},"countryCode":"B"},{"uicCode":"8821006","stationCode":"ATW","name":"Antwerpen-Centraal","coordinate":{"lat":51.21686,"lng":4.421242},"countryCode":"B"},{"uicCode":"8821121","stationCode":"BERCH","name":"Antwerpen-Berchem","coordinate":{"lat":51.198914,"lng":4.4332},"countryCode":"B"},{"uicCode":"8822004","stationCode":"MECH","name":"Mechelen","coordinate":{"lat":51.01758,"lng":4.48313},"countryCode":"B"},{"uicCode":"8812005","stationCode":"BRUSN","name":"Brussel-Noord","coordinate":{"lat":50.859658,"lng":4.360854},"countryCode":"B"},{"uicCode":"8813003","stationCode":"BRUSC","name":"Brussel-Centraal","coordinate":{"lat":50.845175,"lng":4.357131},"countryCode":"B"},{"uicCode":"8814001","stationCode":"BRUSZ","name":"Brussel-Zuid Midi","coordinate":{"lat":50.836782,"lng":4.336922},"countryCode":"B"},{"uicCode":"8722326","stationCode":"LILLEE","name":"Lille Europe","coordinate":{"lat":50.639444,"lng":3.074722},"countryCode":"F"},{"uicCode":"7015400","stationCode":"STP","name":"London St. Pancras Int.","coordinate":{"lat":51.531437,"lng":-0.126136},"countryCode":"GB"}],"direction":"BOTH"},"consequence":{"section":{"stations":[{"uicCode":"8400058","stationCode":"ASD","name":"Amsterdam Centraal","coordinate":{"lat":52.3788871765137,"lng":4.90027761459351},"countryCode":"NL"},{"uicCode":"8400059","stationCode":"ASS","name":"Amsterdam Sloterdijk","coordinate":{"lat":52.3888893127441,"lng":4.83777761459351},"countryCode":"NL"},{"uicCode":"8400079","stationCode":"ASDL","name":"Amsterdam Lelylaan","coordinate":{"lat":52.3577766418457,"lng":4.83388900756836},"countryCode":"NL"},{"uicCode":"8400561","stationCode":"SHL","name":"Schiphol Airport","coordinate":{"lat":52.3094444274902,"lng":4.76194429397583},"countryCode":"NL"},{"uicCode":"8400332","stationCode":"HFD","name":"Hoofddorp","coordinate":{"lat":52.2933349609375,"lng":4.70055532455444},"countryCode":"NL"},{"uicCode":"8400530","stationCode":"RTD","name":"Rotterdam Centraal","coordinate":{"lat":51.9249992370605,"lng":4.46888875961304},"countryCode":"NL"},{"uicCode":"8400529","stationCode":"RTB","name":"Rotterdam Blaak","coordinate":{"lat":51.9202766418457,"lng":4.48888874053955},"countryCode":"NL"},{"uicCode":"8400533","stationCode":"RTZ","name":"Rotterdam Zuid","coordinate":{"lat":51.9044456481934,"lng":4.51027774810791},"countryCode":"NL"},{"uicCode":"8400542","stationCode":"RLB","name":"Rotterdam Lombardijen","coordinate":{"lat":51.8800010681152,"lng":4.53138875961304},"countryCode":"NL"},{"uicCode":"8400132","stationCode":"BDPB","name":"Breda-Prinsenbeek","coordinate":{"lat":51.606388092041,"lng":4.72083330154419},"countryCode":"NL"},{"uicCode":"8400131","stationCode":"BD","name":"Breda","coordinate":{"lat":51.5955543518066,"lng":4.78000020980835},"countryCode":"NL"},{"uicCode":"8821105","stationCode":"NDKP","name":"Noorderkempen","coordinate":{"lat":51.358088,"lng":4.633977},"countryCode":"B"},{"uicCode":"8821063","stationCode":"ATWLB","name":"Antwerpen-Luchtbal","coordinate":{"lat":51.2449375,"lng":4.4251543},"countryCode":"B"},{"uicCode":"8821006","stationCode":"ATW","name":"Antwerpen-Centraal","coordinate":{"lat":51.21686,"lng":4.421242},"countryCode":"B"},{"uicCode":"8821121","stationCode":"BERCH","name":"Antwerpen-Berchem","coordinate":{"lat":51.198914,"lng":4.4332},"countryCode":"B"},{"uicCode":"8822004","stationCode":"MECH","name":"Mechelen","coordinate":{"lat":51.01758,"lng":4.48313},"countryCode":"B"},{"uicCode":"8812005","stationCode":"BRUSN","name":"Brussel-Noord","coordinate":{"lat":50.859658,"lng":4.360854},"countryCode":"B"},{"uicCode":"8813003","stationCode":"BRUSC","name":"Brussel-Centraal","coordinate":{"lat":50.845175,"lng":4.357131},"countryCode":"B"},{"uicCode":"8814001","stationCode":"BRUSZ","name":"Brussel-Zuid Midi","coordinate":{"lat":50.836782,"lng":4.336922},"countryCode":"B"}],"direction":"ONE_WAY"},"description":"aangepaste internationale dienstregeling","level":"LESS_TRAINS"},"sectionType":"HSL"}],"timespans":[{"start":"2022-11-21T04:00:00+0100","end":"2022-11-26T02:00:00+0100","period":"Maandag 21-11-2022 04:00 uur t/m zaterdag 26-11-2022 02:00 uur.","situation":{"label":"Door werkzaamheden: tussen Amsterdam Centraal en Brussel-Zuid Midi is de internationale dienstregeling aangepast."},"cause":{"label":"Werkzaamheden"},"additionalTravelTime":{"label":"U heeft geen langere reistijd.","shortLabel":"Geen extra reistijd"},"advices":["Dit kan gevolgen hebben voor uw reis. Plan uw reis in de (Internationale) app."]}],"alternativeTransportTimespans":[]},{"id":"7002884","type":"MAINTENANCE","registrationTime":"2022-10-11T10:06:33+0200","releaseTime":"2022-10-11T10:06:33+0200","local":false,"title":"Amsterdam - Rotterdam - Brussel (HSL)","titleSections":[[{"type":"STATION","value":"Amsterdam C."},{"type":"ICON","value":"MAINTENANCE"},{"type":"STATION","value":"Breda"},{"type":"STATION","value":"Brussel-Z. Midi"}]],"isActive":true,"start":"2022-11-21T04:00:00+0100","end":"2022-11-28T02:00:00+0100","period":"Maandag 21-11-2022 04:00 uur t/m maandag 28-11-2022 02:00 uur.","impact":{"value":2},"summaryAdditionalTravelTime":{"label":"U heeft geen langere reistijd.","shortLabel":"Geen extra reistijd"},"publicationSections":[{"section":{"stations":[{"uicCode":"8400058","stationCode":"ASD","name":"Amsterdam Centraal","coordinate":{"lat":52.3788871765137,"lng":4.90027761459351},"countryCode":"NL"},{"uicCode":"8400059","stationCode":"ASS","name":"Amsterdam Sloterdijk","coordinate":{"lat":52.3888893127441,"lng":4.83777761459351},"countryCode":"NL"},{"uicCode":"8400079","stationCode":"ASDL","name":"Amsterdam Lelylaan","coordinate":{"lat":52.3577766418457,"lng":4.83388900756836},"countryCode":"NL"},{"uicCode":"8400561","stationCode":"SHL","name":"Schiphol Airport","coordinate":{"lat":52.3094444274902,"lng":4.76194429397583},"countryCode":"NL"},{"uicCode":"8400332","stationCode":"HFD","name":"Hoofddorp","coordinate":{"lat":52.2933349609375,"lng":4.70055532455444},"countryCode":"NL"},{"uicCode":"8400530","stationCode":"RTD","name":"Rotterdam Centraal","coordinate":{"lat":51.9249992370605,"lng":4.46888875961304},"countryCode":"NL"},{"uicCode":"8400529","stationCode":"RTB","name":"Rotterdam Blaak","coordinate":{"lat":51.9202766418457,"lng":4.48888874053955},"countryCode":"NL"},{"uicCode":"8400533","stationCode":"RTZ","name":"Rotterdam Zuid","coordinate":{"lat":51.9044456481934,"lng":4.51027774810791},"countryCode":"NL"},{"uicCode":"8400542","stationCode":"RLB","name":"Rotterdam Lombardijen","coordinate":{"lat":51.8800010681152,"lng":4.53138875961304},"countryCode":"NL"},{"uicCode":"8400132","stationCode":"BDPB","name":"Breda-Prinsenbeek","coordinate":{"lat":51.606388092041,"lng":4.72083330154419},"countryCode":"NL"},{"uicCode":"8400131","stationCode":"BD","name":"Breda","coordinate":{"lat":51.5955543518066,"lng":4.78000020980835},"countryCode":"NL"},{"uicCode":"8821105","stationCode":"NDKP","name":"Noorderkempen","coordinate":{"lat":51.358088,"lng":4.633977},"countryCode":"B"},{"uicCode":"8821063","stationCode":"ATWLB","name":"Antwerpen-Luchtbal","coordinate":{"lat":51.2449375,"lng":4.4251543},"countryCode":"B"},{"uicCode":"8821006","stationCode":"ATW","name":"Antwerpen-Centraal","coordinate":{"lat":51.21686,"lng":4.421242},"countryCode":"B"},{"uicCode":"8821121","stationCode":"BERCH","name":"Antwerpen-Berchem","coordinate":{"lat":51.198914,"lng":4.4332},"countryCode":"B"},{"uicCode":"8822004","stationCode":"MECH","name":"Mechelen","coordinate":{"lat":51.01758,"lng":4.48313},"countryCode":"B"},{"uicCode":"8812005","stationCode":"BRUSN","name":"Brussel-Noord","coordinate":{"lat":50.859658,"lng":4.360854},"countryCode":"B"},{"uicCode":"8813003","stationCode":"BRUSC","name":"Brussel-Centraal","coordinate":{"lat":50.845175,"lng":4.357131},"countryCode":"B"},{"uicCode":"8814001","stationCode":"BRUSZ","name":"Brussel-Zuid Midi","coordinate":{"lat":50.836782,"lng":4.336922},"countryCode":"B"}],"direction":"BOTH"},"consequence":{"section":{"stations":[{"uicCode":"8400058","stationCode":"ASD","name":"Amsterdam Centraal","coordinate":{"lat":52.3788871765137,"lng":4.90027761459351},"countryCode":"NL"},{"uicCode":"8400059","stationCode":"ASS","name":"Amsterdam Sloterdijk","coordinate":{"lat":52.3888893127441,"lng":4.83777761459351},"countryCode":"NL"},{"uicCode":"8400079","stationCode":"ASDL","name":"Amsterdam Lelylaan","coordinate":{"lat":52.3577766418457,"lng":4.83388900756836},"countryCode":"NL"},{"uicCode":"8400561","stationCode":"SHL","name":"Schiphol Airport","coordinate":{"lat":52.3094444274902,"lng":4.76194429397583},"countryCode":"NL"},{"uicCode":"8400332","stationCode":"HFD","name":"Hoofddorp","coordinate":{"lat":52.2933349609375,"lng":4.70055532455444},"countryCode":"NL"},{"uicCode":"8400530","stationCode":"RTD","name":"Rotterdam Centraal","coordinate":{"lat":51.9249992370605,"lng":4.46888875961304},"countryCode":"NL"},{"uicCode":"8400529","stationCode":"RTB","name":"Rotterdam Blaak","coordinate":{"lat":51.9202766418457,"lng":4.48888874053955},"countryCode":"NL"},{"uicCode":"8400533","stationCode":"RTZ","name":"Rotterdam Zuid","coordinate":{"lat":51.9044456481934,"lng":4.51027774810791},"countryCode":"NL"},{"uicCode":"8400542","stationCode":"RLB","name":"Rotterdam Lombardijen","coordinate":{"lat":51.8800010681152,"lng":4.53138875961304},"countryCode":"NL"},{"uicCode":"8400132","stationCode":"BDPB","name":"Breda-Prinsenbeek","coordinate":{"lat":51.606388092041,"lng":4.72083330154419},"countryCode":"NL"},{"uicCode":"8400131","stationCode":"BD","name":"Breda","coordinate":{"lat":51.5955543518066,"lng":4.78000020980835},"countryCode":"NL"}],"direction":"ONE_WAY"},"description":"aangepaste internationale dienstregeling","level":"LESS_TRAINS"},"sectionType":"HSL"}],"timespans":[{"start":"2022-11-21T04:00:00+0100","end":"2022-11-28T02:00:00+0100","period":"Maandag 21-11-2022 04:00 uur t/m maandag 28-11-2022 02:00 uur.","situation":{"label":"Door werkzaamheden: tussen Amsterdam Centraal en Breda is de internationale dienstregeling aangepast."},"cause":{"label":"Werkzaamheden"},"additionalTravelTime":{"label":"U heeft geen langere reistijd.","shortLabel":"Geen extra reistijd"},"advices":["Dit kan gevolgen hebben voor uw reis. Plan uw reis in de (Internationale) app."]}],"alternativeTransportTimespans":[]},{"id":"7003022","type":"MAINTENANCE","registrationTime":"2022-11-09T11:41:25+0100","releaseTime":"2022-11-09T11:41:25+0100","local":false,"title":"Amsterdam - Hannover - Berlin","titleSections":[[{"type":"STATION","value":"Amsterdam C."},{"type":"STATION","value":"Apeldoorn"},{"type":"ICON","value":"MAINTENANCE"},{"type":"STATION","value":"Hengelo"},{"type":"STATION","value":"Berlin Hbf"}]],"isActive":true,"start":"2022-11-21T10:50:00+0100","end":"2022-11-27T22:30:00+0100","period":"Maandag 21-11-2022 10:50 uur t/m zondag 27-11-2022 22:30 uur.","impact":{"value":2},"publicationSections":[{"section":{"stations":[{"uicCode":"8400058","stationCode":"ASD","name":"Amsterdam Centraal","coordinate":{"lat":52.3788871765137,"lng":4.90027761459351},"countryCode":"NL"},{"uicCode":"8400060","stationCode":"ASDM","name":"Amsterdam Muiderpoort","coordinate":{"lat":52.3605537414551,"lng":4.93111133575439},"countryCode":"NL"},{"uicCode":"8400235","stationCode":"ASSP","name":"Amsterdam Science Park","coordinate":{"lat":52.35526,"lng":4.94651},"countryCode":"NL"},{"uicCode":"8400165","stationCode":"DMN","name":"Diemen","coordinate":{"lat":52.34515,"lng":4.967566},"countryCode":"NL"},{"uicCode":"8400685","stationCode":"WP","name":"Weesp","coordinate":{"lat":52.3127784729004,"lng":5.04305553436279},"countryCode":"NL"},{"uicCode":"8400452","stationCode":"NDB","name":"Naarden-Bussum","coordinate":{"lat":52.2802772521973,"lng":5.15694427490234},"countryCode":"NL"},{"uicCode":"8400145","stationCode":"BSMZ","name":"Bussum Zuid","coordinate":{"lat":52.2658348083496,"lng":5.16305541992188},"countryCode":"NL"},{"uicCode":"8400324","stationCode":"HVSM","name":"Hilversum Media Park","coordinate":{"lat":52.2380561828613,"lng":5.17388868331909},"countryCode":"NL"},{"uicCode":"8400322","stationCode":"HVS","name":"Hilversum","coordinate":{"lat":52.2258338928223,"lng":5.18194437026978},"countryCode":"NL"},{"uicCode":"8400086","stationCode":"BRN","name":"Baarn","coordinate":{"lat":52.2083320617676,"lng":5.28083324432373},"countryCode":"NL"},{"uicCode":"8400055","stationCode":"AMF","name":"Amersfoort Centraal","coordinate":{"lat":52.1538887023926,"lng":5.37055540084839},"countryCode":"NL"},{"uicCode":"8400490","stationCode":"HVL","name":"Hoevelaken","coordinate":{"lat":52.16652,"lng":5.45718},"countryCode":"NL"},{"uicCode":"8400066","stationCode":"APD","name":"Apeldoorn","coordinate":{"lat":52.2091674804687,"lng":5.97027778625488},"countryCode":"NL"},{"uicCode":"8400229","stationCode":"APDO","name":"Apeldoorn Osseveld","coordinate":{"lat":52.2152786254883,"lng":6.00444459915161},"countryCode":"NL"},{"uicCode":"8400599","stationCode":"TWL","name":"Twello","coordinate":{"lat":52.2377777099609,"lng":6.09861087799072},"countryCode":"NL"},{"uicCode":"8400173","stationCode":"DV","name":"Deventer","coordinate":{"lat":52.2574996948242,"lng":6.16055536270142},"countryCode":"NL"},{"uicCode":"8400185","stationCode":"DVC","name":"Deventer Colmschate","coordinate":{"lat":52.2502784729004,"lng":6.21444463729858},"countryCode":"NL"},{"uicCode":"8400328","stationCode":"HON","name":"Holten","coordinate":{"lat":52.2838897705078,"lng":6.42027759552002},"countryCode":"NL"},{"uicCode":"8400538","stationCode":"RSN","name":"Rijssen","coordinate":{"lat":52.3122215270996,"lng":6.52027797698975},"countryCode":"NL"},{"uicCode":"8400691","stationCode":"WDN","name":"Wierden","coordinate":{"lat":52.3613891601562,"lng":6.59166669845581},"countryCode":"NL"},{"uicCode":"8400051","stationCode":"AML","name":"Almelo","coordinate":{"lat":52.3580551147461,"lng":6.65388870239258},"countryCode":"NL"},{"uicCode":"8400520","stationCode":"AMRI","name":"Almelo de Riet","coordinate":{"lat":52.3419456481934,"lng":6.66666650772095},"countryCode":"NL"},{"uicCode":"8400124","stationCode":"BN","name":"Borne","coordinate":{"lat":52.2988891601562,"lng":6.74805545806885},"countryCode":"NL"},{"uicCode":"8400316","stationCode":"HGL","name":"Hengelo","coordinate":{"lat":52.2616653442383,"lng":6.79388904571533},"countryCode":"NL"},{"uicCode":"8400312","stationCode":"HGLO","name":"Hengelo Oost","coordinate":{"lat":52.2688903808594,"lng":6.81944465637207},"countryCode":"NL"},{"uicCode":"8400483","stationCode":"ODZ","name":"Oldenzaal","coordinate":{"lat":52.3063888549805,"lng":6.93472242355347},"countryCode":"NL"},{"uicCode":"8021156","stationCode":"BH","name":"Bad Bentheim","coordinate":{"lat":52.309685595156,"lng":7.15853691101074},"countryCode":"D"},{"uicCode":"8021067","stationCode":"RHEINE","name":"Rheine","coordinate":{"lat":52.276299,"lng":7.434255},"countryCode":"D"},{"uicCode":"8021025","stationCode":"OSNH","name":"Osnabrück Hbf","coordinate":{"lat":52.272851,"lng":8.061781},"countryCode":"D"},{"uicCode":"8013552","stationCode":"HANN","name":"Hannover Hbf","coordinate":{"lat":52.3770401,"lng":9.7416759},"countryCode":"D"},{"uicCode":"8065969","stationCode":"BERHBL","name":"Berlin Hbf","coordinate":{"lat":52.52503,"lng":13.36946},"countryCode":"D"}],"direction":"ONE_WAY"},"consequence":{"section":{"stations":[{"uicCode":"8400066","stationCode":"APD","name":"Apeldoorn","coordinate":{"lat":52.2091674804687,"lng":5.97027778625488},"countryCode":"NL"},{"uicCode":"8400229","stationCode":"APDO","name":"Apeldoorn Osseveld","coordinate":{"lat":52.2152786254883,"lng":6.00444459915161},"countryCode":"NL"},{"uicCode":"8400599","stationCode":"TWL","name":"Twello","coordinate":{"lat":52.2377777099609,"lng":6.09861087799072},"countryCode":"NL"},{"uicCode":"8400173","stationCode":"DV","name":"Deventer","coordinate":{"lat":52.2574996948242,"lng":6.16055536270142},"countryCode":"NL"},{"uicCode":"8400185","stationCode":"DVC","name":"Deventer Colmschate","coordinate":{"lat":52.2502784729004,"lng":6.21444463729858},"countryCode":"NL"},{"uicCode":"8400328","stationCode":"HON","name":"Holten","coordinate":{"lat":52.2838897705078,"lng":6.42027759552002},"countryCode":"NL"},{"uicCode":"8400538","stationCode":"RSN","name":"Rijssen","coordinate":{"lat":52.3122215270996,"lng":6.52027797698975},"countryCode":"NL"},{"uicCode":"8400691","stationCode":"WDN","name":"Wierden","coordinate":{"lat":52.3613891601562,"lng":6.59166669845581},"countryCode":"NL"},{"uicCode":"8400051","stationCode":"AML","name":"Almelo","coordinate":{"lat":52.3580551147461,"lng":6.65388870239258},"countryCode":"NL"},{"uicCode":"8400520","stationCode":"AMRI","name":"Almelo de Riet","coordinate":{"lat":52.3419456481934,"lng":6.66666650772095},"countryCode":"NL"},{"uicCode":"8400124","stationCode":"BN","name":"Borne","coordinate":{"lat":52.2988891601562,"lng":6.74805545806885},"countryCode":"NL"},{"uicCode":"8400316","stationCode":"HGL","name":"Hengelo","coordinate":{"lat":52.2616653442383,"lng":6.79388904571533},"countryCode":"NL"}],"direction":"ONE_WAY"},"description":"aangepaste internationale dienstregeling","level":"LESS_TRAINS"},"sectionType":"NEIGHBORING_COUNTRY"}],"timespans":[{"start":"2022-11-21T10:50:00+0100","end":"2022-11-21T22:30:00+0100","period":"Maandag 21-11-2022 10:50 uur t/m maandag 21-11-2022 22:30 uur.","situation":{"label":"Door werkzaamheden: van Hengelo naar Apeldoorn is de internationale dienstregeling aangepast."},"cause":{"label":"Werkzaamheden"},"additionalTravelTime":{"label":"U heeft geen langere reistijd.","shortLabel":"Geen extra reistijd"},"advices":["Dit kan gevolgen hebben voor uw reis. Plan uw reis in de app."]},{"start":"2022-11-22T10:50:00+0100","end":"2022-11-22T22:30:00+0100","period":"Dinsdag 22-11-2022 10:50 uur t/m dinsdag 22-11-2022 22:30 uur.","situation":{"label":"Door werkzaamheden: van Hengelo naar Apeldoorn is de internationale dienstregeling aangepast."},"cause":{"label":"Werkzaamheden"},"additionalTravelTime":{"label":"U heeft geen langere reistijd.","shortLabel":"Geen extra reistijd"},"advices":["Dit kan gevolgen hebben voor uw reis. Plan uw reis in de app."]},{"start":"2022-11-23T10:50:00+0100","end":"2022-11-23T22:30:00+0100","period":"Woensdag 23-11-2022 10:50 uur t/m woensdag 23-11-2022 22:30 uur.","situation":{"label":"Door werkzaamheden: van Hengelo naar Apeldoorn is de internationale dienstregeling aangepast."},"cause":{"label":"Werkzaamheden"},"additionalTravelTime":{"label":"U heeft geen langere reistijd.","shortLabel":"Geen extra reistijd"},"advices":["Dit kan gevolgen hebben voor uw reis. Plan uw reis in de app."]},{"start":"2022-11-24T10:50:00+0100","end":"2022-11-24T22:30:00+0100","period":"Donderdag 24-11-2022 10:50 uur t/m donderdag 24-11-2022 22:30 uur.","situation":{"label":"Door werkzaamheden: van Hengelo naar Apeldoorn is de internationale dienstregeling aangepast."},"cause":{"label":"Werkzaamheden"},"additionalTravelTime":{"label":"U heeft geen langere reistijd.","shortLabel":"Geen extra reistijd"},"advices":["Dit kan gevolgen hebben voor uw reis. Plan uw reis in de app."]},{"start":"2022-11-25T10:50:00+0100","end":"2022-11-25T22:30:00+0100","period":"Vrijdag 25-11-2022 10:50 uur t/m vrijdag 25-11-2022 22:30 uur.","situation":{"label":"Door werkzaamheden: van Hengelo naar Apeldoorn is de internationale dienstregeling aangepast."},"cause":{"label":"Werkzaamheden"},"additionalTravelTime":{"label":"U heeft geen langere reistijd.","shortLabel":"Geen extra reistijd"},"advices":["Dit kan gevolgen hebben voor uw reis. Plan uw reis in de app."]},{"start":"2022-11-26T10:50:00+0100","end":"2022-11-26T22:30:00+0100","period":"Zaterdag 26-11-2022 10:50 uur t/m zaterdag 26-11-2022 22:30 uur.","situation":{"label":"Door werkzaamheden: van Hengelo naar Apeldoorn is de internationale dienstregeling aangepast."},"cause":{"label":"Werkzaamheden"},"additionalTravelTime":{"label":"U heeft geen langere reistijd.","shortLabel":"Geen extra reistijd"},"advices":["Dit kan gevolgen hebben voor uw reis. Plan uw reis in de app."]},{"start":"2022-11-27T10:50:00+0100","end":"2022-11-27T22:30:00+0100","period":"Zondag 27-11-2022 10:50 uur t/m zondag 27-11-2022 22:30 uur.","situation":{"label":"Door werkzaamheden: van Hengelo naar Apeldoorn is de internationale dienstregeling aangepast."},"cause":{"label":"Werkzaamheden"},"additionalTravelTime":{"label":"U heeft geen langere reistijd.","shortLabel":"Geen extra reistijd"},"advices":["Dit kan gevolgen hebben voor uw reis. Plan uw reis in de app."]}],"alternativeTransportTimespans":[]},{"id":"7002892","type":"MAINTENANCE","registrationTime":"2022-10-27T10:06:26+0200","releaseTime":"2022-10-27T10:06:26+0200","local":false,"title":"Venlo - Mönchengladbach - Düsseldorf","titleSections":[[{"type":"STATION","value":"Venlo"},{"type":"ICON","value":"MAINTENANCE"},{"type":"STATION","value":"Viersen"},{"type":"STATION","value":"Düsseldorf Hbf"}]],"isActive":false,"start":"2022-11-23T22:30:00+0100","end":"2022-11-27T00:00:00+0100","period":"Woensdag 23-11-2022 22:30 uur t/m zondag 27-11-2022 00:00 uur.","impact":{"value":2},"summaryAdditionalTravelTime":{"label":"De extra reistijd kan oplopen tot 30 minuten.","shortLabel":"Extra reistijd tot 30 min.","maximumDurationInMinutes":30},"publicationSections":[{"section":{"stations":[{"uicCode":"8400644","stationCode":"VL","name":"Venlo","coordinate":{"lat":51.3636093139648,"lng":6.17277765274048},"countryCode":"NL"},{"uicCode":"8015130","stationCode":"KN","name":"Kaldenkirchen","coordinate":{"lat":51.327184,"lng":6.203225},"countryCode":"D"},{"uicCode":"8015129","stationCode":"KBRY","name":"Breyell","coordinate":{"lat":51.294615,"lng":6.241174},"countryCode":"D"},{"uicCode":"8015128","stationCode":"KBOI","name":"Boisheim","coordinate":{"lat":51.274323,"lng":6.274591},"countryCode":"D"},{"uicCode":"8015125","stationCode":"KDUL","name":"Dülken","coordinate":{"lat":51.257149,"lng":6.33793},"countryCode":"D"},{"uicCode":"8015122","stationCode":"VIERS","name":"Viersen","coordinate":{"lat":51.25516,"lng":6.40388},"countryCode":"D"},{"uicCode":"8015165","stationCode":"MCGB","name":"Mönchengladbach Hbf","coordinate":{"lat":51.196583,"lng":6.446111},"countryCode":"D"},{"uicCode":"8015149","stationCode":"NEUSS","name":"Neuss Hbf","coordinate":{"lat":51.20444,"lng":6.68468},"countryCode":"D"},{"uicCode":"8008094","stationCode":"DUSSEL","name":"Düsseldorf Hbf","coordinate":{"lat":51.220146,"lng":6.793137},"countryCode":"D"}],"direction":"ONE_WAY"},"consequence":{"section":{"stations":[{"uicCode":"8400644","stationCode":"VL","name":"Venlo","coordinate":{"lat":51.3636093139648,"lng":6.17277765274048},"countryCode":"NL"},{"uicCode":"8015130","stationCode":"KN","name":"Kaldenkirchen","coordinate":{"lat":51.327184,"lng":6.203225},"countryCode":"D"},{"uicCode":"8015129","stationCode":"KBRY","name":"Breyell","coordinate":{"lat":51.294615,"lng":6.241174},"countryCode":"D"},{"uicCode":"8015128","stationCode":"KBOI","name":"Boisheim","coordinate":{"lat":51.274323,"lng":6.274591},"countryCode":"D"},{"uicCode":"8015125","stationCode":"KDUL","name":"Dülken","coordinate":{"lat":51.257149,"lng":6.33793},"countryCode":"D"},{"uicCode":"8015122","stationCode":"VIERS","name":"Viersen","coordinate":{"lat":51.25516,"lng":6.40388},"countryCode":"D"}],"direction":"ONE_WAY"},"description":"rijden bussen","level":"NO_OR_MUCH_LESS_TRAINS"},"sectionType":"NEIGHBORING_COUNTRY"}],"timespans":[{"start":"2022-11-23T22:30:00+0100","end":"2022-11-24T00:00:00+0100","period":"Woensdag 23-11-2022 22:30 uur t/m donderdag 24-11-2022 00:00 uur.","situation":{"label":"Door werkzaamheden: van Viersen naar Venlo rijden er bussen."},"cause":{"label":"Werkzaamheden"},"additionalTravelTime":{"label":"De extra reistijd kan oplopen tot 30 minuten.","shortLabel":"Extra reistijd tot 30 min.","maximumDurationInMinutes":30},"alternativeTransport":{"label":"Er rijden stopbussen.","shortLabel":"er rijden stopbussen"},"advices":[]},{"start":"2022-11-24T05:00:00+0100","end":"2022-11-24T06:00:00+0100","period":"Donderdag 24-11-2022 05:00 uur t/m donderdag 24-11-2022 06:00 uur.","situation":{"label":"Door werkzaamheden: van Venlo naar Viersen rijden er bussen."},"cause":{"label":"Werkzaamheden"},"additionalTravelTime":{"label":"De extra reistijd kan oplopen tot 30 minuten.","shortLabel":"Extra reistijd tot 30 min.","maximumDurationInMinutes":30},"alternativeTransport":{"label":"Er rijden stopbussen.","shortLabel":"er rijden stopbussen"},"advices":[]},{"start":"2022-11-24T22:30:00+0100","end":"2022-11-25T00:00:00+0100","period":"Donderdag 24-11-2022 22:30 uur t/m vrijdag 25-11-2022 00:00 uur.","situation":{"label":"Door werkzaamheden: van Viersen naar Venlo rijden er bussen."},"cause":{"label":"Werkzaamheden"},"additionalTravelTime":{"label":"De extra reistijd kan oplopen tot 30 minuten.","shortLabel":"Extra reistijd tot 30 min.","maximumDurationInMinutes":30},"alternativeTransport":{"label":"Er rijden stopbussen.","shortLabel":"er rijden stopbussen"},"advices":[]},{"start":"2022-11-25T05:00:00+0100","end":"2022-11-25T06:00:00+0100","period":"Vrijdag 25-11-2022 05:00 uur t/m vrijdag 25-11-2022 06:00 uur.","situation":{"label":"Door werkzaamheden: van Venlo naar Viersen rijden er bussen."},"cause":{"label":"Werkzaamheden"},"additionalTravelTime":{"label":"De extra reistijd kan oplopen tot 30 minuten.","shortLabel":"Extra reistijd tot 30 min.","maximumDurationInMinutes":30},"alternativeTransport":{"label":"Er rijden stopbussen.","shortLabel":"er rijden stopbussen"},"advices":[]},{"start":"2022-11-25T22:30:00+0100","end":"2022-11-26T00:00:00+0100","period":"Vrijdag 25-11-2022 22:30 uur t/m zaterdag 26-11-2022 00:00 uur.","situation":{"label":"Door werkzaamheden: van Viersen naar Venlo rijden er bussen."},"cause":{"label":"Werkzaamheden"},"additionalTravelTime":{"label":"De extra reistijd kan oplopen tot 30 minuten.","shortLabel":"Extra reistijd tot 30 min.","maximumDurationInMinutes":30},"alternativeTransport":{"label":"Er rijden stopbussen.","shortLabel":"er rijden stopbussen"},"advices":[]},{"start":"2022-11-26T04:00:00+0100","end":"2022-11-26T05:00:00+0100","period":"Zaterdag 26-11-2022 04:00 uur t/m zaterdag 26-11-2022 05:00 uur.","situation":{"label":"Door werkzaamheden: van Venlo naar Viersen rijden er bussen."},"cause":{"label":"Werkzaamheden"},"additionalTravelTime":{"label":"De extra reistijd kan oplopen tot 30 minuten.","shortLabel":"Extra reistijd tot 30 min.","maximumDurationInMinutes":30},"alternativeTransport":{"label":"Er rijden stopbussen.","shortLabel":"er rijden stopbussen"},"advices":[]},{"start":"2022-11-26T22:30:00+0100","end":"2022-11-27T00:00:00+0100","period":"Zaterdag 26-11-2022 22:30 uur t/m zondag 27-11-2022 00:00 uur.","situation":{"label":"Door werkzaamheden: van Viersen naar Venlo rijden er bussen."},"cause":{"label":"Werkzaamheden"},"additionalTravelTime":{"label":"De extra reistijd kan oplopen tot 30 minuten.","shortLabel":"Extra reistijd tot 30 min.","maximumDurationInMinutes":30},"alternativeTransport":{"label":"Er rijden stopbussen.","shortLabel":"er rijden stopbussen"},"advices":[]}],"alternativeTransportTimespans":[{"start":"2022-11-23T22:30:00+0100","end":"2022-11-24T00:00:00+0100","alternativeTransport":{"location":[{"station":{"uicCode":"8400644","stationCode":"VL","name":"Venlo","coordinate":{"lat":51.3636093139648,"lng":6.17277765274048},"countryCode":"NL"},"description":"vanaf het busstation"}],"label":"Er rijden stopbussen van Viersen, Dülken, Boisheim, Breyell, Kaldenkirchen naar Venlo.","shortLabel":"Er rijden stopbussen Viersen -> Dülken -> Boisheim -> Breyell -> Kaldenkirchen -> Venlo"}},{"start":"2022-11-24T05:00:00+0100","end":"2022-11-24T06:00:00+0100","alternativeTransport":{"location":[{"station":{"uicCode":"8400644","stationCode":"VL","name":"Venlo","coordinate":{"lat":51.3636093139648,"lng":6.17277765274048},"countryCode":"NL"},"description":"vanaf het busstation"}],"label":"Er rijden stopbussen van Venlo, Kaldenkirchen, Breyell, Boisheim, Dülken naar Viersen.","shortLabel":"Er rijden stopbussen Venlo -> Kaldenkirchen -> Breyell -> Boisheim -> Dülken -> Viersen"}},{"start":"2022-11-24T22:30:00+0100","end":"2022-11-25T00:00:00+0100","alternativeTransport":{"location":[{"station":{"uicCode":"8400644","stationCode":"VL","name":"Venlo","coordinate":{"lat":51.3636093139648,"lng":6.17277765274048},"countryCode":"NL"},"description":"vanaf het busstation"}],"label":"Er rijden stopbussen van Viersen, Dülken, Boisheim, Breyell, Kaldenkirchen naar Venlo.","shortLabel":"Er rijden stopbussen Viersen -> Dülken -> Boisheim -> Breyell -> Kaldenkirchen -> Venlo"}},{"start":"2022-11-25T05:00:00+0100","end":"2022-11-25T06:00:00+0100","alternativeTransport":{"location":[{"station":{"uicCode":"8400644","stationCode":"VL","name":"Venlo","coordinate":{"lat":51.3636093139648,"lng":6.17277765274048},"countryCode":"NL"},"description":"vanaf het busstation"}],"label":"Er rijden stopbussen van Venlo, Kaldenkirchen, Breyell, Boisheim, Dülken naar Viersen.","shortLabel":"Er rijden stopbussen Venlo -> Kaldenkirchen -> Breyell -> Boisheim -> Dülken -> Viersen"}},{"start":"2022-11-25T22:30:00+0100","end":"2022-11-26T00:00:00+0100","alternativeTransport":{"location":[{"station":{"uicCode":"8400644","stationCode":"VL","name":"Venlo","coordinate":{"lat":51.3636093139648,"lng":6.17277765274048},"countryCode":"NL"},"description":"vanaf het busstation"}],"label":"Er rijden stopbussen van Viersen, Dülken, Boisheim, Breyell, Kaldenkirchen naar Venlo.","shortLabel":"Er rijden stopbussen Viersen -> Dülken -> Boisheim -> Breyell -> Kaldenkirchen -> Venlo"}},{"start":"2022-11-26T04:00:00+0100","end":"2022-11-26T05:00:00+0100","alternativeTransport":{"location":[{"station":{"uicCode":"8400644","stationCode":"VL","name":"Venlo","coordinate":{"lat":51.3636093139648,"lng":6.17277765274048},"countryCode":"NL"},"description":"vanaf het busstation"}],"label":"Er rijden stopbussen van Venlo, Kaldenkirchen, Breyell, Boisheim, Dülken naar Viersen.","shortLabel":"Er rijden stopbussen Venlo -> Kaldenkirchen -> Breyell -> Boisheim -> Dülken -> Viersen"}},{"start":"2022-11-26T22:30:00+0100","end":"2022-11-27T00:00:00+0100","alternativeTransport":{"location":[{"station":{"uicCode":"8400644","stationCode":"VL","name":"Venlo","coordinate":{"lat":51.3636093139648,"lng":6.17277765274048},"countryCode":"NL"},"description":"vanaf het busstation"}],"label":"Er rijden stopbussen van Viersen, Dülken, Boisheim, Breyell, Kaldenkirchen naar Venlo.","shortLabel":"Er rijden stopbussen Viersen -> Dülken -> Boisheim -> Breyell -> Kaldenkirchen -> Venlo"}}]},