[{"type":"DISRUPTION","id":"6030238","title":"Schiphol-Amersfoort; Leiden-Duivendrecht-Lelystad","isActive":true,"topic":"disruption_6030238_nl","local":false,"titleSections":[[{"type":"STATION","value":"Schiphol Airport"},{"type":"ICON","value":"DISRUPTION"},{"type":"STATION","value":"Diemen Zuid"},{"type":"STATION","value":"Amersfoort C."}],[{"type":"STATION","value":"Leiden C."},{"type":"STATION","value":"Schiphol Airport"},{"type":"ICON","value":"DISRUPTION"},{"type":"STATION","value":"Diemen Zuid"},{"type":"STATION","value":"Lelystad C."}]],"registrationTime":"2024-04-15T15:53:51+0200","releaseTime":"2024-04-15T15:53:51+0200","start":"2024-04-14T23:02:00+0200","end":"2024-04-15T22:00:00+0200","phase":{"id":"3","label":"Vervangend vervoer"},"impact":{"value":3},"expectedDuration":{"description":"De treinen rijden weer normaal rond 22:00 uur.","endTime":"2024-04-15T22:00:00+0200"},"publicationSections":[{"section":{"stations":[{"coordinate":{"lat":52.3094444274902,"lng":4.76194429397583},"countryCode":"NL","name":"Schiphol Airport","stationCode":"SHL","uicCode":"8400561"},{"coordinate":{"lat":52.338889,"lng":4.872356},"countryCode":"NL","name":"Amsterdam Zuid","stationCode":"ASDZ","uicCode":"8400061"},{"coordinate":{"lat":52.3372230529785,"lng":4.89027786254883},"countryCode":"NL","name":"Amsterdam RAI","stationCode":"RAI","uicCode":"8400056"},{"coordinate":{"lat":52.3233337402344,"lng":4.93638896942139},"countryCode":"NL","name":"Duivendrecht","stationCode":"DVD","uicCode":"8400194"},{"coordinate":{"lat":52.3302764892578,"lng":4.95583343505859},"countryCode":"NL","name":"Diemen Zuid","stationCode":"DMNZ","uicCode":"8400163"},{"coordinate":{"lat":52.3127784729004,"lng":5.04305553436279},"countryCode":"NL","name":"Weesp","stationCode":"WP","uicCode":"8400685"},{"coordinate":{"lat":52.2802772521973,"lng":5.15694427490234},"countryCode":"NL","name":"Naarden-Bussum","stationCode":"NDB","uicCode":"8400452"},{"coordinate":{"lat":52.2658348083496,"lng":5.16305541992188},"countryCode":"NL","name":"Bussum Zuid","stationCode":"BSMZ","uicCode":"8400145"},{"coordinate":{"lat":52.2380561828613,"lng":5.17388868331909},"countryCode":"NL","name":"Hilversum Media Park","stationCode":"HVSM","uicCode":"8400324"},{"coordinate":{"lat":52.2258338928223,"lng":5.18194437026978},"countryCode":"NL","name":"Hilversum","stationCode":"HVS","uicCode":"8400322"},{"coordinate":{"lat":52.2083320617676,"lng":5.28083324432373},"countryCode":"NL","name":"Baarn","stationCode":"BRN","uicCode":"8400086"},{"coordinate":{"lat":52.1538887023926,"lng":5.37055540084839},"countryCode":"NL","name":"Amersfoort Centraal","stationCode":"AMF","uicCode":"8400055"}],"direction":"BOTH"},"consequence":{"section":{"stations":[{"coordinate":{"lat":52.3094444274902,"lng":4.76194429397583},"countryCode":"NL","name":"Schiphol Airport","stationCode":"SHL","uicCode":"8400561"},{"coordinate":{"lat":52.338889,"lng":4.872356},"countryCode":"NL","name":"Amsterdam Zuid","stationCode":"ASDZ","uicCode":"8400061"},{"coordinate":{"lat":52.3372230529785,"lng":4.89027786254883},"countryCode":"NL","name":"Amsterdam RAI","stationCode":"RAI","uicCode":"8400056"},{"coordinate":{"lat":52.3233337402344,"lng":4.93638896942139},"countryCode":"NL","name":"Duivendrecht","stationCode":"DVD","uicCode":"8400194"},{"coordinate":{"lat":52.3302764892578,"lng":4.95583343505859},"countryCode":"NL","name":"Diemen Zuid","stationCode":"DMNZ","uicCode":"8400163"}],"direction":"ONE_WAY"},"description":"veel minder treinen","level":"LESS_TRAINS"},"sectionType":"NL"},{"section":{"stations":[{"coordinate":{"lat":52.1661109924316,"lng":4.48166656494141},"countryCode":"NL","name":"Leiden Centraal","stationCode":"LEDN","uicCode":"8400390"},{"coordinate":{"lat":52.215278,"lng":4.517222},"countryCode":"NL","name":"Sassenheim","stationCode":"SSH","uicCode":"8400603"},{"coordinate":{"lat":52.2588882446289,"lng":4.64555549621582},"countryCode":"NL","name":"Nieuw Vennep","stationCode":"NVP","uicCode":"8400460"},{"coordinate":{"lat":52.2933349609375,"lng":4.70055532455444},"countryCode":"NL","name":"Hoofddorp","stationCode":"HFD","uicCode":"8400332"},{"coordinate":{"lat":52.3094444274902,"lng":4.76194429397583},"countryCode":"NL","name":"Schiphol Airport","stationCode":"SHL","uicCode":"8400561"},{"coordinate":{"lat":52.338889,"lng":4.872356},"countryCode":"NL","name":"Amsterdam Zuid","stationCode":"ASDZ","uicCode":"8400061"},{"coordinate":{"lat":52.3372230529785,"lng":4.89027786254883},"countryCode":"NL","name":"Amsterdam RAI","stationCode":"RAI","uicCode":"8400056"},{"coordinate":{"lat":52.3233337402344,"lng":4.93638896942139},"countryCode":"NL","name":"Duivendrecht","stationCode":"DVD","uicCode":"8400194"},{"coordinate":{"lat":52.3302764892578,"lng":4.95583343505859},"countryCode":"NL","name":"Diemen Zuid","stationCode":"DMNZ","uicCode":"8400163"},{"coordinate":{"lat":52.3127784729004,"lng":5.04305553436279},"countryCode":"NL","name":"Weesp","stationCode":"WP","uicCode":"8400685"},{"coordinate":{"lat":52.342778,"lng":5.151944},"countryCode":"NL","name":"Almere Poort","stationCode":"AMPO","uicCode":"8400450"},{"coordinate":{"lat":52.3675003051758,"lng":5.19027757644653},"countryCode":"NL","name":"Almere Muziekwijk","stationCode":"ALMM","uicCode":"8400082"},{"coordinate":{"lat":52.37503,"lng":5.21764},"countryCode":"NL","name":"Almere Centrum","stationCode":"ALM","uicCode":"8400080"},{"coordinate":{"lat":52.3766670227051,"lng":5.24472236633301},"countryCode":"NL","name":"Almere Parkwijk","stationCode":"ALMP","uicCode":"8400104"},{"coordinate":{"lat":52.3941650390625,"lng":5.2780556678772},"countryCode":"NL","name":"Almere Buiten","stationCode":"ALMB","uicCode":"8400081"},{"coordinate":{"lat":52.4033317565918,"lng":5.30055570602417},"countryCode":"NL","name":"Almere Oostvaarders","stationCode":"ALMO","uicCode":"8400226"},{"coordinate":{"lat":52.5077781677246,"lng":5.47277784347534},"countryCode":"NL","name":"Lelystad Centrum","stationCode":"LLS","uicCode":"8400394"}],"direction":"BOTH"},"consequence":{"section":{"stations":[{"coordinate":{"lat":52.3094444274902,"lng":4.76194429397583},"countryCode":"NL","name":"Schiphol Airport","stationCode":"SHL","uicCode":"8400561"},{"coordinate":{"lat":52.338889,"lng":4.872356},"countryCode":"NL","name":"Amsterdam Zuid","stationCode":"ASDZ","uicCode":"8400061"},{"coordinate":{"lat":52.3372230529785,"lng":4.89027786254883},"countryCode":"NL","name":"Amsterdam RAI","stationCode":"RAI","uicCode":"8400056"},{"coordinate":{"lat":52.3233337402344,"lng":4.93638896942139},"countryCode":"NL","name":"Duivendrecht","stationCode":"DVD","uicCode":"8400194"},{"coordinate":{"lat":52.3302764892578,"lng":4.95583343505859},"countryCode":"NL","name":"Diemen Zuid","stationCode":"DMNZ","uicCode":"8400163"}],"direction":"ONE_WAY"},"description":"veel minder treinen","level":"LESS_TRAINS"},"sectionType":"NL"}],"timespans":[{"start":"2024-04-14T23:02:00+0200","end":"2024-04-15T22:00:00+0200","situation":{"label":"Tussen Schiphol Airport en Diemen Zuid rijden er veel minder treinen door herstelwerkzaamheden."},"cause":{"label":"Herstelwerkzaamheden"},"alternativeTransport":{"label":"Maak gebruik van de Amsterdamse metro.","shortLabel":"Gebruik de Amsterdamse metro"},"advices":[]}],"alternativeTransportTimespans":[{"start":"2024-04-14T23:02:00+0200","end":"2024-04-15T22:00:00+0200","alternativeTransport":{"location":[{"station":{"coordinate":{"lat":52.338889,"lng":4.872356},"countryCode":"NL","name":"Amsterdam Zuid","stationCode":"ASDZ","uicCode":"8400061"},"description":"volg de aanwijzingen op het station"},{"station":{"coordinate":{"lat":52.3372230529785,"lng":4.89027786254883},"countryCode":"NL","name":"Amsterdam RAI","stationCode":"RAI","uicCode":"8400056"},"description":"volg de aanwijzingen op het station"},{"station":{"coordinate":{"lat":52.3233337402344,"lng":4.93638896942139},"countryCode":"NL","name":"Duivendrecht","stationCode":"DVD","uicCode":"8400194"},"description":"volg de aanwijzingen op het station"},{"station":{"coordinate":{"lat":52.3302764892578,"lng":4.95583343505859},"countryCode":"NL","name":"Diemen Zuid","stationCode":"DMNZ","uicCode":"8400163"},"description":"volg de aanwijzingen op het station"}],"label":"Maak gebruik van de Amsterdamse metro tussen Amsterdam Zuid, Amsterdam RAI, Duivendrecht, Amsterdam Van der Madeweg en Diemen Zuid.","shortLabel":"Gebruik de Amsterdamse metro: Amsterdam Zuid, RAI, Duivendrecht, Van der Madeweg, Diemen Zuid"}}]},{"type":"DISRUPTION","id":"6030240","title":"Schiphol-Utrecht","isActive":true,"topic":"disruption_6030240_nl","local":false,"titleSections":[[{"type":"STATION","value":"Schiphol Airport"},{"type":"ICON","value":"DISRUPTION"},{"type":"STATION","value":"Utrecht C."}]],"registrationTime":"2024-04-15T15:53:59+0200","releaseTime":"2024-04-15T15:53:59+0200","start":"2024-04-15T06:24:04+0200","end":"2024-04-15T22:00:00+0200","phase":{"id":"2","label":"Impact bekend"},"impact":{"value":2},"expectedDuration":{"description":"De treinen rijden weer normaal rond 22:00 uur.","endTime":"2024-04-15T22:00:00+0200"},"publicationSections":[{"section":{"stations":[{"coordinate":{"lat":52.3094444274902,"lng":4.76194429397583},"countryCode":"NL","name":"Schiphol Airport","stationCode":"SHL","uicCode":"8400561"},{"coordinate":{"lat":52.338889,"lng":4.872356},"countryCode":"NL","name":"Amsterdam Zuid","stationCode":"ASDZ","uicCode":"8400061"},{"coordinate":{"lat":52.3372230529785,"lng":4.89027786254883},"countryCode":"NL","name":"Amsterdam RAI","stationCode":"RAI","uicCode":"8400056"},{"coordinate":{"lat":52.3122215270996,"lng":4.94694423675537},"countryCode":"NL","name":"Amsterdam Bijlmer ArenA","stationCode":"ASB","uicCode":"8400074"},{"coordinate":{"lat":52.29844,"lng":4.95972},"countryCode":"NL","name":"Amsterdam Holendrecht","stationCode":"ASHD","uicCode":"8400231"},{"coordinate":{"lat":52.2785,"lng":4.977},"countryCode":"NL","name":"Abcoude","stationCode":"AC","uicCode":"8400047"},{"coordinate":{"lat":52.17149,"lng":4.9906},"countryCode":"NL","name":"Breukelen","stationCode":"BKL","uicCode":"8400133"},{"coordinate":{"lat":52.1352767944336,"lng":5.03361129760742},"countryCode":"NL","name":"Maarssen","stationCode":"MAS","uicCode":"8400419"},{"coordinate":{"lat":52.103055,"lng":5.09},"countryCode":"NL","name":"Utrecht Zuilen","stationCode":"UTZL","uicCode":"8400613"},{"coordinate":{"lat":52.0888900756836,"lng":5.11027765274048},"countryCode":"NL","name":"Utrecht Centraal","stationCode":"UT","uicCode":"8400621"}],"direction":"BOTH"},"consequence":{"section":{"stations":[{"coordinate":{"lat":52.3094444274902,"lng":4.76194429397583},"countryCode":"NL","name":"Schiphol Airport","stationCode":"SHL","uicCode":"8400561"},{"coordinate":{"lat":52.338889,"lng":4.872356},"countryCode":"NL","name":"Amsterdam Zuid","stationCode":"ASDZ","uicCode":"8400061"},{"coordinate":{"lat":52.3372230529785,"lng":4.89027786254883},"countryCode":"NL","name":"Amsterdam RAI","stationCode":"RAI","uicCode":"8400056"},{"coordinate":{"lat":52.3122215270996,"lng":4.94694423675537},"countryCode":"NL","name":"Amsterdam Bijlmer ArenA","stationCode":"ASB","uicCode":"8400074"},{"coordinate":{"lat":52.29844,"lng":4.95972},"countryCode":"NL","name":"Amsterdam Holendrecht","stationCode":"ASHD","uicCode":"8400231"},{"coordinate":{"lat":52.2785,"lng":4.977},"countryCode":"NL","name":"Abcoude","stationCode":"AC","uicCode":"8400047"},{"coordinate":{"lat":52.17149,"lng":4.9906},"countryCode":"NL","name":"Breukelen","stationCode":"BKL","uicCode":"8400133"},{"coordinate":{"lat":52.1352767944336,"lng":5.03361129760742},"countryCode":"NL","name":"Maarssen","stationCode":"MAS","uicCode":"8400419"},{"coordinate":{"lat":52.103055,"lng":5.09},"countryCode":"NL","name":"Utrecht Zuilen","stationCode":"UTZL","uicCode":"8400613"},{"coordinate":{"lat":52.0888900756836,"lng":5.11027765274048},"countryCode":"NL","name":"Utrecht Centraal","stationCode":"UT","uicCode":"8400621"}],"direction":"ONE_WAY"},"description":"minder Intercity's","level":"LESS_TRAINS"},"sectionType":"NL"}],"summaryAdditionalTravelTime":{"label":"De extra reistijd kan oplopen tot 15 minuten.","shortLabel":"Extra reistijd tot 15 min.","maximumDurationInMinutes":15},"timespans":[{"start":"2024-04-15T06:24:04+0200","end":"2024-04-15T22:00:00+0200","situation":{"label":"Tussen Schiphol Airport en Utrecht Centraal rijden er minder Intercity's door herstelwerkzaamheden."},"cause":{"label":"Herstelwerkzaamheden"},"additionalTravelTime":{"label":"De extra reistijd kan oplopen tot 15 minuten.","shortLabel":"Extra reistijd tot 15 min.","maximumDurationInMinutes":15},"advices":[]}],"alternativeTransportTimespans":[]},{"type":"DISRUPTION","id":"6030248","title":"Rotterdam-Breda (HSL)","isActive":true,"topic":"disruption_6030248_nl","local":false,"titleSections":[[{"type":"STATION","value":"Rotterdam C."},{"type":"ICON","value":"DISRUPTION"},{"type":"STATION","value":"Breda"}]],"registrationTime":"2024-04-15T13:53:03+0200","releaseTime":"2024-04-15T13:53:03+0200","start":"2024-04-15T13:51:41+0200","end":"2024-04-15T20:00:00+0200","phase":{"id":"2","label":"Impact bekend"},"impact":{"value":2},"expectedDuration":{"description":"Dit duurt tot ongeveer 20:00 uur.","endTime":"2024-04-15T20:00:00+0200"},"publicationSections":[{"section":{"stations":[{"coordinate":{"lat":51.9249992370605,"lng":4.46888875961304},"countryCode":"NL","name":"Rotterdam Centraal","stationCode":"RTD","uicCode":"8400530"},{"coordinate":{"lat":51.9202766418457,"lng":4.48888874053955},"countryCode":"NL","name":"Rotterdam Blaak","stationCode":"RTB","uicCode":"8400529"},{"coordinate":{"lat":51.9044456481934,"lng":4.51027774810791},"countryCode":"NL","name":"Rotterdam Zuid","stationCode":"RTZ","uicCode":"8400533"},{"coordinate":{"lat":51.8800010681152,"lng":4.53138875961304},"countryCode":"NL","name":"Rotterdam Lombardijen","stationCode":"RLB","uicCode":"8400542"},{"coordinate":{"lat":51.606388092041,"lng":4.72083330154419},"countryCode":"NL","name":"Breda-Prinsenbeek","stationCode":"BDPB","uicCode":"8400132"},{"coordinate":{"lat":51.5955543518066,"lng":4.78000020980835},"countryCode":"NL","name":"Breda","stationCode":"BD","uicCode":"8400131"}],"direction":"BOTH"},"consequence":{"section":{"stations":[{"coordinate":{"lat":51.9249992370605,"lng":4.46888875961304},"countryCode":"NL","name":"Rotterdam Centraal","stationCode":"RTD","uicCode":"8400530"},{"coordinate":{"lat":51.9202766418457,"lng":4.48888874053955},"countryCode":"NL","name":"Rotterdam Blaak","stationCode":"RTB","uicCode":"8400529"},{"coordinate":{"lat":51.9044456481934,"lng":4.51027774810791},"countryCode":"NL","name":"Rotterdam Zuid","stationCode":"RTZ","uicCode":"8400533"},{"coordinate":{"lat":51.8800010681152,"lng":4.53138875961304},"countryCode":"NL","name":"Rotterdam Lombardijen","stationCode":"RLB","uicCode":"8400542"},{"coordinate":{"lat":51.606388092041,"lng":4.72083330154419},"countryCode":"NL","name":"Breda-Prinsenbeek","stationCode":"BDPB","uicCode":"8400132"},{"coordinate":{"lat":51.5955543518066,"lng":4.78000020980835},"countryCode":"NL","name":"Breda","stationCode":"BD","uicCode":"8400131"}],"direction":"ONE_WAY"},"description":"minder treinen op de HSL","level":"LESS_TRAINS"},"sectionType":"HSL"}],"timespans":[{"start":"2024-04-15T13:51:41+0200","end":"2024-04-15T20:00:00+0200","situation":{"label":"Tussen Rotterdam Centraal en Breda rijden er op de hogesnelheidslijn minder treinen door harde wind op de Hogesnelheidslijn."},"cause":{"label":"Harde wind HSL"},"advices":[]}],"alternativeTransportTimespans":[]},{"type":"DISRUPTION","id":"6030250","title":"Hengelo-Bielefeld","isActive":true,"topic":"disruption_6030250_nl","local":false,"titleSections":[[{"type":"STATION","value":"Hengelo"},{"type":"ICON","value":"DISRUPTION"},{"type":"STATION","value":"Oldenzaal"},{"type":"STATION","value":"Bielefeld Hbf"}]],"registrationTime":"2024-04-15T15:50:03+0200","releaseTime":"2024-04-15T15:50:03+0200","start":"2024-04-15T14:33:37+0200","end":"2024-04-15T16:30:00+0200","phase":{"id":"2","label":"Impact bekend"},"impact":{"value":3},"expectedDuration":{"description":"Dit duurt tot ongeveer 16:30 uur.","endTime":"2024-04-15T16:30:00+0200"},"publicationSections":[{"section":{"stations":[{"coordinate":{"lat":52.2616653442383,"lng":6.79388904571533},"countryCode":"NL","name":"Hengelo","stationCode":"HGL","uicCode":"8400316"},{"coordinate":{"lat":52.2688903808594,"lng":6.81944465637207},"countryCode":"NL","name":"Hengelo Oost","stationCode":"HGLO","uicCode":"8400312"},{"coordinate":{"lat":52.3063888549805,"lng":6.93472242355347},"countryCode":"NL","name":"Oldenzaal","stationCode":"ODZ","uicCode":"8400483"},{"coordinate":{"lat":52.309685595156,"lng":7.15853691101074},"countryCode":"D","name":"Bad Bentheim","stationCode":"BH","uicCode":"8021156"},{"coordinate":{"lat":52.276299,"lng":7.434255},"countryCode":"D","name":"Rheine","stationCode":"RHEINE","uicCode":"8021067"},{"coordinate":{"lat":52.272851,"lng":8.061781},"countryCode":"D","name":"Osnabrück Hbf","stationCode":"OSNH","uicCode":"8021025"},{"coordinate":{"lat":52.202075,"lng":8.573876},"countryCode":"D","name":"Bünde (Westf)","stationCode":"BUENDE","uicCode":"8021173"},{"coordinate":{"lat":52.029261,"lng":8.532722},"countryCode":"D","name":"Bielefeld Hbf","stationCode":"BIELEF","uicCode":"8013597"}],"direction":"BOTH"},"consequence":{"section":{"stations":[{"coordinate":{"lat":52.2616653442383,"lng":6.79388904571533},"countryCode":"NL","name":"Hengelo","stationCode":"HGL","uicCode":"8400316"},{"coordinate":{"lat":52.2688903808594,"lng":6.81944465637207},"countryCode":"NL","name":"Hengelo Oost","stationCode":"HGLO","uicCode":"8400312"},{"coordinate":{"lat":52.3063888549805,"lng":6.93472242355347},"countryCode":"NL","name":"Oldenzaal","stationCode":"ODZ","uicCode":"8400483"}],"direction":"ONE_WAY"},"description":"geen treinen","level":"LESS_TRAINS"},"sectionType":"NEIGHBORING_COUNTRY"}],"summaryAdditionalTravelTime":{"label":"De extra reistijd is meer dan 60 minuten.","shortLabel":"Extra reistijd meer dan 60 min.","minimumDurationInMinutes":60},"timespans":[{"start":"2024-04-15T14:33:37+0200","end":"2024-04-15T16:30:00+0200","situation":{"label":"Tussen Hengelo en Oldenzaal rijden er geen treinen door een beschadigd spoorviaduct."},"cause":{"label":"Beschadigd spoorviaduct"},"additionalTravelTime":{"label":"De extra reistijd is meer dan 60 minuten.","shortLabel":"Extra reistijd meer dan 60 min.","minimumDurationInMinutes":60},"advices":[]}],"alternativeTransportTimespans":[]},{"type":"CALAMITY","id":"31b242af-0b04-4fe0-a368-12a72740a513","title":"Komende periode minder treinen op de HSL","isActive":true,"topic":"disruption_31b242af-0b04-4fe0-a368-12a72740a513_nl","description":"Door beperkingen in de materieelinzet rijdt er de komende periode 1 trein per uur minder op de hogesnelheidslijn (HSL) tussen Amsterdam en Breda. Deze aanpassing is nodig omdat er minder nieuwe treinen (ICNG) geleverd worden dan verwacht. Daardoor blijven op dit traject oudere treinen rijden die veel onderhoud nodig hebben. Daarnaast zijn er veel snelheidsbeperkingen op de hogesnelheidslijn waardoor treinen elkaar soms in de weg zitten. Om ongeplande uitval te voorkomen is de dienstregeling aangepast. De reisplanner is bijgewerkt.","url":"https://www.ns.nl/reisinformatie/calamiteiten/afschaling-hsl-900.html","priority":"PRIO_3","lastUpdated":"2024-04-12T14:01:00+0200","bodyItems":[],"buttons":{"position":["BOTTOM"],"items":[{"label":"Plan je reis","accessibilityLabel":"Plan je reis","url":"https://www.ns.nl/reisplanner","type":"PLANNER"}]}},{"type":"MAINTENANCE","id":"7004492","title":"Groningen - Leer.","isActive":true,"local":false,"titleSections":[[{"type":"STATION","value":"Groningen"},{"type":"STATION","value":"Bad Nieuweschans"},{"type":"ICON","value":"MAINTENANCE"},{"type":"STATION","value":"Weener"},{"type":"STATION","value":"Leer (Ostfr.)"}]],"registrationTime":"2024-04-09T09:47:33+0200","start":"2024-02-01T04:00:00+0100","releaseTime":"2024-04-09T09:47:33+0200","end":"2024-12-14T23:59:00+0100","period":"Donderdag 1 februari 4:00 uur t/m zaterdag 14 december 23:59 uur.","impact":{"value":3},"publicationSections":[{"section":{"stations":[{"coordinate":{"lat":53.2105560302734,"lng":6.56472206115723},"countryCode":"NL","name":"Groningen","stationCode":"GN","uicCode":"8400263"},{"coordinate":{"lat":53.20480027,"lng":6.5854178},"countryCode":"NL","name":"Groningen Europapark","stationCode":"GERP","uicCode":"8400238"},{"coordinate":{"lat":53.1617362,"lng":6.7220882},"countryCode":"NL","name":"Kropswolde","stationCode":"KW","uicCode":"8400369"},{"coordinate":{"lat":53.1607232,"lng":6.7402989},"countryCode":"NL","name":"Martenshoek","stationCode":"MTH","uicCode":"8400430"},{"coordinate":{"lat":53.1598181316756,"lng":6.77075386047363},"countryCode":"NL","name":"Hoogezand-Sappemeer","stationCode":"HGZ","uicCode":"8400331"},{"coordinate":{"lat":53.1596122800056,"lng":6.8679141998291},"countryCode":"NL","name":"Zuidbroek","stationCode":"ZB","uicCode":"8400742"},{"coordinate":{"lat":53.1655362,"lng":6.9777775},"countryCode":"NL","name":"Scheemda","stationCode":"SDA","uicCode":"8400551"},{"coordinate":{"lat":53.1392377,"lng":7.035101},"countryCode":"NL","name":"Winschoten","stationCode":"WS","uicCode":"8400696"},{"coordinate":{"lat":53.1844,"lng":7.19937},"countryCode":"NL","name":"Bad Nieuweschans","stationCode":"NSCH","uicCode":"8400457"},{"coordinate":{"lat":53.16311,"lng":7.3442},"countryCode":"D","name":"Weener","stationCode":"WR","uicCode":"8021239"},{"coordinate":{"lat":53.23165,"lng":7.465283},"countryCode":"D","name":"Leer (Ostfriesl)","stationCode":"LEER","uicCode":"8021091"}],"direction":"BOTH"},"consequence":{"section":{"stations":[{"coordinate":{"lat":53.1844,"lng":7.19937},"countryCode":"NL","name":"Bad Nieuweschans","stationCode":"NSCH","uicCode":"8400457"},{"coordinate":{"lat":53.16311,"lng":7.3442},"countryCode":"D","name":"Weener","stationCode":"WR","uicCode":"8021239"}],"direction":"ONE_WAY"},"description":"rijden bussen","level":"LESS_TRAINS"},"sectionType":"NEIGHBORING_COUNTRY"}],"summaryAdditionalTravelTime":{"label":"De extra reistijd kan oplopen tot 30 minuten.","shortLabel":"extra reistijd tot 30 min.","maximumDurationInMinutes":30},"timespans":[{"start":"2024-02-01T04:00:00+0100","end":"2024-12-14T23:59:00+0100","period":"Donderdag 1 februari 4:00 uur t/m zaterdag 14 december 23:59 uur.","situation":{"label":"Door werkzaamheden: tussen Bad Nieuweschans en Weener rijden er bussen."},"cause":{"label":"werkzaamheden"},"additionalTravelTime":{"label":"De extra reistijd kan oplopen tot 30 minuten.","shortLabel":"extra reistijd tot 30 min.","maximumDurationInMinutes":30},"alternativeTransport":{"label":"er rijden stopbussen","shortLabel":"er rijden stopbussen"},"advices":[]}],"alternativeTransportTimespans":[{"start":"2024-02-01T04:00:00+0100","end":"2024-12-14T23:59:00+0100","alternativeTransport":{"location":[{"station":{"coordinate":{"lat":53.1844,"lng":7.19937},"countryCode":"NL","name":"Bad Nieuweschans","stationCode":"NSCH","uicCode":"8400457"},"description":"vanaf de voorzijde van het station"},{"station":{"coordinate":{"lat":53.16311,"lng":7.3442},"countryCode":"D","name":"Weener","stationCode":"WR","uicCode":"8021239"},"description":"vanaf de voorzijde van het station"},{"station":{"coordinate":{"lat":53.23165,"lng":7.465283},"countryCode":"D","name":"Leer (Ostfriesl)","stationCode":"LEER","uicCode":"8021091"},"description":"vanaf het busstation"}],"label":"Er rijden stopbussen tussen Bad Nieuweschans, Weener en Leer (Ostfriesl).","shortLabel":"er rijden stopbussen Bad Nieuweschans - Weener - Leer (Ostfr.)"}}]},{"type":"MAINTENANCE","id":"7004738","title":"Haarlem - Alkmaar.","isActive":true,"local":false,"titleSections":[[{"type":"STATION","value":"Haarlem"},{"type":"ICON","value":"MAINTENANCE"},{"type":"STATION","value":"Uitgeest"},{"type":"STATION","value":"Alkmaar"}],[{"type":"STATION","value":"Haarlem"},{"type":"ICON","value":"MAINTENANCE"},{"type":"STATION","value":"Beverwijk"},{"type":"STATION","value":"Alkmaar"}]],"registrationTime":"2024-04-03T14:50:01+0200","start":"2024-04-13T01:00:00+0200","releaseTime":"2024-04-03T14:50:01+0200","end":"2024-04-20T01:00:00+0200","period":"Zaterdag 13 april 1:00 uur t/m zaterdag 20 april 1:00 uur.","impact":{"value":4},"publicationSections":[{"section":{"stations":[{"coordinate":{"lat":52.3877792358398,"lng":4.63833332061768},"countryCode":"NL","name":"Haarlem","stationCode":"HLM","uicCode":"8400285"},{"coordinate":{"lat":52.404167175293,"lng":4.62750005722046},"countryCode":"NL","name":"Bloemendaal","stationCode":"BLL","uicCode":"8400118"},{"coordinate":{"lat":52.4197235107422,"lng":4.63138866424561},"countryCode":"NL","name":"Santpoort Zuid","stationCode":"SPTZ","uicCode":"8400544"},{"coordinate":{"lat":52.4338874816895,"lng":4.63250017166138},"countryCode":"NL","name":"Santpoort Noord","stationCode":"SPTN","uicCode":"8400543"},{"coordinate":{"lat":52.4425010681152,"lng":4.63805532455444},"countryCode":"NL","name":"Driehuis","stationCode":"DRH","uicCode":"8400183"},{"coordinate":{"lat":52.4783325195313,"lng":4.65666675567627},"countryCode":"NL","name":"Beverwijk","stationCode":"BV","uicCode":"8400113"},{"coordinate":{"lat":52.4952774047852,"lng":4.68694448471069},"countryCode":"NL","name":"Heemskerk","stationCode":"HK","uicCode":"8400317"},{"coordinate":{"lat":52.5216674804687,"lng":4.70166683197022},"countryCode":"NL","name":"Uitgeest","stationCode":"UTG","uicCode":"8400615"},{"coordinate":{"lat":52.5458335876465,"lng":4.65861129760742},"countryCode":"NL","name":"Castricum","stationCode":"CAS","uicCode":"8400151"},{"coordinate":{"lat":52.5994453430176,"lng":4.70055532455444},"countryCode":"NL","name":"Heiloo","stationCode":"HLO","uicCode":"8400309"},{"coordinate":{"lat":52.6377792358398,"lng":4.73972225189209},"countryCode":"NL","name":"Alkmaar","stationCode":"AMR","uicCode":"8400050"}],"direction":"BOTH"},"consequence":{"section":{"stations":[{"coordinate":{"lat":52.3877792358398,"lng":4.63833332061768},"countryCode":"NL","name":"Haarlem","stationCode":"HLM","uicCode":"8400285"},{"coordinate":{"lat":52.404167175293,"lng":4.62750005722046},"countryCode":"NL","name":"Bloemendaal","stationCode":"BLL","uicCode":"8400118"},{"coordinate":{"lat":52.4197235107422,"lng":4.63138866424561},"countryCode":"NL","name":"Santpoort Zuid","stationCode":"SPTZ","uicCode":"8400544"},{"coordinate":{"lat":52.4338874816895,"lng":4.63250017166138},"countryCode":"NL","name":"Santpoort Noord","stationCode":"SPTN","uicCode":"8400543"},{"coordinate":{"lat":52.4425010681152,"lng":4.63805532455444},"countryCode":"NL","name":"Driehuis","stationCode":"DRH","uicCode":"8400183"},{"coordinate":{"lat":52.4783325195313,"lng":4.65666675567627},"countryCode":"NL","name":"Beverwijk","stationCode":"BV","uicCode":"8400113"},{"coordinate":{"lat":52.4952774047852,"lng":4.68694448471069},"countryCode":"NL","name":"Heemskerk","stationCode":"HK","uicCode":"8400317"},{"coordinate":{"lat":52.5216674804687,"lng":4.70166683197022},"countryCode":"NL","name":"Uitgeest","stationCode":"UTG","uicCode":"8400615"}],"direction":"ONE_WAY"},"description":"rijden bussen","level":"LESS_TRAINS"},"sectionType":"NL"},{"section":{"stations":[{"coordinate":{"lat":52.3877792358398,"lng":4.63833332061768},"countryCode":"NL","name":"Haarlem","stationCode":"HLM","uicCode":"8400285"},{"coordinate":{"lat":52.404167175293,"lng":4.62750005722046},"countryCode":"NL","name":"Bloemendaal","stationCode":"BLL","uicCode":"8400118"},{"coordinate":{"lat":52.4197235107422,"lng":4.63138866424561},"countryCode":"NL","name":"Santpoort Zuid","stationCode":"SPTZ","uicCode":"8400544"},{"coordinate":{"lat":52.4338874816895,"lng":4.63250017166138},"countryCode":"NL","name":"Santpoort Noord","stationCode":"SPTN","uicCode":"8400543"},{"coordinate":{"lat":52.4425010681152,"lng":4.63805532455444},"countryCode":"NL","name":"Driehuis","stationCode":"DRH","uicCode":"8400183"},{"coordinate":{"lat":52.4783325195313,"lng":4.65666675567627},"countryCode":"NL","name":"Beverwijk","stationCode":"BV","uicCode":"8400113"},{"coordinate":{"lat":52.4952774047852,"lng":4.68694448471069},"countryCode":"NL","name":"Heemskerk","stationCode":"HK","uicCode":"8400317"},{"coordinate":{"lat":52.5216674804687,"lng":4.70166683197022},"countryCode":"NL","name":"Uitgeest","stationCode":"UTG","uicCode":"8400615"},{"coordinate":{"lat":52.5458335876465,"lng":4.65861129760742},"countryCode":"NL","name":"Castricum","stationCode":"CAS","uicCode":"8400151"},{"coordinate":{"lat":52.5994453430176,"lng":4.70055532455444},"countryCode":"NL","name":"Heiloo","stationCode":"HLO","uicCode":"8400309"},{"coordinate":{"lat":52.6377792358398,"lng":4.73972225189209},"countryCode":"NL","name":"Alkmaar","stationCode":"AMR","uicCode":"8400050"}],"direction":"BOTH"},"consequence":{"section":{"stations":[{"coordinate":{"lat":52.3877792358398,"lng":4.63833332061768},"countryCode":"NL","name":"Haarlem","stationCode":"HLM","uicCode":"8400285"},{"coordinate":{"lat":52.404167175293,"lng":4.62750005722046},"countryCode":"NL","name":"Bloemendaal","stationCode":"BLL","uicCode":"8400118"},{"coordinate":{"lat":52.4197235107422,"lng":4.63138866424561},"countryCode":"NL","name":"Santpoort Zuid","stationCode":"SPTZ","uicCode":"8400544"},{"coordinate":{"lat":52.4338874816895,"lng":4.63250017166138},"countryCode":"NL","name":"Santpoort Noord","stationCode":"SPTN","uicCode":"8400543"},{"coordinate":{"lat":52.4425010681152,"lng":4.63805532455444},"countryCode":"NL","name":"Driehuis","stationCode":"DRH","uicCode":"8400183"},{"coordinate":{"lat":52.4783325195313,"lng":4.65666675567627},"countryCode":"NL","name":"Beverwijk","stationCode":"BV","uicCode":"8400113"}],"direction":"ONE_WAY"},"description":"rijden bussen","level":"LESS_TRAINS"},"sectionType":"NL"}],"summaryAdditionalTravelTime":{"label":"De extra reistijd kan oplopen tot 30 minuten.","shortLabel":"Extra reistijd tot 30 min.","minimumDurationInMinutes":30,"maximumDurationInMinutes":30},"timespans":[{"start":"2024-04-15T01:00:00+0200","end":"2024-04-20T01:00:00+0200","period":"Maandag 15 april 1:00 uur t/m zaterdag 20 april 1:00 uur.","situation":{"label":"Door werkzaamheden: tussen Haarlem en Beverwijk rijden er bussen."},"cause":{"label":"werkzaamheden"},"additionalTravelTime":{"label":"De extra reistijd is ongeveer 30 minuten.","shortLabel":"extra reistijd 30 min.","minimumDurationInMinutes":30,"maximumDurationInMinutes":30},"alternativeTransport":{"label":"er rijden stop- en snelbussen","shortLabel":"er rijden stop- en snelbussen"},"advices":["tussen Haarlem en Uitgeest reis via Sloterdijk"]}],"alternativeTransportTimespans":[{"start":"2024-04-13T01:00:00+0200","end":"2024-04-15T01:00:00+0200","alternativeTransport":{"location":[{"station":{"coordinate":{"lat":52.3877792358398,"lng":4.63833332061768},"countryCode":"NL","name":"Haarlem","stationCode":"HLM","uicCode":"8400285"},"description":"vanaf het Kennemerplein"},{"station":{"coordinate":{"lat":52.404167175293,"lng":4.62750005722046},"countryCode":"NL","name":"Bloemendaal","stationCode":"BLL","uicCode":"8400118"},"description":"vanaf de voorzijde van het station"},{"station":{"coordinate":{"lat":52.4197235107422,"lng":4.63138866424561},"countryCode":"NL","name":"Santpoort Zuid","stationCode":"SPTZ","uicCode":"8400544"},"description":"vanaf de voorzijde van het station"},{"station":{"coordinate":{"lat":52.4338874816895,"lng":4.63250017166138},"countryCode":"NL","name":"Santpoort Noord","stationCode":"SPTN","uicCode":"8400543"},"description":"vanaf de voorzijde van het station"},{"station":{"coordinate":{"lat":52.4783325195313,"lng":4.65666675567627},"countryCode":"NL","name":"Beverwijk","stationCode":"BV","uicCode":"8400113"},"description":"vanaf het busstation"},{"station":{"coordinate":{"lat":52.4952774047852,"lng":4.68694448471069},"countryCode":"NL","name":"Heemskerk","stationCode":"HK","uicCode":"8400317"},"description":"vanaf de voorzijde van het station"},{"station":{"coordinate":{"lat":52.5216674804687,"lng":4.70166683197022},"countryCode":"NL","name":"Uitgeest","stationCode":"UTG","uicCode":"8400615"},"description":"vanaf de achterzijde van het station"}],"label":"Er rijden stopbussen tussen Haarlem, Bloemendaal, Santpoort Zuid, Santpoort Noord, Beverwijk, Heemskerk en Uitgeest.","shortLabel":"er rijden stopbussen Haarlem - Bloemendaal - Santpoort Zuid - Santpoort Noord - Beverwijk - Heemskerk - Uitgeest"}},{"start":"2024-04-13T01:00:00+0200","end":"2024-04-15T01:00:00+0200","alternativeTransport":{"location":[{"station":{"coordinate":{"lat":52.3877792358398,"lng":4.63833332061768},"countryCode":"NL","name":"Haarlem","stationCode":"HLM","uicCode":"8400285"},"description":"vanaf de Jansweg"},{"station":{"coordinate":{"lat":52.4783325195313,"lng":4.65666675567627},"countryCode":"NL","name":"Beverwijk","stationCode":"BV","uicCode":"8400113"},"description":"vanaf het busstation"}],"label":"Er rijden snelbussen tussen Haarlem en Beverwijk.","shortLabel":"er rijden snelbussen Haarlem - Beverwijk"}},{"start":"2024-04-13T01:00:00+0200","end":"2024-04-15T01:00:00+0200","alternativeTransport":{"location":[{"station":{"coordinate":{"lat":52.4338874816895,"lng":4.63250017166138},"countryCode":"NL","name":"Santpoort Noord","stationCode":"SPTN","uicCode":"8400543"},"description":"vanaf de voorzijde van het station"},{"station":{"coordinate":{"lat":52.4425010681152,"lng":4.63805532455444},"countryCode":"NL","name":"Driehuis","stationCode":"DRH","uicCode":"8400183"},"description":"vanaf de van den Vondellaan"}],"label":"Er rijden bussen tussen Santpoort Noord en Driehuis.","shortLabel":"er rijden bussen Santpoort Noord - Driehuis"}},{"start":"2024-04-15T01:00:00+0200","end":"2024-04-20T01:00:00+0200","alternativeTransport":{"location":[{"station":{"coordinate":{"lat":52.4338874816895,"lng":4.63250017166138},"countryCode":"NL","name":"Santpoort Noord","stationCode":"SPTN","uicCode":"8400543"},"description":"vanaf de voorzijde van het station"},{"station":{"coordinate":{"lat":52.4425010681152,"lng":4.63805532455444},"countryCode":"NL","name":"Driehuis","stationCode":"DRH","uicCode":"8400183"},"description":"vanaf de van den Vondellaan"}],"label":"Er rijden bussen tussen Santpoort Noord en Driehuis.","shortLabel":"er rijden bussen Santpoort Noord - Driehuis"}},{"start":"2024-04-15T01:00:00+0200","end":"2024-04-20T01:00:00+0200","alternativeTransport":{"location":[{"station":{"coordinate":{"lat":52.3877792358398,"lng":4.63833332061768},"countryCode":"NL","name":"Haarlem","stationCode":"HLM","uicCode":"8400285"},"description":"vanaf de Jansweg"},{"station":{"coordinate":{"lat":52.4783325195313,"lng":4.65666675567627},"countryCode":"NL","name":"Beverwijk","stationCode":"BV","uicCode":"8400113"},"description":"vanaf het busstation"}],"label":"Er rijden snelbussen tussen Haarlem en Beverwijk.","shortLabel":"er rijden snelbussen Haarlem - Beverwijk"}},{"start":"2024-04-15T01:00:00+0200","end":"2024-04-20T01:00:00+0200","alternativeTransport":{"location":[{"station":{"coordinate":{"lat":52.3877792358398,"lng":4.63833332061768},"countryCode":"NL","name":"Haarlem","stationCode":"HLM","uicCode":"8400285"},"description":"vanaf het Kennemerplein"},{"station":{"coordinate":{"lat":52.404167175293,"lng":4.62750005722046},"countryCode":"NL","name":"Bloemendaal","stationCode":"BLL","uicCode":"8400118"},"description":"vanaf de voorzijde van het station"},{"station":{"coordinate":{"lat":52.4197235107422,"lng":4.63138866424561},"countryCode":"NL","name":"Santpoort Zuid","stationCode":"SPTZ","uicCode":"8400544"},"description":"vanaf de voorzijde van het station"},{"station":{"coordinate":{"lat":52.4338874816895,"lng":4.63250017166138},"countryCode":"NL","name":"Santpoort Noord","stationCode":"SPTN","uicCode":"8400543"},"description":"vanaf de voorzijde van het station"},{"station":{"coordinate":{"lat":52.4783325195313,"lng":4.65666675567627},"countryCode":"NL","name":"Beverwijk","stationCode":"BV","uicCode":"8400113"},"description":"vanaf het busstation"}],"label":"Er rijden stopbussen tussen Haarlem, Bloemendaal, Santpoort Zuid, Santpoort Noord en Beverwijk.","shortLabel":"er rijden stopbussen Haarlem - Bloemendaal - Santpoort Zuid - Santpoort Noord - Beverwijk"}}]},{"type":"MAINTENANCE","id":"7004656","title":"Venlo - Roermond.","isActive":true,"local":false,"titleSections":[[{"type":"STATION","value":"Venlo"},{"type":"ICON","value":"MAINTENANCE"},{"type":"STATION","value":"Roermond"}]],"registrationTime":"2024-03-14T12:12:24+0100","start":"2024-04-13T04:00:00+0200","releaseTime":"2024-03-14T12:12:24+0100","end":"2024-04-22T02:00:00+0200","period":"Zaterdag 13 april 4:00 uur t/m maandag 22 april 2:00 uur.","impact":{"value":5},"publicationSections":[{"section":{"stations":[{"coordinate":{"lat":51.3636093139648,"lng":6.17277765274048},"countryCode":"NL","name":"Venlo","stationCode":"VL","uicCode":"8400644"},{"coordinate":{"lat":51.33894,"lng":6.14253},"countryCode":"NL","name":"Tegelen","stationCode":"TG","uicCode":"8400591"},{"coordinate":{"lat":51.2832191665301,"lng":6.07895851135253},"countryCode":"NL","name":"Reuver","stationCode":"RV","uicCode":"8400518"},{"coordinate":{"lat":51.23582,"lng":6.03228},"countryCode":"NL","name":"Swalmen","stationCode":"SM","uicCode":"8400583"},{"coordinate":{"lat":51.1930541992188,"lng":5.9941668510437},"countryCode":"NL","name":"Roermond","stationCode":"RM","uicCode":"8400523"}],"direction":"BOTH"},"consequence":{"section":{"stations":[{"coordinate":{"lat":51.3636093139648,"lng":6.17277765274048},"countryCode":"NL","name":"Venlo","stationCode":"VL","uicCode":"8400644"},{"coordinate":{"lat":51.33894,"lng":6.14253},"countryCode":"NL","name":"Tegelen","stationCode":"TG","uicCode":"8400591"},{"coordinate":{"lat":51.2832191665301,"lng":6.07895851135253},"countryCode":"NL","name":"Reuver","stationCode":"RV","uicCode":"8400518"},{"coordinate":{"lat":51.23582,"lng":6.03228},"countryCode":"NL","name":"Swalmen","stationCode":"SM","uicCode":"8400583"},{"coordinate":{"lat":51.1930541992188,"lng":5.9941668510437},"countryCode":"NL","name":"Roermond","stationCode":"RM","uicCode":"8400523"}],"direction":"ONE_WAY"},"description":"rijden bussen","level":"LESS_TRAINS"},"sectionType":"NL"}],"summaryAdditionalTravelTime":{"label":"De extra reistijd kan oplopen tot 45 minuten.","shortLabel":"extra reistijd tot 45 min.","maximumDurationInMinutes":45},"timespans":[{"start":"2024-04-13T04:00:00+0200","end":"2024-04-22T02:00:00+0200","period":"Zaterdag 13 april 4:00 uur t/m maandag 22 april 2:00 uur.","situation":{"label":"Door werkzaamheden: tussen Venlo en Roermond rijden er bussen."},"cause":{"label":"werkzaamheden"},"additionalTravelTime":{"label":"De extra reistijd kan oplopen tot 45 minuten.","shortLabel":"extra reistijd tot 45 min.","maximumDurationInMinutes":45},"alternativeTransport":{"label":"er rijden stop- en snelbussen","shortLabel":"er rijden stop- en snelbussen"},"advices":[]}],"alternativeTransportTimespans":[{"start":"2024-04-13T04:00:00+0200","end":"2024-04-22T02:00:00+0200","alternativeTransport":{"location":[{"station":{"coordinate":{"lat":51.3636093139648,"lng":6.17277765274048},"countryCode":"NL","name":"Venlo","stationCode":"VL","uicCode":"8400644"},"description":"vanaf het busstation"},{"station":{"coordinate":{"lat":51.2832191665301,"lng":6.07895851135253},"countryCode":"NL","name":"Reuver","stationCode":"RV","uicCode":"8400518"},"description":"vanaf de voorzijde van het station"},{"station":{"coordinate":{"lat":51.1930541992188,"lng":5.9941668510437},"countryCode":"NL","name":"Roermond","stationCode":"RM","uicCode":"8400523"},"description":"vanaf de OV-halte"}],"label":"Er rijden snelbussen tussen Venlo, Reuver en Roermond.","shortLabel":"er rijden snelbussen Venlo - Reuver - Roermond"}},{"start":"2024-04-13T04:00:00+0200","end":"2024-04-22T02:00:00+0200","alternativeTransport":{"location":[{"station":{"coordinate":{"lat":51.3636093139648,"lng":6.17277765274048},"countryCode":"NL","name":"Venlo","stationCode":"VL","uicCode":"8400644"},"description":"vanaf het busstation"},{"station":{"coordinate":{"lat":51.33894,"lng":6.14253},"countryCode":"NL","name":"Tegelen","stationCode":"TG","uicCode":"8400591"},"description":"vanaf de bushalte"},{"station":{"coordinate":{"lat":51.2832191665301,"lng":6.07895851135253},"countryCode":"NL","name":"Reuver","stationCode":"RV","uicCode":"8400518"},"description":"vanaf de voorzijde van het station"},{"station":{"coordinate":{"lat":51.23582,"lng":6.03228},"countryCode":"NL","name":"Swalmen","stationCode":"SM","uicCode":"8400583"},"description":"vanaf de voorzijde van het station"},{"station":{"coordinate":{"lat":51.1930541992188,"lng":5.9941668510437},"countryCode":"NL","name":"Roermond","stationCode":"RM","uicCode":"8400523"},"description":"vanaf de OV-halte"}],"label":"Er rijden stopbussen tussen Venlo, Tegelen, Reuver, Swalmen en Roermond.","shortLabel":"er rijden stopbussen Venlo - Tegelen - Reuver - Swalmen - Roermond"}}]},{"type":"MAINTENANCE","id":"7004683","title":"Utrecht - Den Haag.","isActive":true,"local":false,"titleSections":[[{"type":"STATION","value":"Utrecht C."},{"type":"STATION","value":"Gouda"},{"type":"ICON","value":"MAINTENANCE"},{"type":"STATION","value":"Ypenburg"},{"type":"STATION","value":"Den Haag C."}]],"registrationTime":"2024-03-28T11:44:49+0100","start":"2024-04-13T05:00:00+0200","releaseTime":"2024-03-28T11:44:49+0100","end":"2024-04-20T11:50:00+0200","period":"Zaterdag 13 april 5:00 uur t/m zaterdag 20 april 11:50 uur.","impact":{"value":4},"publicationSections":[{"section":{"stations":[{"coordinate":{"lat":52.0888900756836,"lng":5.11027765274048},"countryCode":"NL","name":"Utrecht Centraal","stationCode":"UT","uicCode":"8400621"},{"coordinate":{"lat":52.09896,"lng":5.06523},"countryCode":"NL","name":"Utrecht Leidsche Rijn","stationCode":"UTLR","uicCode":"8400607"},{"coordinate":{"lat":52.1000753,"lng":5.0439547},"countryCode":"NL","name":"Utrecht Terwijde","stationCode":"UTT","uicCode":"8400614"},{"coordinate":{"lat":52.103056,"lng":5.007404},"countryCode":"NL","name":"Vleuten","stationCode":"VTN","uicCode":"8400651"},{"coordinate":{"lat":52.0849990844727,"lng":4.89361095428467},"countryCode":"NL","name":"Woerden","stationCode":"WD","uicCode":"8400702"},{"coordinate":{"lat":52.0149993896484,"lng":4.7408332824707},"countryCode":"NL","name":"Gouda Goverwelle","stationCode":"GDG","uicCode":"8400257"},{"coordinate":{"lat":52.0175018310547,"lng":4.70444440841675},"countryCode":"NL","name":"Gouda","stationCode":"GD","uicCode":"8400258"},{"coordinate":{"lat":52.042222,"lng":4.517222},"countryCode":"NL","name":"Lansingerland-Zoetermeer","stationCode":"LLZM","uicCode":"8400135"},{"coordinate":{"lat":52.0463905334473,"lng":4.49277782440186},"countryCode":"NL","name":"Zoetermeer Oost","stationCode":"ZTMO","uicCode":"8400740"},{"coordinate":{"lat":52.0475006103516,"lng":4.47722244262695},"countryCode":"NL","name":"Zoetermeer","stationCode":"ZTM","uicCode":"8400741"},{"coordinate":{"lat":52.0552787780762,"lng":4.39222240447998},"countryCode":"NL","name":"Den Haag Ypenburg","stationCode":"YPB","uicCode":"8400379"},{"coordinate":{"lat":52.0666656494141,"lng":4.3594446182251},"countryCode":"NL","name":"Voorburg","stationCode":"VB","uicCode":"8400658"},{"coordinate":{"lat":52.0802764892578,"lng":4.32499980926514},"countryCode":"NL","name":"Den Haag Centraal","stationCode":"GVC","uicCode":"8400282"}],"direction":"BOTH"},"consequence":{"section":{"stations":[{"coordinate":{"lat":52.0175018310547,"lng":4.70444440841675},"countryCode":"NL","name":"Gouda","stationCode":"GD","uicCode":"8400258"},{"coordinate":{"lat":52.042222,"lng":4.517222},"countryCode":"NL","name":"Lansingerland-Zoetermeer","stationCode":"LLZM","uicCode":"8400135"},{"coordinate":{"lat":52.0463905334473,"lng":4.49277782440186},"countryCode":"NL","name":"Zoetermeer Oost","stationCode":"ZTMO","uicCode":"8400740"},{"coordinate":{"lat":52.0475006103516,"lng":4.47722244262695},"countryCode":"NL","name":"Zoetermeer","stationCode":"ZTM","uicCode":"8400741"},{"coordinate":{"lat":52.0552787780762,"lng":4.39222240447998},"countryCode":"NL","name":"Den Haag Ypenburg","stationCode":"YPB","uicCode":"8400379"}],"direction":"ONE_WAY"},"description":"rijden bussen","level":"LESS_TRAINS"},"sectionType":"NL"}],"summaryAdditionalTravelTime":{"label":"De extra reistijd is ongeveer 30 minuten.","shortLabel":"extra reistijd 30 min.","minimumDurationInMinutes":30,"maximumDurationInMinutes":30},"timespans":[{"start":"2024-04-13T05:00:00+0200","end":"2024-04-20T11:50:00+0200","period":"Zaterdag 13 april 5:00 uur t/m zaterdag 20 april 11:50 uur.","situation":{"label":"Door werkzaamheden: tussen Gouda en Den Haag Ypenburg rijden er bussen."},"cause":{"label":"werkzaamheden"},"additionalTravelTime":{"label":"De extra reistijd is ongeveer 30 minuten.","shortLabel":"extra reistijd 30 min.","minimumDurationInMinutes":30,"maximumDurationInMinutes":30},"alternativeTransport":{"label":"er rijden stopbussen","shortLabel":"er rijden stopbussen"},"advices":["Op zaterdag 13 april tot 09.30 uur en op zaterdag 20 april tot 11.50 uur rijden er ook NS-bussen tussen Den Haag Ypenburg en Den Haag Centraal.","tussen Gouda en Den Haag C. reis via Rotterdam C.","tussen Utrecht C. en Den Haag C. reis via Leiden C."]}],"alternativeTransportTimespans":[{"start":"2024-04-13T05:20:00+0200","end":"2024-04-13T09:35:00+0200","alternativeTransport":{"location":[{"station":{"coordinate":{"lat":52.0175018310547,"lng":4.70444440841675},"countryCode":"NL","name":"Gouda","stationCode":"GD","uicCode":"8400258"},"description":"vanaf de Bloemendaalzijde"},{"station":{"coordinate":{"lat":52.042222,"lng":4.517222},"countryCode":"NL","name":"Lansingerland-Zoetermeer","stationCode":"LLZM","uicCode":"8400135"},"description":"vanaf het busstation"},{"station":{"coordinate":{"lat":52.0463905334473,"lng":4.49277782440186},"countryCode":"NL","name":"Zoetermeer Oost","stationCode":"ZTMO","uicCode":"8400740"},"description":"vanaf het busstation"},{"station":{"coordinate":{"lat":52.0475006103516,"lng":4.47722244262695},"countryCode":"NL","name":"Zoetermeer","stationCode":"ZTM","uicCode":"8400741"},"description":"vanaf de Mahatma Gandhisingel"},{"station":{"coordinate":{"lat":52.0552787780762,"lng":4.39222240447998},"countryCode":"NL","name":"Den Haag Ypenburg","stationCode":"YPB","uicCode":"8400379"},"description":"vanaf de voorzijde van het station"},{"station":{"coordinate":{"lat":52.0666656494141,"lng":4.3594446182251},"countryCode":"NL","name":"Voorburg","stationCode":"VB","uicCode":"8400658"},"description":"onder het spoorviaduct"},{"station":{"coordinate":{"lat":52.0802764892578,"lng":4.32499980926514},"countryCode":"NL","name":"Den Haag Centraal","stationCode":"GVC","uicCode":"8400282"},"description":"vanaf het busplatform"}],"label":"Er rijden stopbussen van Gouda, Lansingerland-Zoetermeer, Zoetermeer Oost, Zoetermeer, Den Haag Ypenburg, Voorburg naar Den Haag Centraal.","shortLabel":"er rijden stopbussen Gouda -> Lansingerland -> Zoetermeer Oost -> Zoetermeer -> Ypenburg -> Voorburg -> Den Haag C."}},{"start":"2024-04-13T08:20:00+0200","end":"2024-04-20T01:50:00+0200","alternativeTransport":{"location":[{"station":{"coordinate":{"lat":52.0175018310547,"lng":4.70444440841675},"countryCode":"NL","name":"Gouda","stationCode":"GD","uicCode":"8400258"},"description":"vanaf de Bloemendaalzijde"},{"station":{"coordinate":{"lat":52.042222,"lng":4.517222},"countryCode":"NL","name":"Lansingerland-Zoetermeer","stationCode":"LLZM","uicCode":"8400135"},"description":"vanaf het busstation"},{"station":{"coordinate":{"lat":52.0463905334473,"lng":4.49277782440186},"countryCode":"NL","name":"Zoetermeer Oost","stationCode":"ZTMO","uicCode":"8400740"},"description":"vanaf het busstation"},{"station":{"coordinate":{"lat":52.0475006103516,"lng":4.47722244262695},"countryCode":"NL","name":"Zoetermeer","stationCode":"ZTM","uicCode":"8400741"},"description":"vanaf de Mahatma Gandhisingel"},{"station":{"coordinate":{"lat":52.0552787780762,"lng":4.39222240447998},"countryCode":"NL","name":"Den Haag Ypenburg","stationCode":"YPB","uicCode":"8400379"},"description":"vanaf de voorzijde van het station"}],"label":"Er rijden stopbussen tussen Gouda, Lansingerland-Zoetermeer, Zoetermeer Oost, Zoetermeer en Den Haag Ypenburg.","shortLabel":"er rijden stopbussen Gouda - Lansingerland - Zoetermeer Oost - Zoetermeer - Ypenburg"}},{"start":"2024-04-14T00:35:00+0200","end":"2024-04-14T01:50:00+0200","alternativeTransport":{"location":[{"station":{"coordinate":{"lat":52.0175018310547,"lng":4.70444440841675},"countryCode":"NL","name":"Gouda","stationCode":"GD","uicCode":"8400258"},"description":"vanaf de Bloemendaalzijde"},{"station":{"coordinate":{"lat":52.042222,"lng":4.517222},"countryCode":"NL","name":"Lansingerland-Zoetermeer","stationCode":"LLZM","uicCode":"8400135"},"description":"vanaf het busstation"},{"station":{"coordinate":{"lat":52.0463905334473,"lng":4.49277782440186},"countryCode":"NL","name":"Zoetermeer Oost","stationCode":"ZTMO","uicCode":"8400740"},"description":"vanaf het busstation"},{"station":{"coordinate":{"lat":52.0475006103516,"lng":4.47722244262695},"countryCode":"NL","name":"Zoetermeer","stationCode":"ZTM","uicCode":"8400741"},"description":"vanaf de Mahatma Gandhisingel"},{"station":{"coordinate":{"lat":52.0552787780762,"lng":4.39222240447998},"countryCode":"NL","name":"Den Haag Ypenburg","stationCode":"YPB","uicCode":"8400379"},"description":"vanaf de voorzijde van het station"},{"station":{"coordinate":{"lat":52.0666656494141,"lng":4.3594446182251},"countryCode":"NL","name":"Voorburg","stationCode":"VB","uicCode":"8400658"},"description":"onder het spoorviaduct"},{"station":{"coordinate":{"lat":52.0802764892578,"lng":4.32499980926514},"countryCode":"NL","name":"Den Haag Centraal","stationCode":"GVC","uicCode":"8400282"},"description":"vanaf het busplatform"}],"label":"Er rijden stopbussen van Gouda, Lansingerland-Zoetermeer, Zoetermeer Oost, Zoetermeer, Den Haag Ypenburg, Voorburg naar Den Haag Centraal.","shortLabel":"er rijden stopbussen Gouda -> Lansingerland -> Zoetermeer Oost -> Zoetermeer -> Ypenburg -> Voorburg -> Den Haag C."}},{"start":"2024-04-15T00:35:00+0200","end":"2024-04-15T01:50:00+0200","alternativeTransport":{"location":[{"station":{"coordinate":{"lat":52.0175018310547,"lng":4.70444440841675},"countryCode":"NL","name":"Gouda","stationCode":"GD","uicCode":"8400258"},"description":"vanaf de Bloemendaalzijde"},{"station":{"coordinate":{"lat":52.042222,"lng":4.517222},"countryCode":"NL","name":"Lansingerland-Zoetermeer","stationCode":"LLZM","uicCode":"8400135"},"description":"vanaf het busstation"},{"station":{"coordinate":{"lat":52.0463905334473,"lng":4.49277782440186},"countryCode":"NL","name":"Zoetermeer Oost","stationCode":"ZTMO","uicCode":"8400740"},"description":"vanaf het busstation"},{"station":{"coordinate":{"lat":52.0475006103516,"lng":4.47722244262695},"countryCode":"NL","name":"Zoetermeer","stationCode":"ZTM","uicCode":"8400741"},"description":"vanaf de Mahatma Gandhisingel"},{"station":{"coordinate":{"lat":52.0552787780762,"lng":4.39222240447998},"countryCode":"NL","name":"Den Haag Ypenburg","stationCode":"YPB","uicCode":"8400379"},"description":"vanaf de voorzijde van het station"},{"station":{"coordinate":{"lat":52.0666656494141,"lng":4.3594446182251},"countryCode":"NL","name":"Voorburg","stationCode":"VB","uicCode":"8400658"},"description":"onder het spoorviaduct"},{"station":{"coordinate":{"lat":52.0802764892578,"lng":4.32499980926514},"countryCode":"NL","name":"Den Haag Centraal","stationCode":"GVC","uicCode":"8400282"},"description":"vanaf het busplatform"}],"label":"Er rijden stopbussen van Gouda, Lansingerland-Zoetermeer, Zoetermeer Oost, Zoetermeer, Den Haag Ypenburg, Voorburg naar Den Haag Centraal.","shortLabel":"er rijden stopbussen Gouda -> Lansingerland -> Zoetermeer Oost -> Zoetermeer -> Ypenburg -> Voorburg -> Den Haag C."}},{"start":"2024-04-16T00:35:00+0200","end":"2024-04-16T01:50:00+0200","alternativeTransport":{"location":[{"station":{"coordinate":{"lat":52.0175018310547,"lng":4.70444440841675},"countryCode":"NL","name":"Gouda","stationCode":"GD","uicCode":"8400258"},"description":"vanaf de Bloemendaalzijde"},{"station":{"coordinate":{"lat":52.042222,"lng":4.517222},"countryCode":"NL","name":"Lansingerland-Zoetermeer","stationCode":"LLZM","uicCode":"8400135"},"description":"vanaf het busstation"},{"station":{"coordinate":{"lat":52.0463905334473,"lng":4.49277782440186},"countryCode":"NL","name":"Zoetermeer Oost","stationCode":"ZTMO","uicCode":"8400740"},"description":"vanaf het busstation"},{"station":{"coordinate":{"lat":52.0475006103516,"lng":4.47722244262695},"countryCode":"NL","name":"Zoetermeer","stationCode":"ZTM","uicCode":"8400741"},"description":"vanaf de Mahatma Gandhisingel"},{"station":{"coordinate":{"lat":52.0552787780762,"lng":4.39222240447998},"countryCode":"NL","name":"Den Haag Ypenburg","stationCode":"YPB","uicCode":"8400379"},"description":"vanaf de voorzijde van het station"},{"station":{"coordinate":{"lat":52.0666656494141,"lng":4.3594446182251},"countryCode":"NL","name":"Voorburg","stationCode":"VB","uicCode":"8400658"},"description":"onder het spoorviaduct"},{"station":{"coordinate":{"lat":52.0802764892578,"lng":4.32499980926514},"countryCode":"NL","name":"Den Haag Centraal","stationCode":"GVC","uicCode":"8400282"},"description":"vanaf het busplatform"}],"label":"Er rijden stopbussen van Gouda, Lansingerland-Zoetermeer, Zoetermeer Oost, Zoetermeer, Den Haag Ypenburg, Voorburg naar Den Haag Centraal.","shortLabel":"er rijden stopbussen Gouda -> Lansingerland -> Zoetermeer Oost -> Zoetermeer -> Ypenburg -> Voorburg -> Den Haag C."}},{"start":"2024-04-17T00:35:00+0200","end":"2024-04-17T01:50:00+0200","alternativeTransport":{"location":[{"station":{"coordinate":{"lat":52.0175018310547,"lng":4.70444440841675},"countryCode":"NL","name":"Gouda","stationCode":"GD","uicCode":"8400258"},"description":"vanaf de Bloemendaalzijde"},{"station":{"coordinate":{"lat":52.042222,"lng":4.517222},"countryCode":"NL","name":"Lansingerland-Zoetermeer","stationCode":"LLZM","uicCode":"8400135"},"description":"vanaf het busstation"},{"station":{"coordinate":{"lat":52.0463905334473,"lng":4.49277782440186},"countryCode":"NL","name":"Zoetermeer Oost","stationCode":"ZTMO","uicCode":"8400740"},"description":"vanaf het busstation"},{"station":{"coordinate":{"lat":52.0475006103516,"lng":4.47722244262695},"countryCode":"NL","name":"Zoetermeer","stationCode":"ZTM","uicCode":"8400741"},"description":"vanaf de Mahatma Gandhisingel"},{"station":{"coordinate":{"lat":52.0552787780762,"lng":4.39222240447998},"countryCode":"NL","name":"Den Haag Ypenburg","stationCode":"YPB","uicCode":"8400379"},"description":"vanaf de voorzijde van het station"},{"station":{"coordinate":{"lat":52.0666656494141,"lng":4.3594446182251},"countryCode":"NL","name":"Voorburg","stationCode":"VB","uicCode":"8400658"},"description":"onder het spoorviaduct"},{"station":{"coordinate":{"lat":52.0802764892578,"lng":4.32499980926514},"countryCode":"NL","name":"Den Haag Centraal","stationCode":"GVC","uicCode":"8400282"},"description":"vanaf het busplatform"}],"label":"Er rijden stopbussen van Gouda, Lansingerland-Zoetermeer, Zoetermeer Oost, Zoetermeer, Den Haag Ypenburg, Voorburg naar Den Haag Centraal.","shortLabel":"er rijden stopbussen Gouda -> Lansingerland -> Zoetermeer Oost -> Zoetermeer -> Ypenburg -> Voorburg -> Den Haag C."}},{"start":"2024-04-18T00:35:00+0200","end":"2024-04-18T01:50:00+0200","alternativeTransport":{"location":[{"station":{"coordinate":{"lat":52.0175018310547,"lng":4.70444440841675},"countryCode":"NL","name":"Gouda","stationCode":"GD","uicCode":"8400258"},"description":"vanaf de Bloemendaalzijde"},{"station":{"coordinate":{"lat":52.042222,"lng":4.517222},"countryCode":"NL","name":"Lansingerland-Zoetermeer","stationCode":"LLZM","uicCode":"8400135"},"description":"vanaf het busstation"},{"station":{"coordinate":{"lat":52.0463905334473,"lng":4.49277782440186},"countryCode":"NL","name":"Zoetermeer Oost","stationCode":"ZTMO","uicCode":"8400740"},"description":"vanaf het busstation"},{"station":{"coordinate":{"lat":52.0475006103516,"lng":4.47722244262695},"countryCode":"NL","name":"Zoetermeer","stationCode":"ZTM","uicCode":"8400741"},"description":"vanaf de Mahatma Gandhisingel"},{"station":{"coordinate":{"lat":52.0552787780762,"lng":4.39222240447998},"countryCode":"NL","name":"Den Haag Ypenburg","stationCode":"YPB","uicCode":"8400379"},"description":"vanaf de voorzijde van het station"},{"station":{"coordinate":{"lat":52.0666656494141,"lng":4.3594446182251},"countryCode":"NL","name":"Voorburg","stationCode":"VB","uicCode":"8400658"},"description":"onder het spoorviaduct"},{"station":{"coordinate":{"lat":52.0802764892578,"lng":4.32499980926514},"countryCode":"NL","name":"Den Haag Centraal","stationCode":"GVC","uicCode":"8400282"},"description":"vanaf het busplatform"}],"label":"Er rijden stopbussen van Gouda, Lansingerland-Zoetermeer, Zoetermeer Oost, Zoetermeer, Den Haag Ypenburg, Voorburg naar Den Haag Centraal.","shortLabel":"er rijden stopbussen Gouda -> Lansingerland -> Zoetermeer Oost -> Zoetermeer -> Ypenburg -> Voorburg -> Den Haag C."}},{"start":"2024-04-19T00:35:00+0200","end":"2024-04-19T01:50:00+0200","alternativeTransport":{"location":[{"station":{"coordinate":{"lat":52.0175018310547,"lng":4.70444440841675},"countryCode":"NL","name":"Gouda","stationCode":"GD","uicCode":"8400258"},"description":"vanaf de Bloemendaalzijde"},{"station":{"coordinate":{"lat":52.042222,"lng":4.517222},"countryCode":"NL","name":"Lansingerland-Zoetermeer","stationCode":"LLZM","uicCode":"8400135"},"description":"vanaf het busstation"},{"station":{"coordinate":{"lat":52.0463905334473,"lng":4.49277782440186},"countryCode":"NL","name":"Zoetermeer Oost","stationCode":"ZTMO","uicCode":"8400740"},"description":"vanaf het busstation"},{"station":{"coordinate":{"lat":52.0475006103516,"lng":4.47722244262695},"countryCode":"NL","name":"Zoetermeer","stationCode":"ZTM","uicCode":"8400741"},"description":"vanaf de Mahatma Gandhisingel"},{"station":{"coordinate":{"lat":52.0552787780762,"lng":4.39222240447998},"countryCode":"NL","name":"Den Haag Ypenburg","stationCode":"YPB","uicCode":"8400379"},"description":"vanaf de voorzijde van het station"},{"station":{"coordinate":{"lat":52.0666656494141,"lng":4.3594446182251},"countryCode":"NL","name":"Voorburg","stationCode":"VB","uicCode":"8400658"},"description":"onder het spoorviaduct"},{"station":{"coordinate":{"lat":52.0802764892578,"lng":4.32499980926514},"countryCode":"NL","name":"Den Haag Centraal","stationCode":"GVC","uicCode":"8400282"},"description":"vanaf het busplatform"}],"label":"Er rijden stopbussen van Gouda, Lansingerland-Zoetermeer, Zoetermeer Oost, Zoetermeer, Den Haag Ypenburg, Voorburg naar Den Haag Centraal.","shortLabel":"er rijden stopbussen Gouda -> Lansingerland -> Zoetermeer Oost -> Zoetermeer -> Ypenburg -> Voorburg -> Den Haag C."}},{"start":"2024-04-20T00:35:00+0200","end":"2024-04-20T01:50:00+0200","alternativeTransport":{"location":[{"station":{"coordinate":{"lat":52.0175018310547,"lng":4.70444440841675},"countryCode":"NL","name":"Gouda","stationCode":"GD","uicCode":"8400258"},"description":"vanaf de Bloemendaalzijde"},{"station":{"coordinate":{"lat":52.042222,"lng":4.517222},"countryCode":"NL","name":"Lansingerland-Zoetermeer","stationCode":"LLZM","uicCode":"8400135"},"description":"vanaf het busstation"},{"station":{"coordinate":{"lat":52.0463905334473,"lng":4.49277782440186},"countryCode":"NL","name":"Zoetermeer Oost","stationCode":"ZTMO","uicCode":"8400740"},"description":"vanaf het busstation"},{"station":{"coordinate":{"lat":52.0475006103516,"lng":4.47722244262695},"countryCode":"NL","name":"Zoetermeer","stationCode":"ZTM","uicCode":"8400741"},"description":"vanaf de Mahatma Gandhisingel"},{"station":{"coordinate":{"lat":52.0552787780762,"lng":4.39222240447998},"countryCode":"NL","name":"Den Haag Ypenburg","stationCode":"YPB","uicCode":"8400379"},"description":"vanaf de voorzijde van het station"},{"station":{"coordinate":{"lat":52.0666656494141,"lng":4.3594446182251},"countryCode":"NL","name":"Voorburg","stationCode":"VB","uicCode":"8400658"},"description":"onder het spoorviaduct"},{"station":{"coordinate":{"lat":52.0802764892578,"lng":4.32499980926514},"countryCode":"NL","name":"Den Haag Centraal","stationCode":"GVC","uicCode":"8400282"},"description":"vanaf het busplatform"}],"label":"Er rijden stopbussen van Gouda, Lansingerland-Zoetermeer, Zoetermeer Oost, Zoetermeer, Den Haag Ypenburg, Voorburg naar Den Haag Centraal.","shortLabel":"er rijden stopbussen Gouda -> Lansingerland -> Zoetermeer Oost -> Zoetermeer -> Ypenburg -> Voorburg -> Den Haag C."}},{"start":"2024-04-20T05:50:00+0200","end":"2024-04-20T11:50:00+0200","alternativeTransport":{"location":[{"station":{"coordinate":{"lat":52.0175018310547,"lng":4.70444440841675},"countryCode":"NL","name":"Gouda","stationCode":"GD","uicCode":"8400258"},"description":"vanaf de Bloemendaalzijde"},{"station":{"coordinate":{"lat":52.042222,"lng":4.517222},"countryCode":"NL","name":"Lansingerland-Zoetermeer","stationCode":"LLZM","uicCode":"8400135"},"description":"vanaf het busstation"},{"station":{"coordinate":{"lat":52.0463905334473,"lng":4.49277782440186},"countryCode":"NL","name":"Zoetermeer Oost","stationCode":"ZTMO","uicCode":"8400740"},"description":"vanaf het busstation"},{"station":{"coordinate":{"lat":52.0475006103516,"lng":4.47722244262695},"countryCode":"NL","name":"Zoetermeer","stationCode":"ZTM","uicCode":"8400741"},"description":"vanaf de Mahatma Gandhisingel"},{"station":{"coordinate":{"lat":52.0552787780762,"lng":4.39222240447998},"countryCode":"NL","name":"Den Haag Ypenburg","stationCode":"YPB","uicCode":"8400379"},"description":"vanaf de voorzijde van het station"},{"station":{"coordinate":{"lat":52.0666656494141,"lng":4.3594446182251},"countryCode":"NL","name":"Voorburg","stationCode":"VB","uicCode":"8400658"},"description":"onder het spoorviaduct"},{"station":{"coordinate":{"lat":52.0802764892578,"lng":4.32499980926514},"countryCode":"NL","name":"Den Haag Centraal","stationCode":"GVC","uicCode":"8400282"},"description":"vanaf het busplatform"}],"label":"Er rijden stopbussen van Gouda, Lansingerland-Zoetermeer, Zoetermeer Oost, Zoetermeer, Den Haag Ypenburg, Voorburg naar Den Haag Centraal.","shortLabel":"er rijden stopbussen Gouda -> Lansingerland -> Zoetermeer Oost -> Zoetermeer -> Ypenburg -> Voorburg -> Den Haag C."}}]},{"type":"MAINTENANCE","id":"7004864","title":"Venlo - Mönchengladbach - Düsseldorf.","isActive":true,"local":false,"titleSections":[[{"type":"STATION","value":"Venlo"},{"type":"ICON","value":"MAINTENANCE"},{"type":"STATION","value":"Mönchengladbach"},{"type":"STATION","value":"Düsseldorf Hbf"}]],"registrationTime":"2024-04-15T09:33:32+0200","start":"2024-04-15T09:35:00+0200","releaseTime":"2024-04-15T09:33:32+0200","end":"2024-04-25T02:00:00+0200","period":"Maandag 15 april 9:35 uur t/m donderdag 25 april 2:00 uur.","impact":{"value":4},"publicationSections":[{"section":{"stations":[{"coordinate":{"lat":51.3636093139648,"lng":6.17277765274048},"countryCode":"NL","name":"Venlo","stationCode":"VL","uicCode":"8400644"},{"coordinate":{"lat":51.327184,"lng":6.203225},"countryCode":"D","name":"Kaldenkirchen","stationCode":"KN","uicCode":"8015130"},{"coordinate":{"lat":51.294615,"lng":6.241174},"countryCode":"D","name":"Breyell","stationCode":"KBRY","uicCode":"8015129"},{"coordinate":{"lat":51.274323,"lng":6.274591},"countryCode":"D","name":"Boisheim","stationCode":"KBOI","uicCode":"8015128"},{"coordinate":{"lat":51.257149,"lng":6.33793},"countryCode":"D","name":"Dülken","stationCode":"KDUL","uicCode":"8015125"},{"coordinate":{"lat":51.25516,"lng":6.40388},"countryCode":"D","name":"Viersen","stationCode":"VIERS","uicCode":"8015122"},{"coordinate":{"lat":51.196583,"lng":6.446111},"countryCode":"D","name":"Mönchengladbach Hbf","stationCode":"MCGB","uicCode":"8015165"},{"coordinate":{"lat":51.20444,"lng":6.68468},"countryCode":"D","name":"Neuss Hbf","stationCode":"NEUSS","uicCode":"8015149"},{"coordinate":{"lat":51.220146,"lng":6.793137},"countryCode":"D","name":"Düsseldorf Hbf","stationCode":"DUSSEL","uicCode":"8008094"}],"direction":"BOTH"},"consequence":{"section":{"stations":[{"coordinate":{"lat":51.3636093139648,"lng":6.17277765274048},"countryCode":"NL","name":"Venlo","stationCode":"VL","uicCode":"8400644"},{"coordinate":{"lat":51.327184,"lng":6.203225},"countryCode":"D","name":"Kaldenkirchen","stationCode":"KN","uicCode":"8015130"},{"coordinate":{"lat":51.294615,"lng":6.241174},"countryCode":"D","name":"Breyell","stationCode":"KBRY","uicCode":"8015129"},{"coordinate":{"lat":51.274323,"lng":6.274591},"countryCode":"D","name":"Boisheim","stationCode":"KBOI","uicCode":"8015128"},{"coordinate":{"lat":51.257149,"lng":6.33793},"countryCode":"D","name":"Dülken","stationCode":"KDUL","uicCode":"8015125"},{"coordinate":{"lat":51.25516,"lng":6.40388},"countryCode":"D","name":"Viersen","stationCode":"VIERS","uicCode":"8015122"},{"coordinate":{"lat":51.196583,"lng":6.446111},"countryCode":"D","name":"Mönchengladbach Hbf","stationCode":"MCGB","uicCode":"8015165"}],"direction":"ONE_WAY"},"description":"rijden bussen","level":"LESS_TRAINS"},"sectionType":"NEIGHBORING_COUNTRY"}],"summaryAdditionalTravelTime":{"label":"De extra reistijd kan oplopen tot 30 minuten.","shortLabel":"extra reistijd tot 30 min.","maximumDurationInMinutes":30},"timespans":[{"start":"2024-04-15T09:35:00+0200","end":"2024-04-25T02:00:00+0200","period":"Maandag 15 april 9:35 uur t/m donderdag 25 april 2:00 uur.","situation":{"label":"Door werkzaamheden: tussen Venlo en Mönchengladbach Hbf rijden er bussen."},"cause":{"label":"werkzaamheden"},"additionalTravelTime":{"label":"De extra reistijd kan oplopen tot 30 minuten.","shortLabel":"extra reistijd tot 30 min.","maximumDurationInMinutes":30},"alternativeTransport":{"label":"er rijden stopbussen","shortLabel":"er rijden stopbussen"},"advices":["Dit kan gevolgen hebben voor uw reis. Plan uw reis in de (Internationale) app."]}],"alternativeTransportTimespans":[{"start":"2024-04-15T09:35:00+0200","end":"2024-04-25T02:00:00+0200","alternativeTransport":{"location":[{"station":{"coordinate":{"lat":51.3636093139648,"lng":6.17277765274048},"countryCode":"NL","name":"Venlo","stationCode":"VL","uicCode":"8400644"},"description":"vanaf het busstation"},{"station":{"coordinate":{"lat":51.327184,"lng":6.203225},"countryCode":"D","name":"Kaldenkirchen","stationCode":"KN","uicCode":"8015130"},"description":"volg de aanwijzingen op het station"},{"station":{"coordinate":{"lat":51.294615,"lng":6.241174},"countryCode":"D","name":"Breyell","stationCode":"KBRY","uicCode":"8015129"},"description":"volg de aanwijzingen op het station"},{"station":{"coordinate":{"lat":51.274323,"lng":6.274591},"countryCode":"D","name":"Boisheim","stationCode":"KBOI","uicCode":"8015128"},"description":"volg de aanwijzingen op het station"},{"station":{"coordinate":{"lat":51.257149,"lng":6.33793},"countryCode":"D","name":"Dülken","stationCode":"KDUL","uicCode":"8015125"},"description":"volg de aanwijzingen op het station"},{"station":{"coordinate":{"lat":51.25516,"lng":6.40388},"countryCode":"D","name":"Viersen","stationCode":"VIERS","uicCode":"8015122"},"description":"volg de aanwijzingen op het station"},{"station":{"coordinate":{"lat":51.196583,"lng":6.446111},"countryCode":"D","name":"Mönchengladbach Hbf","stationCode":"MCGB","uicCode":"8015165"},"description":"volg de aanwijzingen op het station"}],"label":"Er rijden stopbussen tussen Venlo, Kaldenkirchen, Breyell, Boisheim, Dülken, Viersen en Mönchengladbach Hbf.","shortLabel":"er rijden stopbussen Venlo - Kaldenkirchen - Breyell - Boisheim - Dülken - Viersen - Mönchengladbach"}}]},{"type":"MAINTENANCE","id":"7004778","title":"Groningen - Delfzijl.","isActive":false,"local":false,"titleSections":[[{"type":"STATION","value":"Groningen"},{"type":"ICON","value":"MAINTENANCE"},{"type":"STATION","value":"Delfzijl"}]],"registrationTime":"2024-03-25T09:43:41+0100","start":"2024-04-15T23:20:00+0200","releaseTime":"2024-03-25T09:43:41+0100","end":"2024-04-16T05:00:00+0200","period":"Maandag 15 april 23:20 uur t/m dinsdag 16 april 5:00 uur.","impact":{"value":3},"publicationSections":[{"section":{"stations":[{"coordinate":{"lat":53.2105560302734,"lng":6.56472206115723},"countryCode":"NL","name":"Groningen","stationCode":"GN","uicCode":"8400263"},{"coordinate":{"lat":53.2301469,"lng":6.5563172},"countryCode":"NL","name":"Groningen Noord","stationCode":"GNN","uicCode":"8400264"},{"coordinate":{"lat":53.29113,"lng":6.5404},"countryCode":"NL","name":"Sauwerd","stationCode":"SWD","uicCode":"8400547"},{"coordinate":{"lat":53.3068857,"lng":6.593054},"countryCode":"NL","name":"Bedum","stationCode":"BDM","uicCode":"8400094"},{"coordinate":{"lat":53.3262092,"lng":6.6875551},"countryCode":"NL","name":"Stedum","stationCode":"STM","uicCode":"8400576"},{"coordinate":{"lat":53.3347145,"lng":6.7472625},"countryCode":"NL","name":"Loppersum","stationCode":"LP","uicCode":"8400403"},{"coordinate":{"lat":53.3258135,"lng":6.8619577},"countryCode":"NL","name":"Appingedam","stationCode":"APG","uicCode":"8400067"},{"coordinate":{"lat":53.3320834,"lng":6.9069092},"countryCode":"NL","name":"Delfzijl West","stationCode":"DZW","uicCode":"8400175"},{"coordinate":{"lat":53.3336625,"lng":6.9240797},"countryCode":"NL","name":"Delfzijl","stationCode":"DZ","uicCode":"8400171"}],"direction":"BOTH"},"consequence":{"section":{"stations":[{"coordinate":{"lat":53.2105560302734,"lng":6.56472206115723},"countryCode":"NL","name":"Groningen","stationCode":"GN","uicCode":"8400263"},{"coordinate":{"lat":53.2301469,"lng":6.5563172},"countryCode":"NL","name":"Groningen Noord","stationCode":"GNN","uicCode":"8400264"},{"coordinate":{"lat":53.29113,"lng":6.5404},"countryCode":"NL","name":"Sauwerd","stationCode":"SWD","uicCode":"8400547"},{"coordinate":{"lat":53.3068857,"lng":6.593054},"countryCode":"NL","name":"Bedum","stationCode":"BDM","uicCode":"8400094"},{"coordinate":{"lat":53.3262092,"lng":6.6875551},"countryCode":"NL","name":"Stedum","stationCode":"STM","uicCode":"8400576"},{"coordinate":{"lat":53.3347145,"lng":6.7472625},"countryCode":"NL","name":"Loppersum","stationCode":"LP","uicCode":"8400403"},{"coordinate":{"lat":53.3258135,"lng":6.8619577},"countryCode":"NL","name":"Appingedam","stationCode":"APG","uicCode":"8400067"},{"coordinate":{"lat":53.3320834,"lng":6.9069092},"countryCode":"NL","name":"Delfzijl West","stationCode":"DZW","uicCode":"8400175"},{"coordinate":{"lat":53.3336625,"lng":6.9240797},"countryCode":"NL","name":"Delfzijl","stationCode":"DZ","uicCode":"8400171"}],"direction":"ONE_WAY"},"description":"rijden bussen","level":"LESS_TRAINS"},"sectionType":"NL"}],"summaryAdditionalTravelTime":{"label":"De extra reistijd kan oplopen tot 45 minuten.","shortLabel":"extra reistijd tot 45 min.","maximumDurationInMinutes":45},"timespans":[{"start":"2024-04-15T23:20:00+0200","end":"2024-04-16T05:00:00+0200","period":"Maandag 15 april 23:20 uur t/m dinsdag 16 april 5:00 uur.","situation":{"label":"Door werkzaamheden: tussen Groningen en Delfzijl rijden er bussen."},"cause":{"label":"werkzaamheden"},"additionalTravelTime":{"label":"De extra reistijd kan oplopen tot 45 minuten.","shortLabel":"extra reistijd tot 45 min.","maximumDurationInMinutes":45},"alternativeTransport":{"label":"er rijden stopbussen","shortLabel":"er rijden stopbussen"},"advices":["Bussen stoppen niet in Sauwerd."]}],"alternativeTransportTimespans":[{"start":"2024-04-15T23:20:00+0200","end":"2024-04-16T05:00:00+0200","alternativeTransport":{"location":[{"station":{"coordinate":{"lat":53.2105560302734,"lng":6.56472206115723},"countryCode":"NL","name":"Groningen","stationCode":"GN","uicCode":"8400263"},"description":"vanaf het busstation halte AB"},{"station":{"coordinate":{"lat":53.2301469,"lng":6.5563172},"countryCode":"NL","name":"Groningen Noord","stationCode":"GNN","uicCode":"8400264"},"description":"vanaf de bushalte"},{"station":{"coordinate":{"lat":53.3068857,"lng":6.593054},"countryCode":"NL","name":"Bedum","stationCode":"BDM","uicCode":"8400094"},"description":"vanaf de voorzijde van het station"},{"station":{"coordinate":{"lat":53.3262092,"lng":6.6875551},"countryCode":"NL","name":"Stedum","stationCode":"STM","uicCode":"8400576"},"description":"vanaf de voorzijde van het station"},{"station":{"coordinate":{"lat":53.3347145,"lng":6.7472625},"countryCode":"NL","name":"Loppersum","stationCode":"LP","uicCode":"8400403"},"description":"vanaf het busstation"},{"station":{"coordinate":{"lat":53.3258135,"lng":6.8619577},"countryCode":"NL","name":"Appingedam","stationCode":"APG","uicCode":"8400067"},"description":"vanaf het busstation"},{"station":{"coordinate":{"lat":53.3320834,"lng":6.9069092},"countryCode":"NL","name":"Delfzijl West","stationCode":"DZW","uicCode":"8400175"},"description":"vanaf de bushalte"},{"station":{"coordinate":{"lat":53.3336625,"lng":6.9240797},"countryCode":"NL","name":"Delfzijl","stationCode":"DZ","uicCode":"8400171"},"description":"vanaf het busstation"}],"label":"Er rijden stopbussen tussen Groningen, Groningen Noord, Bedum, Stedum, Loppersum, Appingedam, Delfzijl West en Delfzijl.","shortLabel":"er rijden stopbussen Groningen - Groningen Noord - Bedum - Stedum - Loppersum - Appingedam - Delfzijl West - Delfzijl"}}]},{"type":"MAINTENANCE","id":"7004730","title":"Schiphol - Leiden.","isActive":false,"local":false,"titleSections":[[{"type":"STATION","value":"Schiphol Airport"},{"type":"ICON","value":"MAINTENANCE"},{"type":"STATION","value":"Leiden C."}]],"registrationTime":"2024-04-03T12:27:50+0200","start":"2024-04-17T01:15:00+0200","releaseTime":"2024-04-03T12:27:50+0200","end":"2024-04-17T05:15:00+0200","period":"Woensdag 17 april 1:15 uur t/m woensdag 17 april 5:15 uur.","impact":{"value":3},"publicationSections":[{"section":{"stations":[{"coordinate":{"lat":52.3094444274902,"lng":4.76194429397583},"countryCode":"NL","name":"Schiphol Airport","stationCode":"SHL","uicCode":"8400561"},{"coordinate":{"lat":52.2933349609375,"lng":4.70055532455444},"countryCode":"NL","name":"Hoofddorp","stationCode":"HFD","uicCode":"8400332"},{"coordinate":{"lat":52.2588882446289,"lng":4.64555549621582},"countryCode":"NL","name":"Nieuw Vennep","stationCode":"NVP","uicCode":"8400460"},{"coordinate":{"lat":52.215278,"lng":4.517222},"countryCode":"NL","name":"Sassenheim","stationCode":"SSH","uicCode":"8400603"},{"coordinate":{"lat":52.1661109924316,"lng":4.48166656494141},"countryCode":"NL","name":"Leiden Centraal","stationCode":"LEDN","uicCode":"8400390"}],"direction":"BOTH"},"consequence":{"section":{"stations":[{"coordinate":{"lat":52.3094444274902,"lng":4.76194429397583},"countryCode":"NL","name":"Schiphol Airport","stationCode":"SHL","uicCode":"8400561"},{"coordinate":{"lat":52.2933349609375,"lng":4.70055532455444},"countryCode":"NL","name":"Hoofddorp","stationCode":"HFD","uicCode":"8400332"},{"coordinate":{"lat":52.2588882446289,"lng":4.64555549621582},"countryCode":"NL","name":"Nieuw Vennep","stationCode":"NVP","uicCode":"8400460"},{"coordinate":{"lat":52.215278,"lng":4.517222},"countryCode":"NL","name":"Sassenheim","stationCode":"SSH","uicCode":"8400603"},{"coordinate":{"lat":52.1661109924316,"lng":4.48166656494141},"countryCode":"NL","name":"Leiden Centraal","stationCode":"LEDN","uicCode":"8400390"}],"direction":"ONE_WAY"},"description":"rijden bussen","level":"LESS_TRAINS"},"sectionType":"NL"}],"summaryAdditionalTravelTime":{"label":"De extra reistijd kan oplopen tot 30 minuten.","shortLabel":"extra reistijd tot 30 min.","maximumDurationInMinutes":30},"timespans":[{"start":"2024-04-17T01:15:00+0200","end":"2024-04-17T05:15:00+0200","period":"Woensdag 17 april 1:15 uur t/m woensdag 17 april 5:15 uur.","situation":{"label":"Door werkzaamheden: tussen Schiphol Airport en Leiden Centraal rijden er bussen."},"cause":{"label":"werkzaamheden"},"additionalTravelTime":{"label":"De extra reistijd kan oplopen tot 30 minuten.","shortLabel":"extra reistijd tot 30 min.","maximumDurationInMinutes":30},"alternativeTransport":{"label":"er rijden snelbussen","shortLabel":"er rijden snelbussen"},"advices":["tussen Bijlmer ArenA en Leiden C. reis via Amsterdam C."]}],"alternativeTransportTimespans":[{"start":"2024-04-17T01:15:00+0200","end":"2024-04-17T05:15:00+0200","alternativeTransport":{"location":[{"station":{"coordinate":{"lat":52.3094444274902,"lng":4.76194429397583},"countryCode":"NL","name":"Schiphol Airport","stationCode":"SHL","uicCode":"8400561"},"description":"van het busstation halte C15 en C17"},{"station":{"coordinate":{"lat":52.1661109924316,"lng":4.48166656494141},"countryCode":"NL","name":"Leiden Centraal","stationCode":"LEDN","uicCode":"8400390"},"description":"vanaf het stadsbusstation"}],"label":"Er rijden snelbussen tussen Schiphol Airport en Leiden Centraal.","shortLabel":"er rijden snelbussen Schiphol Airport - Leiden C."}}]},{"type":"MAINTENANCE","id":"7004829","title":"Den Haag - Rotterdam.","isActive":false,"local":false,"titleSections":[[{"type":"STATION","value":"Den Haag HS"},{"type":"ICON","value":"MAINTENANCE"},{"type":"STATION","value":"Rotterdam C."}]],"registrationTime":"2024-04-02T15:26:28+0200","start":"2024-04-18T01:20:00+0200","releaseTime":"2024-04-02T15:26:28+0200","end":"2024-04-18T05:15:00+0200","period":"Donderdag 18 april 1:20 uur t/m donderdag 18 april 5:15 uur.","impact":{"value":3},"publicationSections":[{"section":{"stations":[{"coordinate":{"lat":52.0697212219238,"lng":4.32250022888184},"countryCode":"NL","name":"Den Haag HS","stationCode":"GV","uicCode":"8400280"},{"coordinate":{"lat":52.0538902282715,"lng":4.3086109161377},"countryCode":"NL","name":"Den Haag Moerwijk","stationCode":"GVMW","uicCode":"8400279"},{"coordinate":{"lat":52.039722442627,"lng":4.31916666030884},"countryCode":"NL","name":"Rijswijk","stationCode":"RSW","uicCode":"8400505"},{"coordinate":{"lat":52.0066680908203,"lng":4.35638904571533},"countryCode":"NL","name":"Delft","stationCode":"DT","uicCode":"8400170"},{"coordinate":{"lat":51.9908332824707,"lng":4.36472225189209},"countryCode":"NL","name":"Delft Campus","stationCode":"DTCP","uicCode":"8400166"},{"coordinate":{"lat":51.9212438128032,"lng":4.4089937210083},"countryCode":"NL","name":"Schiedam Centrum","stationCode":"SDM","uicCode":"8400553"},{"coordinate":{"lat":51.9249992370605,"lng":4.46888875961304},"countryCode":"NL","name":"Rotterdam Centraal","stationCode":"RTD","uicCode":"8400530"}],"direction":"BOTH"},"consequence":{"section":{"stations":[{"coordinate":{"lat":52.0697212219238,"lng":4.32250022888184},"countryCode":"NL","name":"Den Haag HS","stationCode":"GV","uicCode":"8400280"},{"coordinate":{"lat":52.0538902282715,"lng":4.3086109161377},"countryCode":"NL","name":"Den Haag Moerwijk","stationCode":"GVMW","uicCode":"8400279"},{"coordinate":{"lat":52.039722442627,"lng":4.31916666030884},"countryCode":"NL","name":"Rijswijk","stationCode":"RSW","uicCode":"8400505"},{"coordinate":{"lat":52.0066680908203,"lng":4.35638904571533},"countryCode":"NL","name":"Delft","stationCode":"DT","uicCode":"8400170"},{"coordinate":{"lat":51.9908332824707,"lng":4.36472225189209},"countryCode":"NL","name":"Delft Campus","stationCode":"DTCP","uicCode":"8400166"},{"coordinate":{"lat":51.9212438128032,"lng":4.4089937210083},"countryCode":"NL","name":"Schiedam Centrum","stationCode":"SDM","uicCode":"8400553"},{"coordinate":{"lat":51.9249992370605,"lng":4.46888875961304},"countryCode":"NL","name":"Rotterdam Centraal","stationCode":"RTD","uicCode":"8400530"}],"direction":"ONE_WAY"},"description":"rijden bussen","level":"LESS_TRAINS"},"sectionType":"NL"}],"summaryAdditionalTravelTime":{"label":"De extra reistijd is ongeveer 30 minuten.","shortLabel":"extra reistijd 30 min.","minimumDurationInMinutes":30,"maximumDurationInMinutes":30},"timespans":[{"start":"2024-04-18T01:20:00+0200","end":"2024-04-18T05:15:00+0200","period":"Donderdag 18 april 1:20 uur t/m donderdag 18 april 5:15 uur.","situation":{"label":"Door werkzaamheden: tussen Den Haag HS en Rotterdam Centraal rijden er bussen."},"cause":{"label":"werkzaamheden"},"additionalTravelTime":{"label":"De extra reistijd is ongeveer 30 minuten.","shortLabel":"extra reistijd 30 min.","minimumDurationInMinutes":30,"maximumDurationInMinutes":30},"alternativeTransport":{"label":"er rijden snelbussen","shortLabel":"er rijden snelbussen"},"advices":[]}],"alternativeTransportTimespans":[{"start":"2024-04-18T01:20:00+0200","end":"2024-04-18T05:15:00+0200","alternativeTransport":{"location":[{"station":{"coordinate":{"lat":52.0697212219238,"lng":4.32250022888184},"countryCode":"NL","name":"Den Haag HS","stationCode":"GV","uicCode":"8400280"},"description":"vanaf de achterzijde van het station"},{"station":{"coordinate":{"lat":52.0066680908203,"lng":4.35638904571533},"countryCode":"NL","name":"Delft","stationCode":"DT","uicCode":"8400170"},"description":"vanaf het busplatform"},{"station":{"coordinate":{"lat":51.9249992370605,"lng":4.46888875961304},"countryCode":"NL","name":"Rotterdam Centraal","stationCode":"RTD","uicCode":"8400530"},"description":"vanaf de Conradstraat aan de centrumzijde"}],"label":"Er rijden snelbussen tussen Den Haag HS, Delft en Rotterdam Centraal.","shortLabel":"er rijden snelbussen Den Haag HS - Delft - Rotterdam C."}}]},{"type":"MAINTENANCE","id":"7004764","title":"Heerlen - Aachen Hbf.","isActive":false,"local":false,"titleSections":[[{"type":"STATION","value":"Heerlen"},{"type":"ICON","value":"MAINTENANCE"},{"type":"STATION","value":"Aachen Hbf"}]],"registrationTime":"2024-04-08T10:43:48+0200","start":"2024-04-18T08:45:00+0200","releaseTime":"2024-04-08T10:43:48+0200","end":"2024-04-18T12:15:00+0200","period":"Donderdag 18 april 8:45 uur t/m donderdag 18 april 12:15 uur.","impact":{"value":2},"publicationSections":[{"section":{"stations":[{"coordinate":{"lat":50.8908348083496,"lng":5.97499990463257},"countryCode":"NL","name":"Heerlen","stationCode":"HRL","uicCode":"8400307"},{"coordinate":{"lat":50.8963890075684,"lng":6.01916646957398},"countryCode":"NL","name":"Landgraaf","stationCode":"LG","uicCode":"8400548"},{"coordinate":{"lat":50.8960498196442,"lng":6.0602474212646396},"countryCode":"NL","name":"Eygelshoven Markt","stationCode":"EGHM","uicCode":"8400234"},{"coordinate":{"lat":50.870916,"lng":6.094486},"countryCode":"D","name":"Herzogenrath","stationCode":"HZ","uicCode":"8015190"},{"coordinate":{"lat":50.7678,"lng":6.091499},"countryCode":"D","name":"Aachen Hbf","stationCode":"AHBF","uicCode":"8015345"}],"direction":"BOTH"},"consequence":{"section":{"stations":[{"coordinate":{"lat":50.8908348083496,"lng":5.97499990463257},"countryCode":"NL","name":"Heerlen","stationCode":"HRL","uicCode":"8400307"},{"coordinate":{"lat":50.8963890075684,"lng":6.01916646957398},"countryCode":"NL","name":"Landgraaf","stationCode":"LG","uicCode":"8400548"},{"coordinate":{"lat":50.8960498196442,"lng":6.0602474212646396},"countryCode":"NL","name":"Eygelshoven Markt","stationCode":"EGHM","uicCode":"8400234"},{"coordinate":{"lat":50.870916,"lng":6.094486},"countryCode":"D","name":"Herzogenrath","stationCode":"HZ","uicCode":"8015190"},{"coordinate":{"lat":50.7678,"lng":6.091499},"countryCode":"D","name":"Aachen Hbf","stationCode":"AHBF","uicCode":"8015345"}],"direction":"ONE_WAY"},"description":"minder treinen","level":"LESS_TRAINS"},"sectionType":"NEIGHBORING_COUNTRY"}],"summaryAdditionalTravelTime":{"label":"De extra reistijd is ongeveer 30 minuten.","shortLabel":"extra reistijd 30 min.","minimumDurationInMinutes":30,"maximumDurationInMinutes":30},"timespans":[{"start":"2024-04-18T08:45:00+0200","end":"2024-04-18T12:15:00+0200","period":"Donderdag 18 april 8:45 uur t/m donderdag 18 april 12:15 uur.","situation":{"label":"Door werkzaamheden: tussen Heerlen en Aachen Hbf rijden er minder treinen."},"cause":{"label":"werkzaamheden"},"additionalTravelTime":{"label":"De extra reistijd is ongeveer 30 minuten.","shortLabel":"extra reistijd 30 min.","minimumDurationInMinutes":30,"maximumDurationInMinutes":30},"alternativeTransport":{"label":"er rijden stopbussen","shortLabel":"er rijden stopbussen"},"advices":["Enkele treinen zijn vervangen door een stopbus. U kunt ook met een trein eerder of later reizen."]}],"alternativeTransportTimespans":[{"start":"2024-04-18T08:45:00+0200","end":"2024-04-18T12:15:00+0200","alternativeTransport":{"location":[{"station":{"coordinate":{"lat":50.8908348083496,"lng":5.97499990463257},"countryCode":"NL","name":"Heerlen","stationCode":"HRL","uicCode":"8400307"},"description":"vanaf de voorzijde van het station"},{"station":{"coordinate":{"lat":50.8963890075684,"lng":6.01916646957398},"countryCode":"NL","name":"Landgraaf","stationCode":"LG","uicCode":"8400548"},"description":"vanaf de doorgaande weg, voorzijde station"},{"station":{"coordinate":{"lat":50.8960498196442,"lng":6.0602474212646396},"countryCode":"NL","name":"Eygelshoven Markt","stationCode":"EGHM","uicCode":"8400234"},"description":"vanaf de bushalte Centrum"},{"station":{"coordinate":{"lat":50.870916,"lng":6.094486},"countryCode":"D","name":"Herzogenrath","stationCode":"HZ","uicCode":"8015190"},"description":"volg de aanwijzingen op het station"},{"station":{"coordinate":{"lat":50.78036,"lng":6.070715},"countryCode":"D","name":"Aachen West","stationCode":"AW","uicCode":"8015199"},"description":"volg de aanwijzingen op het station"},{"station":{"coordinate":{"lat":50.7678,"lng":6.091499},"countryCode":"D","name":"Aachen Hbf","stationCode":"AHBF","uicCode":"8015345"},"description":"volg de aanwijzingen op het station"}],"label":"Er rijden stopbussen tussen Heerlen, Landgraaf, Eygelshoven Markt, Herzogenrath, Aachen West en Aachen Hbf.","shortLabel":"er rijden stopbussen Heerlen - Landgraaf - Eygelshoven Mrkt - Herzogenrath - Aachen West - Aachen Hbf"}}]},{"type":"MAINTENANCE","id":"7004853","title":"Arnhem - Nijmegen; Arnhem - Tiel.","isActive":false,"local":false,"titleSections":[[{"type":"STATION","value":"Arnhem C."},{"type":"ICON","value":"MAINTENANCE"},{"type":"STATION","value":"Nijmegen"}],[{"type":"STATION","value":"Arnhem C."},{"type":"STATION","value":"Elst"},{"type":"ICON","value":"MAINTENANCE"},{"type":"STATION","value":"Tiel"}]],"registrationTime":"2024-04-15T12:35:27+0200","start":"2024-04-19T01:00:00+0200","releaseTime":"2024-04-15T12:35:27+0200","end":"2024-04-22T02:00:00+0200","period":"Vrijdag 19 april 1:00 uur t/m maandag 22 april 2:00 uur.","impact":{"value":4},"publicationSections":[{"section":{"stations":[{"coordinate":{"lat":51.9850006103516,"lng":5.89916658401489},"countryCode":"NL","name":"Arnhem Centraal","stationCode":"AH","uicCode":"8400071"},{"coordinate":{"lat":51.9550018310547,"lng":5.85194444656372},"countryCode":"NL","name":"Arnhem Zuid","stationCode":"AHZ","uicCode":"8400227"},{"coordinate":{"lat":51.9169425964355,"lng":5.85500001907349},"countryCode":"NL","name":"Elst","stationCode":"EST","uicCode":"8400207"},{"coordinate":{"lat":51.863154,"lng":5.859625},"countryCode":"NL","name":"Nijmegen Lent","stationCode":"NML","uicCode":"8400451"},{"coordinate":{"lat":51.8436126708984,"lng":5.85222244262695},"countryCode":"NL","name":"Nijmegen","stationCode":"NM","uicCode":"8400470"}],"direction":"BOTH"},"consequence":{"section":{"stations":[{"coordinate":{"lat":51.9850006103516,"lng":5.89916658401489},"countryCode":"NL","name":"Arnhem Centraal","stationCode":"AH","uicCode":"8400071"},{"coordinate":{"lat":51.9550018310547,"lng":5.85194444656372},"countryCode":"NL","name":"Arnhem Zuid","stationCode":"AHZ","uicCode":"8400227"},{"coordinate":{"lat":51.9169425964355,"lng":5.85500001907349},"countryCode":"NL","name":"Elst","stationCode":"EST","uicCode":"8400207"},{"coordinate":{"lat":51.863154,"lng":5.859625},"countryCode":"NL","name":"Nijmegen Lent","stationCode":"NML","uicCode":"8400451"},{"coordinate":{"lat":51.8436126708984,"lng":5.85222244262695},"countryCode":"NL","name":"Nijmegen","stationCode":"NM","uicCode":"8400470"}],"direction":"ONE_WAY"},"description":"rijden bussen","level":"LESS_TRAINS"},"sectionType":"NL"},{"section":{"stations":[{"coordinate":{"lat":51.9850006103516,"lng":5.89916658401489},"countryCode":"NL","name":"Arnhem Centraal","stationCode":"AH","uicCode":"8400071"},{"coordinate":{"lat":51.9550018310547,"lng":5.85194444656372},"countryCode":"NL","name":"Arnhem Zuid","stationCode":"AHZ","uicCode":"8400227"},{"coordinate":{"lat":51.9169425964355,"lng":5.85500001907349},"countryCode":"NL","name":"Elst","stationCode":"EST","uicCode":"8400207"},{"coordinate":{"lat":51.920056,"lng":5.7228408},"countryCode":"NL","name":"Zetten-Andelst","stationCode":"ZA","uicCode":"8400734"},{"coordinate":{"lat":51.9222129,"lng":5.6737254},"countryCode":"NL","name":"Hemmen-Dodewaard","stationCode":"HMN","uicCode":"8400315"},{"coordinate":{"lat":51.9261615,"lng":5.6371145},"countryCode":"NL","name":"Opheusden","stationCode":"OP","uicCode":"8400494"},{"coordinate":{"lat":51.9313869,"lng":5.5833465},"countryCode":"NL","name":"Kesteren","stationCode":"KTR","uicCode":"8400359"},{"coordinate":{"lat":51.8894462585449,"lng":5.42222213745117},"countryCode":"NL","name":"Tiel","stationCode":"TL","uicCode":"8400596"}],"direction":"BOTH"},"consequence":{"section":{"stations":[{"coordinate":{"lat":51.9169425964355,"lng":5.85500001907349},"countryCode":"NL","name":"Elst","stationCode":"EST","uicCode":"8400207"},{"coordinate":{"lat":51.920056,"lng":5.7228408},"countryCode":"NL","name":"Zetten-Andelst","stationCode":"ZA","uicCode":"8400734"},{"coordinate":{"lat":51.9222129,"lng":5.6737254},"countryCode":"NL","name":"Hemmen-Dodewaard","stationCode":"HMN","uicCode":"8400315"},{"coordinate":{"lat":51.9261615,"lng":5.6371145},"countryCode":"NL","name":"Opheusden","stationCode":"OP","uicCode":"8400494"},{"coordinate":{"lat":51.9313869,"lng":5.5833465},"countryCode":"NL","name":"Kesteren","stationCode":"KTR","uicCode":"8400359"},{"coordinate":{"lat":51.8894462585449,"lng":5.42222213745117},"countryCode":"NL","name":"Tiel","stationCode":"TL","uicCode":"8400596"}],"direction":"ONE_WAY"},"description":"rijden bussen","level":"LESS_TRAINS"},"sectionType":"NL"}],"summaryAdditionalTravelTime":{"label":"De extra reistijd kan oplopen tot 60 minuten.","shortLabel":"extra reistijd tot 60 min.","maximumDurationInMinutes":60},"timespans":[{"start":"2024-04-19T01:00:00+0200","end":"2024-04-22T02:00:00+0200","period":"Vrijdag 19 april 1:00 uur t/m maandag 22 april 2:00 uur.","situation":{"label":"Door herstelwerkzaamheden: tussen Arnhem Centraal en Nijmegen rijden er bussen en tussen Elst en Tiel rijden er bussen."},"cause":{"label":"herstelwerkzaamheden"},"additionalTravelTime":{"label":"De extra reistijd kan oplopen tot 60 minuten.","shortLabel":"extra reistijd tot 60 min.","maximumDurationInMinutes":60},"alternativeTransport":{"label":"er rijden stop- en snelbussen","shortLabel":"er rijden stop- en snelbussen"},"advices":["Stel uw reis tussen Arnhem Centraal en Nijmegen uit of kies een andere vorm van vervoer. Voor noodzakelijke reizen zijn er beperkt bussen beschikbaar.","tussen Utrecht C. en Nijmegen reis via 's-Hertogenbosch"]}],"alternativeTransportTimespans":[{"start":"2024-04-19T01:00:00+0200","end":"2024-04-20T02:00:00+0200","alternativeTransport":{"location":[{"station":{"coordinate":{"lat":51.9850006103516,"lng":5.89916658401489},"countryCode":"NL","name":"Arnhem Centraal","stationCode":"AH","uicCode":"8400071"},"description":"vanaf de bus-terminal"},{"station":{"coordinate":{"lat":51.9550018310547,"lng":5.85194444656372},"countryCode":"NL","name":"Arnhem Zuid","stationCode":"AHZ","uicCode":"8400227"},"description":"vanaf de bushalte"},{"station":{"coordinate":{"lat":51.9169425964355,"lng":5.85500001907349},"countryCode":"NL","name":"Elst","stationCode":"EST","uicCode":"8400207"},"description":"vanaf de voorzijde van het station"},{"station":{"coordinate":{"lat":51.863154,"lng":5.859625},"countryCode":"NL","name":"Nijmegen Lent","stationCode":"NML","uicCode":"8400451"},"description":"vanaf het Hertog Eduardplein"},{"station":{"coordinate":{"lat":51.8436126708984,"lng":5.85222244262695},"countryCode":"NL","name":"Nijmegen","stationCode":"NM","uicCode":"8400470"},"description":"vanaf de voorzijde van het station"}],"label":"Er rijden stopbussen tussen Arnhem Centraal, Arnhem Zuid, Elst, Nijmegen Lent en Nijmegen.","shortLabel":"er rijden stopbussen Arnhem C. - Arnhem Zuid - Elst - Lent - Nijmegen"}},{"start":"2024-04-19T01:00:00+0200","end":"2024-04-20T02:00:00+0200","alternativeTransport":{"location":[{"station":{"coordinate":{"lat":51.9169425964355,"lng":5.85500001907349},"countryCode":"NL","name":"Elst","stationCode":"EST","uicCode":"8400207"},"description":"vanaf de bushalte"},{"station":{"coordinate":{"lat":51.920056,"lng":5.7228408},"countryCode":"NL","name":"Zetten-Andelst","stationCode":"ZA","uicCode":"8400734"},"description":"vanaf de bushalte"},{"station":{"coordinate":{"lat":51.9222129,"lng":5.6737254},"countryCode":"NL","name":"Hemmen-Dodewaard","stationCode":"HMN","uicCode":"8400315"},"description":"vanaf de doorgaande weg"},{"station":{"coordinate":{"lat":51.9261615,"lng":5.6371145},"countryCode":"NL","name":"Opheusden","stationCode":"OP","uicCode":"8400494"},"description":"vanaf de bushalte aan de overkant van de brug"},{"station":{"coordinate":{"lat":51.9313869,"lng":5.5833465},"countryCode":"NL","name":"Kesteren","stationCode":"KTR","uicCode":"8400359"},"description":"vanaf de voorzijde van het station"},{"station":{"coordinate":{"lat":51.8894462585449,"lng":5.42222213745117},"countryCode":"NL","name":"Tiel","stationCode":"TL","uicCode":"8400596"},"description":"vanaf het busstation, aan de treinvervangend vervoer halte"}],"label":"Er rijden stopbussen tussen Elst, Zetten-Andelst, Hemmen-Dodewaard, Opheusden, Kesteren en Tiel.","shortLabel":"er rijden stopbussen Elst - Zetten-Andelst - Hemmen-Dodew. - Opheusden - Kesteren - Tiel"}},{"start":"2024-04-20T00:40:00+0200","end":"2024-04-20T02:35:00+0200","alternativeTransport":{"location":[{"station":{"coordinate":{"lat":51.9850006103516,"lng":5.89916658401489},"countryCode":"NL","name":"Arnhem Centraal","stationCode":"AH","uicCode":"8400071"},"description":"vanaf de bus-terminal"},{"station":{"coordinate":{"lat":51.9169425964355,"lng":5.85500001907349},"countryCode":"NL","name":"Elst","stationCode":"EST","uicCode":"8400207"},"description":"vanaf de voorzijde van het station"},{"station":{"coordinate":{"lat":51.8436126708984,"lng":5.85222244262695},"countryCode":"NL","name":"Nijmegen","stationCode":"NM","uicCode":"8400470"},"description":"vanaf de voorzijde van het station"}],"label":"Er rijden snelbussen tussen Arnhem Centraal, Elst en Nijmegen.","shortLabel":"er rijden snelbussen Arnhem C. - Elst - Nijmegen"}},{"start":"2024-04-20T02:01:00+0200","end":"2024-04-22T02:00:00+0200","alternativeTransport":{"location":[{"station":{"coordinate":{"lat":51.9850006103516,"lng":5.89916658401489},"countryCode":"NL","name":"Arnhem Centraal","stationCode":"AH","uicCode":"8400071"},"description":"vanaf de bus-terminal"},{"station":{"coordinate":{"lat":51.9550018310547,"lng":5.85194444656372},"countryCode":"NL","name":"Arnhem Zuid","stationCode":"AHZ","uicCode":"8400227"},"description":"vanaf de bushalte"},{"station":{"coordinate":{"lat":51.9169425964355,"lng":5.85500001907349},"countryCode":"NL","name":"Elst","stationCode":"EST","uicCode":"8400207"},"description":"vanaf de voorzijde van het station"},{"station":{"coordinate":{"lat":51.863154,"lng":5.859625},"countryCode":"NL","name":"Nijmegen Lent","stationCode":"NML","uicCode":"8400451"},"description":"vanaf het Hertog Eduardplein"},{"station":{"coordinate":{"lat":51.8436126708984,"lng":5.85222244262695},"countryCode":"NL","name":"Nijmegen","stationCode":"NM","uicCode":"8400470"},"description":"vanaf de voorzijde van het station"}],"label":"Er rijden stopbussen tussen Arnhem Centraal, Arnhem Zuid, Elst, Nijmegen Lent en Nijmegen.","shortLabel":"er rijden stopbussen Arnhem C. - Arnhem Zuid - Elst - Lent - Nijmegen"}},{"start":"2024-04-20T02:01:00+0200","end":"2024-04-22T02:00:00+0200","alternativeTransport":{"location":[{"station":{"coordinate":{"lat":51.9169425964355,"lng":5.85500001907349},"countryCode":"NL","name":"Elst","stationCode":"EST","uicCode":"8400207"},"description":"vanaf de bushalte"},{"station":{"coordinate":{"lat":51.920056,"lng":5.7228408},"countryCode":"NL","name":"Zetten-Andelst","stationCode":"ZA","uicCode":"8400734"},"description":"vanaf de bushalte"},{"station":{"coordinate":{"lat":51.9222129,"lng":5.6737254},"countryCode":"NL","name":"Hemmen-Dodewaard","stationCode":"HMN","uicCode":"8400315"},"description":"vanaf de doorgaande weg"},{"station":{"coordinate":{"lat":51.9261615,"lng":5.6371145},"countryCode":"NL","name":"Opheusden","stationCode":"OP","uicCode":"8400494"},"description":"vanaf de bushalte aan de overkant van de brug"},{"station":{"coordinate":{"lat":51.9313869,"lng":5.5833465},"countryCode":"NL","name":"Kesteren","stationCode":"KTR","uicCode":"8400359"},"description":"vanaf de voorzijde van het station"},{"station":{"coordinate":{"lat":51.8894462585449,"lng":5.42222213745117},"countryCode":"NL","name":"Tiel","stationCode":"TL","uicCode":"8400596"},"description":"vanaf het busstation, aan de treinvervangend vervoer halte"}],"label":"Er rijden stopbussen tussen Elst, Zetten-Andelst, Hemmen-Dodewaard, Opheusden, Kesteren en Tiel.","shortLabel":"er rijden stopbussen Elst - Zetten-Andelst - Hemmen-Dodew. - Opheusden - Kesteren - Tiel"}},{"start":"2024-04-21T00:40:00+0200","end":"2024-04-21T02:35:00+0200","alternativeTransport":{"location":[{"station":{"coordinate":{"lat":51.9850006103516,"lng":5.89916658401489},"countryCode":"NL","name":"Arnhem Centraal","stationCode":"AH","uicCode":"8400071"},"description":"vanaf de bus-terminal"},{"station":{"coordinate":{"lat":51.9169425964355,"lng":5.85500001907349},"countryCode":"NL","name":"Elst","stationCode":"EST","uicCode":"8400207"},"description":"vanaf de voorzijde van het station"},{"station":{"coordinate":{"lat":51.8436126708984,"lng":5.85222244262695},"countryCode":"NL","name":"Nijmegen","stationCode":"NM","uicCode":"8400470"},"description":"vanaf de voorzijde van het station"}],"label":"Er rijden snelbussen tussen Arnhem Centraal, Elst en Nijmegen.","shortLabel":"er rijden snelbussen Arnhem C. - Elst - Nijmegen"}}]},{"type":"MAINTENANCE","id":"7004785","title":"Dordrecht - Breda; Rotterdam - Breda.","isActive":false,"local":false,"titleSections":[[{"type":"STATION","value":"Dordrecht"},{"type":"ICON","value":"MAINTENANCE"},{"type":"STATION","value":"Breda"}],[{"type":"STATION","value":"Rotterdam C."},{"type":"STATION","value":"Lombardijen"},{"type":"ICON","value":"MAINTENANCE"},{"type":"STATION","value":"Breda"}]],"registrationTime":"2024-03-26T13:16:32+0100","start":"2024-04-20T01:00:00+0200","releaseTime":"2024-03-26T13:16:32+0100","end":"2024-04-22T05:00:00+0200","period":"Zaterdag 20 april 1:00 uur t/m maandag 22 april 5:00 uur.","impact":{"value":4},"publicationSections":[{"section":{"stations":[{"coordinate":{"lat":51.8072204589844,"lng":4.66833353042603},"countryCode":"NL","name":"Dordrecht","stationCode":"DDR","uicCode":"8400180"},{"coordinate":{"lat":51.7900009155273,"lng":4.67138910293579},"countryCode":"NL","name":"Dordrecht Zuid","stationCode":"DDZD","uicCode":"8400181"},{"coordinate":{"lat":51.6911125183105,"lng":4.66305541992188},"countryCode":"NL","name":"Lage Zwaluwe","stationCode":"ZLW","uicCode":"8400382"},{"coordinate":{"lat":51.606388092041,"lng":4.72083330154419},"countryCode":"NL","name":"Breda-Prinsenbeek","stationCode":"BDPB","uicCode":"8400132"},{"coordinate":{"lat":51.5955543518066,"lng":4.78000020980835},"countryCode":"NL","name":"Breda","stationCode":"BD","uicCode":"8400131"}],"direction":"BOTH"},"consequence":{"section":{"stations":[{"coordinate":{"lat":51.8072204589844,"lng":4.66833353042603},"countryCode":"NL","name":"Dordrecht","stationCode":"DDR","uicCode":"8400180"},{"coordinate":{"lat":51.7900009155273,"lng":4.67138910293579},"countryCode":"NL","name":"Dordrecht Zuid","stationCode":"DDZD","uicCode":"8400181"},