[{"id":"6026184","type":"DISRUPTION","registrationTime":"2023-10-11T17:55:31+0200","releaseTime":"2023-10-11T17:55:31+0200","local":false,"title":"'s-Hertogenbosch-Eindhoven","titleSections":[[{"type":"STATION","value":"'s-Hertogenbosch"},{"type":"ICON","value":"DISRUPTION"},{"type":"STATION","value":"Boxtel"},{"type":"STATION","value":"Eindhoven C."}]],"topic":"disruption_6026184_nl","isActive":true,"start":"2023-10-11T13:07:33+0200","end":"2023-10-12T06:00:00+0200","phase":{"id":"3","label":"Vervangend vervoer"},"impact":{"value":4},"expectedDuration":{"description":"Dit duurt ten minste tot donderdag 12 oktober 06:00 uur.","endTime":"2023-10-12T06:00:00+0200"},"publicationSections":[{"section":{"stations":[{"uicCode":"8400319","stationCode":"HT","name":"'s-Hertogenbosch","coordinate":{"lat":51.69048,"lng":5.29362},"countryCode":"NL"},{"uicCode":"8400667","stationCode":"VG","name":"Vught","coordinate":{"lat":51.6555557250977,"lng":5.29194450378418},"countryCode":"NL"},{"uicCode":"8400129","stationCode":"BTL","name":"Boxtel","coordinate":{"lat":51.58433,"lng":5.31912},"countryCode":"NL"},{"uicCode":"8400112","stationCode":"BET","name":"Best","coordinate":{"lat":51.5099983215332,"lng":5.38916683197022},"countryCode":"NL"},{"uicCode":"8400196","stationCode":"EHS","name":"Eindhoven Strijp-S","coordinate":{"lat":51.4511108398438,"lng":5.45583343505859},"countryCode":"NL"},{"uicCode":"8400206","stationCode":"EHV","name":"Eindhoven Centraal","coordinate":{"lat":51.4433326721191,"lng":5.48138904571533},"countryCode":"NL"}],"direction":"BOTH"},"consequence":{"section":{"stations":[{"uicCode":"8400319","stationCode":"HT","name":"'s-Hertogenbosch","coordinate":{"lat":51.69048,"lng":5.29362},"countryCode":"NL"},{"uicCode":"8400667","stationCode":"VG","name":"Vught","coordinate":{"lat":51.6555557250977,"lng":5.29194450378418},"countryCode":"NL"},{"uicCode":"8400129","stationCode":"BTL","name":"Boxtel","coordinate":{"lat":51.58433,"lng":5.31912},"countryCode":"NL"}],"direction":"ONE_WAY"},"description":"geen treinen","level":"LESS_TRAINS"},"sectionType":"NL"}],"timespans":[{"start":"2023-10-11T13:07:33+0200","end":"2023-10-12T06:00:00+0200","situation":{"label":"Tussen 's-Hertogenbosch en Boxtel rijden er geen treinen door een defecte bovenleiding."},"cause":{"label":"Defecte bovenleiding"},"alternativeTransport":{"label":"Er rijden stopbussen.","shortLabel":"Er rijden stopbussen"},"advices":["Enkele laatste treinen kunnen worden omgeleid en rijden wel."]}],"alternativeTransportTimespans":[{"start":"2023-10-11T13:07:33+0200","end":"2023-10-12T06:00:00+0200","alternativeTransport":{"location":[{"station":{"uicCode":"8400319","stationCode":"HT","name":"'s-Hertogenbosch","coordinate":{"lat":51.69048,"lng":5.29362},"countryCode":"NL"},"description":"vanaf de speciale uitgang op het perron bij spoor 1"},{"station":{"uicCode":"8400667","stationCode":"VG","name":"Vught","coordinate":{"lat":51.6555557250977,"lng":5.29194450378418},"countryCode":"NL"},"description":"vanaf de voorzijde van het station"},{"station":{"uicCode":"8400129","stationCode":"BTL","name":"Boxtel","coordinate":{"lat":51.58433,"lng":5.31912},"countryCode":"NL"},"description":"vanaf het Q-park terrein"}],"label":"Er rijden stopbussen tussen 's-Hertogenbosch, Vught en Boxtel.","shortLabel":"Er rijden stopbussen: 's-Hertogenbosch, Vught, Boxtel"}}]},{"id":"6026186","type":"DISRUPTION","registrationTime":"2023-10-11T16:00:30+0200","releaseTime":"2023-10-11T16:00:30+0200","local":false,"title":"Utrecht-'s-Hertogenbosch","titleSections":[[{"type":"STATION","value":"Utrecht C."},{"type":"ICON","value":"DISRUPTION"},{"type":"STATION","value":"'s-Hertogenbosch"}]],"topic":"disruption_6026186_nl","isActive":true,"start":"2023-10-11T13:07:33+0200","end":"2023-10-12T06:00:00+0200","phase":{"id":"2","label":"Impact bekend"},"impact":{"value":2},"expectedDuration":{"description":"Dit duurt ten minste tot donderdag 12 oktober 06:00 uur.","endTime":"2023-10-12T06:00:00+0200"},"summaryAdditionalTravelTime":{"label":"De extra reistijd kan oplopen tot 15 minuten.","shortLabel":"Extra reistijd tot 15 min.","maximumDurationInMinutes":15},"publicationSections":[{"section":{"stations":[{"uicCode":"8400621","stationCode":"UT","name":"Utrecht Centraal","coordinate":{"lat":52.0888900756836,"lng":5.11027765274048},"countryCode":"NL"},{"uicCode":"8400606","stationCode":"UTVR","name":"Utrecht Vaartsche Rijn","coordinate":{"lat":52.078889,"lng":5.121667},"countryCode":"NL"},{"uicCode":"8400623","stationCode":"UTLN","name":"Utrecht Lunetten","coordinate":{"lat":52.0655555725098,"lng":5.14416646957397},"countryCode":"NL"},{"uicCode":"8400340","stationCode":"HTN","name":"Houten","coordinate":{"lat":52.03402,"lng":5.16821},"countryCode":"NL"},{"uicCode":"8400335","stationCode":"HTNC","name":"Houten Castellum","coordinate":{"lat":52.01701,"lng":5.17949},"countryCode":"NL"},{"uicCode":"8400154","stationCode":"CL","name":"Culemborg","coordinate":{"lat":51.9466667175293,"lng":5.22694444656372},"countryCode":"NL"},{"uicCode":"8400244","stationCode":"GDM","name":"Geldermalsen","coordinate":{"lat":51.88301,"lng":5.27127},"countryCode":"NL"},{"uicCode":"8400732","stationCode":"ZBM","name":"Zaltbommel","coordinate":{"lat":51.8088874816895,"lng":5.26333332061768},"countryCode":"NL"},{"uicCode":"8400319","stationCode":"HT","name":"'s-Hertogenbosch","coordinate":{"lat":51.69048,"lng":5.29362},"countryCode":"NL"}],"direction":"BOTH"},"consequence":{"section":{"stations":[{"uicCode":"8400621","stationCode":"UT","name":"Utrecht Centraal","coordinate":{"lat":52.0888900756836,"lng":5.11027765274048},"countryCode":"NL"},{"uicCode":"8400606","stationCode":"UTVR","name":"Utrecht Vaartsche Rijn","coordinate":{"lat":52.078889,"lng":5.121667},"countryCode":"NL"},{"uicCode":"8400623","stationCode":"UTLN","name":"Utrecht Lunetten","coordinate":{"lat":52.0655555725098,"lng":5.14416646957397},"countryCode":"NL"},{"uicCode":"8400340","stationCode":"HTN","name":"Houten","coordinate":{"lat":52.03402,"lng":5.16821},"countryCode":"NL"},{"uicCode":"8400335","stationCode":"HTNC","name":"Houten Castellum","coordinate":{"lat":52.01701,"lng":5.17949},"countryCode":"NL"},{"uicCode":"8400154","stationCode":"CL","name":"Culemborg","coordinate":{"lat":51.9466667175293,"lng":5.22694444656372},"countryCode":"NL"},{"uicCode":"8400244","stationCode":"GDM","name":"Geldermalsen","coordinate":{"lat":51.88301,"lng":5.27127},"countryCode":"NL"},{"uicCode":"8400732","stationCode":"ZBM","name":"Zaltbommel","coordinate":{"lat":51.8088874816895,"lng":5.26333332061768},"countryCode":"NL"},{"uicCode":"8400319","stationCode":"HT","name":"'s-Hertogenbosch","coordinate":{"lat":51.69048,"lng":5.29362},"countryCode":"NL"}],"direction":"ONE_WAY"},"description":"minder Intercity's","level":"LESS_TRAINS"},"sectionType":"NL"}],"timespans":[{"start":"2023-10-11T13:07:33+0200","end":"2023-10-12T06:00:00+0200","situation":{"label":"Tussen Utrecht Centraal en 's-Hertogenbosch rijden er minder Intercity's door een defecte bovenleiding."},"cause":{"label":"Defecte bovenleiding"},"additionalTravelTime":{"label":"De extra reistijd kan oplopen tot 15 minuten.","shortLabel":"Extra reistijd tot 15 min.","maximumDurationInMinutes":15},"advices":[]}],"alternativeTransportTimespans":[]},{"id":"b9269b00-4caa-423c-a659-5316f8b37cb8","title":"Werkzaamheden: van/naar Rotterdam Blaak","topic":"disruption_b9269b00-4caa-423c-a659-5316f8b37cb8_nl","description":"Door werkzaamheden van zaterdag 14 t/m donderdag 19 oktober stoppen geen treinen in Rotterdam Blaak.","priority":"PRIO_3","lastUpdated":"2023-10-11T07:30:00+0200","bodyItems":[{"content":{"text":"<p>Maak gebruik van RET-tram tussen Rotterdam Blaak en Rotterdam Centraal. Plan je reis vooraf.</p>"},"type":"TEXT"}],"buttons":{"position":["BOTTOM"],"items":[{"label":"Plan je reis","type":"PLANNER","accessibilityLabel":"Plan je reis","url":"https://www.ns.nl/reisplanner"}]},"url":"https://www.ns.nl/reisinformatie/calamiteiten/werkzaamheden-van-naar-rotterdam-blaak.html","type":"CALAMITY","isActive":true},{"id":"fb4eaa2f-14f3-4364-af47-f7ea3e36cdc6","title":"Werkzaamheden Eindhoven Centraal-Venlo","topic":"disruption_fb4eaa2f-14f3-4364-af47-f7ea3e36cdc6_nl","description":"Door werkzaamheden rijden er van zaterdag 14 t/m zondag 22 oktober geen treinen tussen Eindhoven Centraal/Helmond-Venlo.","priority":"PRIO_3","lastUpdated":"2023-10-11T07:30:00+0200","bodyItems":[{"content":{"text":"<p>Er rijden bussen tussen Eindhoven Centraal/Helmond en Venlo. Plan je reis vooraf.</p>"},"type":"TEXT"}],"buttons":{"position":["BOTTOM"],"items":[{"label":"Plan je reis","type":"PLANNER","accessibilityLabel":"Plan je reis","url":"https://www.ns.nl/reisplanner"}]},"url":"https://www.ns.nl/reisinformatie/calamiteiten/werkzaamheden-eindhoven-centraal-venlo.html","type":"CALAMITY","isActive":true},{"id":"7004039","type":"MAINTENANCE","registrationTime":"2023-10-10T15:29:14+0200","releaseTime":"2023-10-10T15:29:14+0200","local":false,"title":"Arnhem - Duisburg - Düsseldorf.","titleSections":[[{"type":"STATION","value":"Arnhem C."},{"type":"ICON","value":"MAINTENANCE"},{"type":"STATION","value":"Düsseldorf Hbf"}]],"isActive":false,"start":"2023-10-12T22:30:00+0200","end":"2023-10-12T23:59:00+0200","period":"Donderdag 12-10-2023 22:30 uur t/m donderdag 12-10-2023 23:59 uur.","impact":{"value":2},"summaryAdditionalTravelTime":{"label":"De extra reistijd kan oplopen tot 30 minuten.","shortLabel":"extra reistijd tot 30 min.","maximumDurationInMinutes":30},"publicationSections":[{"section":{"stations":[{"uicCode":"8400071","stationCode":"AH","name":"Arnhem Centraal","coordinate":{"lat":51.9850006103516,"lng":5.89916658401489},"countryCode":"NL"},{"uicCode":"8400072","stationCode":"AHP","name":"Arnhem Velperpoort","coordinate":{"lat":51.985279083252,"lng":5.91944456100464},"countryCode":"NL"},{"uicCode":"8400688","stationCode":"WTV","name":"Westervoort","coordinate":{"lat":51.96286,"lng":5.9695},"countryCode":"NL"},{"uicCode":"8400193","stationCode":"DVN","name":"Duiven","coordinate":{"lat":51.9433326721191,"lng":6.01472234725952},"countryCode":"NL"},{"uicCode":"8400735","stationCode":"ZV","name":"Zevenaar","coordinate":{"lat":51.9230537414551,"lng":6.07194423675537},"countryCode":"NL"},{"uicCode":"8033415","stationCode":"EL","name":"Emmerich-Elten","coordinate":{"lat":51.8743,"lng":6.15417},"countryCode":"D"},{"uicCode":"8010288","stationCode":"EM","name":"Emmerich","coordinate":{"lat":51.834283,"lng":6.255718},"countryCode":"D"},{"uicCode":"8010275","stationCode":"WESEL","name":"Wesel","coordinate":{"lat":51.655833,"lng":6.627222},"countryCode":"D"},{"uicCode":"8010263","stationCode":"OBERH","name":"Oberhausen Hbf","coordinate":{"lat":51.47512,"lng":6.852038},"countryCode":"D"},{"uicCode":"8010316","stationCode":"DUISB","name":"Duisburg Hbf","coordinate":{"lat":51.4297785713316,"lng":6.77590370178222},"countryCode":"D"},{"uicCode":"8039904","stationCode":"KDFFH","name":"Düsseldorf Flughafen","coordinate":{"lat":51.292009,"lng":6.786836},"countryCode":"D"},{"uicCode":"8008094","stationCode":"DUSSEL","name":"Düsseldorf Hbf","coordinate":{"lat":51.220146,"lng":6.793137},"countryCode":"D"}],"direction":"BOTH"},"consequence":{"section":{"stations":[{"uicCode":"8400071","stationCode":"AH","name":"Arnhem Centraal","coordinate":{"lat":51.9850006103516,"lng":5.89916658401489},"countryCode":"NL"},{"uicCode":"8400072","stationCode":"AHP","name":"Arnhem Velperpoort","coordinate":{"lat":51.985279083252,"lng":5.91944456100464},"countryCode":"NL"},{"uicCode":"8400688","stationCode":"WTV","name":"Westervoort","coordinate":{"lat":51.96286,"lng":5.9695},"countryCode":"NL"},{"uicCode":"8400193","stationCode":"DVN","name":"Duiven","coordinate":{"lat":51.9433326721191,"lng":6.01472234725952},"countryCode":"NL"},{"uicCode":"8400735","stationCode":"ZV","name":"Zevenaar","coordinate":{"lat":51.9230537414551,"lng":6.07194423675537},"countryCode":"NL"},{"uicCode":"8033415","stationCode":"EL","name":"Emmerich-Elten","coordinate":{"lat":51.8743,"lng":6.15417},"countryCode":"D"},{"uicCode":"8010288","stationCode":"EM","name":"Emmerich","coordinate":{"lat":51.834283,"lng":6.255718},"countryCode":"D"},{"uicCode":"8010275","stationCode":"WESEL","name":"Wesel","coordinate":{"lat":51.655833,"lng":6.627222},"countryCode":"D"},{"uicCode":"8010263","stationCode":"OBERH","name":"Oberhausen Hbf","coordinate":{"lat":51.47512,"lng":6.852038},"countryCode":"D"},{"uicCode":"8010316","stationCode":"DUISB","name":"Duisburg Hbf","coordinate":{"lat":51.4297785713316,"lng":6.77590370178222},"countryCode":"D"},{"uicCode":"8039904","stationCode":"KDFFH","name":"Düsseldorf Flughafen","coordinate":{"lat":51.292009,"lng":6.786836},"countryCode":"D"},{"uicCode":"8008094","stationCode":"DUSSEL","name":"Düsseldorf Hbf","coordinate":{"lat":51.220146,"lng":6.793137},"countryCode":"D"}],"direction":"ONE_WAY"},"description":"rijden bussen","level":"LESS_TRAINS"},"sectionType":"NEIGHBORING_COUNTRY"}],"timespans":[{"start":"2023-10-12T22:30:00+0200","end":"2023-10-12T23:59:00+0200","period":"Donderdag 12-10-2023 22:30 uur t/m donderdag 12-10-2023 23:59 uur.","situation":{"label":"Door werkzaamheden: tussen Arnhem Centraal en Düsseldorf Hbf rijden er bussen."},"cause":{"label":"werkzaamheden"},"additionalTravelTime":{"label":"De extra reistijd kan oplopen tot 30 minuten.","shortLabel":"extra reistijd tot 30 min.","maximumDurationInMinutes":30},"alternativeTransport":{"label":"er rijden stopbussen","shortLabel":"er rijden stopbussen"},"advices":[]}],"alternativeTransportTimespans":[{"start":"2023-10-12T22:30:00+0200","end":"2023-10-12T23:59:00+0200","alternativeTransport":{"location":[{"station":{"uicCode":"8400071","stationCode":"AH","name":"Arnhem Centraal","coordinate":{"lat":51.9850006103516,"lng":5.89916658401489},"countryCode":"NL"},"description":"vanaf het streekbusstation"},{"station":{"uicCode":"8400735","stationCode":"ZV","name":"Zevenaar","coordinate":{"lat":51.9230537414551,"lng":6.07194423675537},"countryCode":"NL"},"description":"vanaf het stationsplein bij de Kiss & Ride plaatsen, aan beide zijden van de weg"}],"label":"Er rijden stopbussen tussen Arnhem Centraal, Zevenaar, Emmerich-Elten en Emmerich.","shortLabel":"er rijden stopbussen Arnhem C. - Zevenaar - Emmerich-Elten - Emmerich"}}]},{"id":"7003973","type":"MAINTENANCE","registrationTime":"2023-09-18T09:49:14+0200","releaseTime":"2023-09-18T09:49:14+0200","local":false,"title":"Amsterdam Amstel.","titleSections":[[{"type":"STATION","value":"Amstel"}]],"isActive":false,"start":"2023-10-13T18:15:00+0200","end":"2023-10-14T00:00:00+0200","period":"Vrijdag 13-10-2023 18:15 uur t/m zaterdag 14-10-2023 00:00 uur.","impact":{"value":2},"summaryAdditionalTravelTime":{"label":"U heeft geen langere reistijd.","shortLabel":"Geen extra reistijd"},"publicationSections":[{"section":{"stations":[{"uicCode":"8400058","stationCode":"ASD","name":"Amsterdam Centraal","coordinate":{"lat":52.3788871765137,"lng":4.90027761459351},"countryCode":"NL"},{"uicCode":"8400060","stationCode":"ASDM","name":"Amsterdam Muiderpoort","coordinate":{"lat":52.3605537414551,"lng":4.93111133575439},"countryCode":"NL"},{"uicCode":"8400057","stationCode":"ASA","name":"Amsterdam Amstel","coordinate":{"lat":52.3466682434082,"lng":4.91777801513672},"countryCode":"NL"},{"uicCode":"8400194","stationCode":"DVD","name":"Duivendrecht","coordinate":{"lat":52.3233337402344,"lng":4.93638896942139},"countryCode":"NL"},{"uicCode":"8400074","stationCode":"ASB","name":"Amsterdam Bijlmer ArenA","coordinate":{"lat":52.3122215270996,"lng":4.94694423675537},"countryCode":"NL"},{"uicCode":"8400231","stationCode":"ASHD","name":"Amsterdam Holendrecht","coordinate":{"lat":52.29844,"lng":4.95972},"countryCode":"NL"},{"uicCode":"8400047","stationCode":"AC","name":"Abcoude","coordinate":{"lat":52.2785,"lng":4.977},"countryCode":"NL"},{"uicCode":"8400133","stationCode":"BKL","name":"Breukelen","coordinate":{"lat":52.17149,"lng":4.9906},"countryCode":"NL"},{"uicCode":"8400419","stationCode":"MAS","name":"Maarssen","coordinate":{"lat":52.1352767944336,"lng":5.03361129760742},"countryCode":"NL"},{"uicCode":"8400613","stationCode":"UTZL","name":"Utrecht Zuilen","coordinate":{"lat":52.103055,"lng":5.09},"countryCode":"NL"},{"uicCode":"8400621","stationCode":"UT","name":"Utrecht Centraal","coordinate":{"lat":52.0888900756836,"lng":5.11027765274048},"countryCode":"NL"}],"direction":"BOTH"},"consequence":{"section":{"stations":[{"uicCode":"8400057","stationCode":"ASA","name":"Amsterdam Amstel","coordinate":{"lat":52.3466682434082,"lng":4.91777801513672},"countryCode":"NL"}],"direction":"ONE_WAY"},"description":"dienstregeling aangepast","level":"LESS_TRAINS"},"sectionType":"NL"}],"timespans":[{"start":"2023-10-13T18:15:00+0200","end":"2023-10-14T00:00:00+0200","period":"Vrijdag 13-10-2023 18:15 uur t/m zaterdag 14-10-2023 00:00 uur.","situation":{"label":"Door een evenement: van, via en naar Amsterdam Amstel is de dienstregeling aangepast."},"cause":{"label":"evenement"},"additionalTravelTime":{"label":"U heeft geen langere reistijd.","shortLabel":"Geen extra reistijd"},"advices":["een aantal Intercity's stopt niet in Amsterdam Amstel, wel extra in Amsterdam Bijlmer Arena."]}],"alternativeTransportTimespans":[]},{"id":"7004054","type":"MAINTENANCE","registrationTime":"2023-10-03T15:25:59+0200","releaseTime":"2023-10-03T15:25:59+0200","local":false,"title":"Rotterdam - Breda (HSL).","titleSections":[[{"type":"STATION","value":"Rotterdam C."},{"type":"ICON","value":"MAINTENANCE"},{"type":"STATION","value":"Breda"}]],"isActive":false,"start":"2023-10-13T23:45:00+0200","end":"2023-10-16T02:00:00+0200","period":"Vrijdag 13-10-2023 23:45 uur t/m maandag 16-10-2023 02:00 uur.","impact":{"value":2},"summaryAdditionalTravelTime":{"label":"De extra reistijd is ongeveer 0 minuten.","shortLabel":"extra reistijd 0 min.","minimumDurationInMinutes":0,"maximumDurationInMinutes":0},"publicationSections":[{"section":{"stations":[{"uicCode":"8400530","stationCode":"RTD","name":"Rotterdam Centraal","coordinate":{"lat":51.9249992370605,"lng":4.46888875961304},"countryCode":"NL"},{"uicCode":"8400529","stationCode":"RTB","name":"Rotterdam Blaak","coordinate":{"lat":51.9202766418457,"lng":4.48888874053955},"countryCode":"NL"},{"uicCode":"8400533","stationCode":"RTZ","name":"Rotterdam Zuid","coordinate":{"lat":51.9044456481934,"lng":4.51027774810791},"countryCode":"NL"},{"uicCode":"8400542","stationCode":"RLB","name":"Rotterdam Lombardijen","coordinate":{"lat":51.8800010681152,"lng":4.53138875961304},"countryCode":"NL"},{"uicCode":"8400132","stationCode":"BDPB","name":"Breda-Prinsenbeek","coordinate":{"lat":51.606388092041,"lng":4.72083330154419},"countryCode":"NL"},{"uicCode":"8400131","stationCode":"BD","name":"Breda","coordinate":{"lat":51.5955543518066,"lng":4.78000020980835},"countryCode":"NL"}],"direction":"BOTH"},"consequence":{"section":{"stations":[{"uicCode":"8400530","stationCode":"RTD","name":"Rotterdam Centraal","coordinate":{"lat":51.9249992370605,"lng":4.46888875961304},"countryCode":"NL"},{"uicCode":"8400529","stationCode":"RTB","name":"Rotterdam Blaak","coordinate":{"lat":51.9202766418457,"lng":4.48888874053955},"countryCode":"NL"},{"uicCode":"8400533","stationCode":"RTZ","name":"Rotterdam Zuid","coordinate":{"lat":51.9044456481934,"lng":4.51027774810791},"countryCode":"NL"},{"uicCode":"8400542","stationCode":"RLB","name":"Rotterdam Lombardijen","coordinate":{"lat":51.8800010681152,"lng":4.53138875961304},"countryCode":"NL"},{"uicCode":"8400132","stationCode":"BDPB","name":"Breda-Prinsenbeek","coordinate":{"lat":51.606388092041,"lng":4.72083330154419},"countryCode":"NL"},{"uicCode":"8400131","stationCode":"BD","name":"Breda","coordinate":{"lat":51.5955543518066,"lng":4.78000020980835},"countryCode":"NL"}],"direction":"ONE_WAY"},"description":"geen treinen op de HSL","level":"LESS_TRAINS"},"sectionType":"HSL"}],"timespans":[{"start":"2023-10-13T23:45:00+0200","end":"2023-10-16T02:00:00+0200","period":"Vrijdag 13-10-2023 23:45 uur t/m maandag 16-10-2023 02:00 uur.","situation":{"label":"Door werkzaamheden aan de Hogesnelheidslijn: tussen Rotterdam Centraal en Breda rijden er op de hogesnelheidslijn geen treinen."},"cause":{"label":"werkzaamheden HSL"},"additionalTravelTime":{"label":"De extra reistijd is ongeveer 0 minuten.","shortLabel":"extra reistijd 0 min.","minimumDurationInMinutes":0,"maximumDurationInMinutes":0},"advices":["tussen Rotterdam C. en Breda reist u via Dordrecht"]}],"alternativeTransportTimespans":[]},{"id":"7004012","type":"MAINTENANCE","registrationTime":"2023-09-21T14:10:14+0200","releaseTime":"2023-09-21T14:10:14+0200","local":false,"title":"Amsterdam - Haarlem - Leiden; Amsterdam Zuid - Den Haag.","titleSections":[[{"type":"STATION","value":"Amsterdam Zuid"},{"type":"STATION","value":"Schiphol Airport"},{"type":"ICON","value":"MAINTENANCE"},{"type":"STATION","value":"Den Haag C."}],[{"type":"STATION","value":"Amsterdam C."},{"type":"ICON","value":"MAINTENANCE"},{"type":"STATION","value":"Leiden C."}]],"isActive":false,"start":"2023-10-14T00:30:00+0200","end":"2023-10-15T07:05:00+0200","period":"Zaterdag 14-10-2023 00:30 uur t/m zondag 15-10-2023 07:05 uur.","impact":{"value":3},"summaryAdditionalTravelTime":{"label":"De extra reistijd is ongeveer 0 minuten.","shortLabel":"extra reistijd 0 min.","minimumDurationInMinutes":0,"maximumDurationInMinutes":0},"publicationSections":[{"section":{"stations":[{"uicCode":"8400061","stationCode":"ASDZ","name":"Amsterdam Zuid","coordinate":{"lat":52.338889,"lng":4.872356},"countryCode":"NL"},{"uicCode":"8400561","stationCode":"SHL","name":"Schiphol Airport","coordinate":{"lat":52.3094444274902,"lng":4.76194429397583},"countryCode":"NL"},{"uicCode":"8400332","stationCode":"HFD","name":"Hoofddorp","coordinate":{"lat":52.2933349609375,"lng":4.70055532455444},"countryCode":"NL"},{"uicCode":"8400460","stationCode":"NVP","name":"Nieuw Vennep","coordinate":{"lat":52.2588882446289,"lng":4.64555549621582},"countryCode":"NL"},{"uicCode":"8400603","stationCode":"SSH","name":"Sassenheim","coordinate":{"lat":52.215278,"lng":4.517222},"countryCode":"NL"},{"uicCode":"8400390","stationCode":"LEDN","name":"Leiden Centraal","coordinate":{"lat":52.1661109924316,"lng":4.48166656494141},"countryCode":"NL"},{"uicCode":"8400188","stationCode":"DVNK","name":"De Vink","coordinate":{"lat":52.1472206115723,"lng":4.4563889503479},"countryCode":"NL"},{"uicCode":"8400659","stationCode":"VST","name":"Voorschoten","coordinate":{"lat":52.1252784729004,"lng":4.43249988555908},"countryCode":"NL"},{"uicCode":"8400278","stationCode":"GVM","name":"Den Haag Mariahoeve","coordinate":{"lat":52.0905570983887,"lng":4.36944437026978},"countryCode":"NL"},{"uicCode":"8400380","stationCode":"LAA","name":"Den Haag Laan v NOI","coordinate":{"lat":52.0786094665527,"lng":4.34277772903442},"countryCode":"NL"},{"uicCode":"8400282","stationCode":"GVC","name":"Den Haag Centraal","coordinate":{"lat":52.0802764892578,"lng":4.32499980926514},"countryCode":"NL"}],"direction":"BOTH"},"consequence":{"section":{"stations":[{"uicCode":"8400561","stationCode":"SHL","name":"Schiphol Airport","coordinate":{"lat":52.3094444274902,"lng":4.76194429397583},"countryCode":"NL"},{"uicCode":"8400332","stationCode":"HFD","name":"Hoofddorp","coordinate":{"lat":52.2933349609375,"lng":4.70055532455444},"countryCode":"NL"},{"uicCode":"8400460","stationCode":"NVP","name":"Nieuw Vennep","coordinate":{"lat":52.2588882446289,"lng":4.64555549621582},"countryCode":"NL"},{"uicCode":"8400603","stationCode":"SSH","name":"Sassenheim","coordinate":{"lat":52.215278,"lng":4.517222},"countryCode":"NL"},{"uicCode":"8400390","stationCode":"LEDN","name":"Leiden Centraal","coordinate":{"lat":52.1661109924316,"lng":4.48166656494141},"countryCode":"NL"},{"uicCode":"8400188","stationCode":"DVNK","name":"De Vink","coordinate":{"lat":52.1472206115723,"lng":4.4563889503479},"countryCode":"NL"},{"uicCode":"8400659","stationCode":"VST","name":"Voorschoten","coordinate":{"lat":52.1252784729004,"lng":4.43249988555908},"countryCode":"NL"},{"uicCode":"8400278","stationCode":"GVM","name":"Den Haag Mariahoeve","coordinate":{"lat":52.0905570983887,"lng":4.36944437026978},"countryCode":"NL"},{"uicCode":"8400380","stationCode":"LAA","name":"Den Haag Laan v NOI","coordinate":{"lat":52.0786094665527,"lng":4.34277772903442},"countryCode":"NL"},{"uicCode":"8400282","stationCode":"GVC","name":"Den Haag Centraal","coordinate":{"lat":52.0802764892578,"lng":4.32499980926514},"countryCode":"NL"}],"direction":"ONE_WAY"},"description":"dienstregeling aangepast","level":"LESS_TRAINS"},"sectionType":"NL"},{"section":{"stations":[{"uicCode":"8400058","stationCode":"ASD","name":"Amsterdam Centraal","coordinate":{"lat":52.3788871765137,"lng":4.90027761459351},"countryCode":"NL"},{"uicCode":"8400059","stationCode":"ASS","name":"Amsterdam Sloterdijk","coordinate":{"lat":52.3888893127441,"lng":4.83777761459351},"countryCode":"NL"},{"uicCode":"8400400","stationCode":"HWZB","name":"Halfweg-Zwanenburg","coordinate":{"lat":52.385935,"lng":4.747165},"countryCode":"NL"},{"uicCode":"8400270","stationCode":"HLMS","name":"Haarlem Spaarnwoude","coordinate":{"lat":52.3827781677246,"lng":4.67305564880371},"countryCode":"NL"},{"uicCode":"8400285","stationCode":"HLM","name":"Haarlem","coordinate":{"lat":52.3877792358398,"lng":4.63833332061768},"countryCode":"NL"},{"uicCode":"8400302","stationCode":"HAD","name":"Heemstede-Aerdenhout","coordinate":{"lat":52.3591651916504,"lng":4.60666656494141},"countryCode":"NL"},{"uicCode":"8400329","stationCode":"HIL","name":"Hillegom","coordinate":{"lat":52.3025016784668,"lng":4.56555557250977},"countryCode":"NL"},{"uicCode":"8400655","stationCode":"VH","name":"Voorhout","coordinate":{"lat":52.2244453430176,"lng":4.4844446182251},"countryCode":"NL"},{"uicCode":"8400390","stationCode":"LEDN","name":"Leiden Centraal","coordinate":{"lat":52.1661109924316,"lng":4.48166656494141},"countryCode":"NL"}],"direction":"BOTH"},"consequence":{"section":{"stations":[{"uicCode":"8400058","stationCode":"ASD","name":"Amsterdam Centraal","coordinate":{"lat":52.3788871765137,"lng":4.90027761459351},"countryCode":"NL"},{"uicCode":"8400059","stationCode":"ASS","name":"Amsterdam Sloterdijk","coordinate":{"lat":52.3888893127441,"lng":4.83777761459351},"countryCode":"NL"},{"uicCode":"8400400","stationCode":"HWZB","name":"Halfweg-Zwanenburg","coordinate":{"lat":52.385935,"lng":4.747165},"countryCode":"NL"},{"uicCode":"8400270","stationCode":"HLMS","name":"Haarlem Spaarnwoude","coordinate":{"lat":52.3827781677246,"lng":4.67305564880371},"countryCode":"NL"},{"uicCode":"8400285","stationCode":"HLM","name":"Haarlem","coordinate":{"lat":52.3877792358398,"lng":4.63833332061768},"countryCode":"NL"},{"uicCode":"8400302","stationCode":"HAD","name":"Heemstede-Aerdenhout","coordinate":{"lat":52.3591651916504,"lng":4.60666656494141},"countryCode":"NL"},{"uicCode":"8400329","stationCode":"HIL","name":"Hillegom","coordinate":{"lat":52.3025016784668,"lng":4.56555557250977},"countryCode":"NL"},{"uicCode":"8400655","stationCode":"VH","name":"Voorhout","coordinate":{"lat":52.2244453430176,"lng":4.4844446182251},"countryCode":"NL"},{"uicCode":"8400390","stationCode":"LEDN","name":"Leiden Centraal","coordinate":{"lat":52.1661109924316,"lng":4.48166656494141},"countryCode":"NL"}],"direction":"ONE_WAY"},"description":"dienstregeling aangepast","level":"LESS_TRAINS"},"sectionType":"NL"}],"timespans":[{"start":"2023-10-14T00:30:00+0200","end":"2023-10-15T07:05:00+0200","period":"Zaterdag 14-10-2023 00:30 uur t/m zondag 15-10-2023 07:05 uur.","situation":{"label":"Door werkzaamheden: tussen Schiphol Airport en Den Haag Centraal is de dienstregeling aangepast en tussen Amsterdam Centraal en Leiden Centraal is de dienstregeling aangepast."},"cause":{"label":"werkzaamheden"},"additionalTravelTime":{"label":"De extra reistijd is ongeveer 0 minuten.","shortLabel":"extra reistijd 0 min.","minimumDurationInMinutes":0,"maximumDurationInMinutes":0},"alternativeTransport":{"label":"er rijden stop- en snelbussen","shortLabel":"er rijden stop- en snelbussen"},"advices":[]}],"alternativeTransportTimespans":[{"start":"2023-10-14T01:15:00+0200","end":"2023-10-15T06:15:00+0200","alternativeTransport":{"location":[{"station":{"uicCode":"8400561","stationCode":"SHL","name":"Schiphol Airport","coordinate":{"lat":52.3094444274902,"lng":4.76194429397583},"countryCode":"NL"},"description":"vanaf de voorzijde van het station"},{"station":{"uicCode":"8400390","stationCode":"LEDN","name":"Leiden Centraal","coordinate":{"lat":52.1661109924316,"lng":4.48166656494141},"countryCode":"NL"},"description":"vanaf het stadsbusstation"}],"label":"Er rijden snelbussen van Schiphol Airport naar Leiden Centraal.","shortLabel":"er rijden snelbussen Schiphol Airport -> Leiden C."}},{"start":"2023-10-14T01:15:00+0200","end":"2023-10-14T05:45:00+0200","alternativeTransport":{"location":[{"station":{"uicCode":"8400390","stationCode":"LEDN","name":"Leiden Centraal","coordinate":{"lat":52.1661109924316,"lng":4.48166656494141},"countryCode":"NL"},"description":"vanaf het stadsbusstation"},{"station":{"uicCode":"8400561","stationCode":"SHL","name":"Schiphol Airport","coordinate":{"lat":52.3094444274902,"lng":4.76194429397583},"countryCode":"NL"},"description":"vanaf de voorzijde van het station"}],"label":"Er rijden snelbussen van Leiden Centraal naar Schiphol Airport.","shortLabel":"er rijden snelbussen Leiden C. -> Schiphol Airport"}},{"start":"2023-10-14T05:10:00+0200","end":"2023-10-15T07:05:00+0200","alternativeTransport":{"location":[{"station":{"uicCode":"8400332","stationCode":"HFD","name":"Hoofddorp","coordinate":{"lat":52.2933349609375,"lng":4.70055532455444},"countryCode":"NL"},"description":"onder het spoorviaduct"},{"station":{"uicCode":"8400460","stationCode":"NVP","name":"Nieuw Vennep","coordinate":{"lat":52.2588882446289,"lng":4.64555549621582},"countryCode":"NL"},"description":"vanaf de Venneperweg"},{"station":{"uicCode":"8400655","stationCode":"VH","name":"Voorhout","coordinate":{"lat":52.2244453430176,"lng":4.4844446182251},"countryCode":"NL"},"description":"vanaf de Jacoba van Beierenweg"},{"station":{"uicCode":"8400603","stationCode":"SSH","name":"Sassenheim","coordinate":{"lat":52.215278,"lng":4.517222},"countryCode":"NL"},"description":"vanaf het Stationsplein"}],"label":"Er rijden stopbussen tussen Hoofddorp, Nieuw Vennep, Voorhout en Sassenheim.","shortLabel":"er rijden stopbussen Hoofddorp - Nieuw Vennep - Voorhout - Sassenheim"}},{"start":"2023-10-14T05:49:00+0200","end":"2023-10-15T00:34:00+0200","alternativeTransport":{"location":[{"station":{"uicCode":"8400390","stationCode":"LEDN","name":"Leiden Centraal","coordinate":{"lat":52.1661109924316,"lng":4.48166656494141},"countryCode":"NL"},"description":"vanaf het stadsbusstation"},{"station":{"uicCode":"8400603","stationCode":"SSH","name":"Sassenheim","coordinate":{"lat":52.215278,"lng":4.517222},"countryCode":"NL"},"description":"vanaf het Stationsplein"},{"station":{"uicCode":"8400561","stationCode":"SHL","name":"Schiphol Airport","coordinate":{"lat":52.3094444274902,"lng":4.76194429397583},"countryCode":"NL"},"description":"vanaf de voorzijde van het station"}],"label":"Er rijden snelbussen van Leiden Centraal, Sassenheim naar Schiphol Airport.","shortLabel":"er rijden snelbussen Leiden C. -> Sassenheim -> Schiphol Airport"}},{"start":"2023-10-15T00:35:00+0200","end":"2023-10-15T06:15:00+0200","alternativeTransport":{"location":[{"station":{"uicCode":"8400390","stationCode":"LEDN","name":"Leiden Centraal","coordinate":{"lat":52.1661109924316,"lng":4.48166656494141},"countryCode":"NL"},"description":"vanaf het stadsbusstation"},{"station":{"uicCode":"8400561","stationCode":"SHL","name":"Schiphol Airport","coordinate":{"lat":52.3094444274902,"lng":4.76194429397583},"countryCode":"NL"},"description":"vanaf de voorzijde van het station"}],"label":"Er rijden snelbussen van Leiden Centraal naar Schiphol Airport.","shortLabel":"er rijden snelbussen Leiden C. -> Schiphol Airport"}}]},{"id":"7004006","type":"MAINTENANCE","registrationTime":"2023-09-21T13:42:54+0200","releaseTime":"2023-09-21T13:42:54+0200","local":false,"title":"Den Haag - Rotterdam.","titleSections":[[{"type":"STATION","value":"Den Haag C."},{"type":"ICON","value":"MAINTENANCE"},{"type":"STATION","value":"Den Haag HS"},{"type":"STATION","value":"Rotterdam C."}]],"isActive":false,"start":"2023-10-14T00:35:00+0200","end":"2023-10-16T01:30:00+0200","period":"Zaterdag 14-10-2023 00:35 uur t/m maandag 16-10-2023 01:30 uur.","impact":{"value":3},"publicationSections":[{"section":{"stations":[{"uicCode":"8400282","stationCode":"GVC","name":"Den Haag Centraal","coordinate":{"lat":52.0802764892578,"lng":4.32499980926514},"countryCode":"NL"},{"uicCode":"8400280","stationCode":"GV","name":"Den Haag HS","coordinate":{"lat":52.0697212219238,"lng":4.32250022888184},"countryCode":"NL"},{"uicCode":"8400279","stationCode":"GVMW","name":"Den Haag Moerwijk","coordinate":{"lat":52.0538902282715,"lng":4.3086109161377},"countryCode":"NL"},{"uicCode":"8400505","stationCode":"RSW","name":"Rijswijk","coordinate":{"lat":52.039722442627,"lng":4.31916666030884},"countryCode":"NL"},{"uicCode":"8400170","stationCode":"DT","name":"Delft","coordinate":{"lat":52.0066680908203,"lng":4.35638904571533},"countryCode":"NL"},{"uicCode":"8400166","stationCode":"DTCP","name":"Delft Campus","coordinate":{"lat":51.9908332824707,"lng":4.36472225189209},"countryCode":"NL"},{"uicCode":"8400553","stationCode":"SDM","name":"Schiedam Centrum","coordinate":{"lat":51.9212438128032,"lng":4.4089937210083},"countryCode":"NL"},{"uicCode":"8400530","stationCode":"RTD","name":"Rotterdam Centraal","coordinate":{"lat":51.9249992370605,"lng":4.46888875961304},"countryCode":"NL"}],"direction":"BOTH"},"consequence":{"section":{"stations":[{"uicCode":"8400282","stationCode":"GVC","name":"Den Haag Centraal","coordinate":{"lat":52.0802764892578,"lng":4.32499980926514},"countryCode":"NL"},{"uicCode":"8400280","stationCode":"GV","name":"Den Haag HS","coordinate":{"lat":52.0697212219238,"lng":4.32250022888184},"countryCode":"NL"}],"direction":"ONE_WAY"},"description":"geen treinen","level":"LESS_TRAINS"},"sectionType":"NL"}],"timespans":[{"start":"2023-10-14T00:35:00+0200","end":"2023-10-16T01:30:00+0200","period":"Zaterdag 14-10-2023 00:35 uur t/m maandag 16-10-2023 01:30 uur.","situation":{"label":"Door werkzaamheden: tussen Den Haag Centraal en Den Haag HS rijden er geen treinen."},"cause":{"label":"werkzaamheden"},"advices":["tussen Den Haag C. en Den Haag HS reist u via Laan v NOI"]}],"alternativeTransportTimespans":[]},{"id":"7003964","type":"MAINTENANCE","registrationTime":"2023-09-06T12:00:53+0200","releaseTime":"2023-09-06T12:00:53+0200","local":false,"title":"Amsterdam - Enkhuizen.","titleSections":[[{"type":"STATION","value":"Amsterdam C."},{"type":"STATION","value":"Zaandam"},{"type":"ICON","value":"MAINTENANCE"},{"type":"STATION","value":"Hoorn"},{"type":"STATION","value":"Enkhuizen"}]],"isActive":false,"start":"2023-10-14T01:00:00+0200","end":"2023-10-16T02:00:00+0200","period":"Zaterdag 14-10-2023 01:00 uur t/m maandag 16-10-2023 02:00 uur.","impact":{"value":4},"summaryAdditionalTravelTime":{"label":"De extra reistijd is ongeveer 30 minuten.","shortLabel":"extra reistijd 30 min.","minimumDurationInMinutes":30,"maximumDurationInMinutes":30},"publicationSections":[{"section":{"stations":[{"uicCode":"8400058","stationCode":"ASD","name":"Amsterdam Centraal","coordinate":{"lat":52.3788871765137,"lng":4.90027761459351},"countryCode":"NL"},{"uicCode":"8400059","stationCode":"ASS","name":"Amsterdam Sloterdijk","coordinate":{"lat":52.3888893127441,"lng":4.83777761459351},"countryCode":"NL"},{"uicCode":"8400731","stationCode":"ZD","name":"Zaandam","coordinate":{"lat":52.4388885498047,"lng":4.81361103057861},"countryCode":"NL"},{"uicCode":"8400728","stationCode":"ZDK","name":"Zaandam Kogerveld","coordinate":{"lat":52.4566650390625,"lng":4.82027769088745},"countryCode":"NL"},{"uicCode":"8400499","stationCode":"PMW","name":"Purmerend Weidevenne","coordinate":{"lat":52.4965906325416,"lng":4.93562936782836},"countryCode":"NL"},{"uicCode":"8400508","stationCode":"PMR","name":"Purmerend","coordinate":{"lat":52.5030555725098,"lng":4.95361089706421},"countryCode":"NL"},{"uicCode":"8400506","stationCode":"PMO","name":"Purmerend Overwhere","coordinate":{"lat":52.5113906860352,"lng":4.96833324432373},"countryCode":"NL"},{"uicCode":"8400337","stationCode":"HN","name":"Hoorn","coordinate":{"lat":52.6447219848633,"lng":5.05555534362793},"countryCode":"NL"},{"uicCode":"8400336","stationCode":"HNK","name":"Hoorn Kersenboogerd","coordinate":{"lat":52.6536102294922,"lng":5.08555555343628},"countryCode":"NL"},{"uicCode":"8400334","stationCode":"HKS","name":"Hoogkarspel","coordinate":{"lat":52.6905555725098,"lng":5.18388891220093},"countryCode":"NL"},{"uicCode":"8400127","stationCode":"BKG","name":"Bovenkarspel-Grootebroek","coordinate":{"lat":52.6949996948242,"lng":5.23777770996094},"countryCode":"NL"},{"uicCode":"8400230","stationCode":"BKF","name":"Bovenkarspel Flora","coordinate":{"lat":52.6961097717285,"lng":5.25277757644653},"countryCode":"NL"},{"uicCode":"8400210","stationCode":"EKZ","name":"Enkhuizen","coordinate":{"lat":52.6991653442383,"lng":5.28638887405396},"countryCode":"NL"}],"direction":"BOTH"},"consequence":{"section":{"stations":[{"uicCode":"8400731","stationCode":"ZD","name":"Zaandam","coordinate":{"lat":52.4388885498047,"lng":4.81361103057861},"countryCode":"NL"},{"uicCode":"8400728","stationCode":"ZDK","name":"Zaandam Kogerveld","coordinate":{"lat":52.4566650390625,"lng":4.82027769088745},"countryCode":"NL"},{"uicCode":"8400499","stationCode":"PMW","name":"Purmerend Weidevenne","coordinate":{"lat":52.4965906325416,"lng":4.93562936782836},"countryCode":"NL"},{"uicCode":"8400508","stationCode":"PMR","name":"Purmerend","coordinate":{"lat":52.5030555725098,"lng":4.95361089706421},"countryCode":"NL"},{"uicCode":"8400506","stationCode":"PMO","name":"Purmerend Overwhere","coordinate":{"lat":52.5113906860352,"lng":4.96833324432373},"countryCode":"NL"},{"uicCode":"8400337","stationCode":"HN","name":"Hoorn","coordinate":{"lat":52.6447219848633,"lng":5.05555534362793},"countryCode":"NL"}],"direction":"ONE_WAY"},"description":"rijden bussen","level":"LESS_TRAINS"},"sectionType":"NL"}],"timespans":[{"start":"2023-10-14T01:00:00+0200","end":"2023-10-16T02:00:00+0200","period":"Zaterdag 14-10-2023 01:00 uur t/m maandag 16-10-2023 02:00 uur.","situation":{"label":"Door werkzaamheden: tussen Zaandam en Hoorn rijden er bussen."},"cause":{"label":"werkzaamheden"},"additionalTravelTime":{"label":"De extra reistijd is ongeveer 30 minuten.","shortLabel":"extra reistijd 30 min.","minimumDurationInMinutes":30,"maximumDurationInMinutes":30},"alternativeTransport":{"label":"maak gebruik van het vervangende vervoer","shortLabel":"gebruik het vervangende vervoer"},"advices":["tussen Zaandam en Hoorn reist u via Alkmaar","tussen Weidevenne en Zaandam reist u via Purmerend"]}],"alternativeTransportTimespans":[{"start":"2023-10-14T01:00:00+0200","end":"2023-10-14T03:00:00+0200","alternativeTransport":{"location":[{"station":{"uicCode":"8400731","stationCode":"ZD","name":"Zaandam","coordinate":{"lat":52.4388885498047,"lng":4.81361103057861},"countryCode":"NL"},"description":"vanaf het busstation"},{"station":{"uicCode":"8400728","stationCode":"ZDK","name":"Zaandam Kogerveld","coordinate":{"lat":52.4566650390625,"lng":4.82027769088745},"countryCode":"NL"},"description":"vanaf de voorzijde van het station"},{"station":{"uicCode":"8400508","stationCode":"PMR","name":"Purmerend","coordinate":{"lat":52.5030555725098,"lng":4.95361089706421},"countryCode":"NL"},"description":"vanaf de bushalte"},{"station":{"uicCode":"8400506","stationCode":"PMO","name":"Purmerend Overwhere","coordinate":{"lat":52.5113906860352,"lng":4.96833324432373},"countryCode":"NL"},"description":"vanaf de Churchilllaan ter hoogte van de Meteorenweg"}],"label":"Er rijden stopbussen van Zaandam, Zaandam Kogerveld, Purmerend, Purmerend Overwhere naar Hoorn.","shortLabel":"er rijden stopbussen Zaandam -> Kogerveld -> Purmerend -> Overwhere -> Hoorn"}},{"start":"2023-10-14T04:00:00+0200","end":"2023-10-16T02:00:00+0200","alternativeTransport":{"location":[{"station":{"uicCode":"8400731","stationCode":"ZD","name":"Zaandam","coordinate":{"lat":52.4388885498047,"lng":4.81361103057861},"countryCode":"NL"},"description":"vanaf het busstation"},{"station":{"uicCode":"8400728","stationCode":"ZDK","name":"Zaandam Kogerveld","coordinate":{"lat":52.4566650390625,"lng":4.82027769088745},"countryCode":"NL"},"description":"vanaf de voorzijde van het station"},{"station":{"uicCode":"8400508","stationCode":"PMR","name":"Purmerend","coordinate":{"lat":52.5030555725098,"lng":4.95361089706421},"countryCode":"NL"},"description":"vanaf de bushalte"},{"station":{"uicCode":"8400506","stationCode":"PMO","name":"Purmerend Overwhere","coordinate":{"lat":52.5113906860352,"lng":4.96833324432373},"countryCode":"NL"},"description":"vanaf de Churchilllaan ter hoogte van de Meteorenweg"},{"station":{"uicCode":"8400337","stationCode":"HN","name":"Hoorn","coordinate":{"lat":52.6447219848633,"lng":5.05555534362793},"countryCode":"NL"},"description":"vanaf de voorzijde van het station"}],"label":"Er rijden stopbussen tussen Zaandam, Zaandam Kogerveld, Purmerend, Purmerend Overwhere en Hoorn.","shortLabel":"er rijden stopbussen Zaandam - Kogerveld - Purmerend - Overwhere - Hoorn"}},{"start":"2023-10-14T04:00:00+0200","end":"2023-10-16T02:00:00+0200","alternativeTransport":{"location":[{"station":{"uicCode":"8400508","stationCode":"PMR","name":"Purmerend","coordinate":{"lat":52.5030555725098,"lng":4.95361089706421},"countryCode":"NL"},"description":"vanaf de bushalte"},{"station":{"uicCode":"8400499","stationCode":"PMW","name":"Purmerend Weidevenne","coordinate":{"lat":52.4965906325416,"lng":4.93562936782836},"countryCode":"NL"},"description":"vanaf het Stationsplein"}],"label":"Er rijden taxibusjes tussen Purmerend en Purmerend Weidevenne.","shortLabel":"er rijden taxibusjes Purmerend - Weidevenne"}}]},{"id":"7004017","type":"MAINTENANCE","registrationTime":"2023-09-19T10:06:28+0200","releaseTime":"2023-09-19T10:06:28+0200","local":false,"title":"Zutphen - Hengelo.","titleSections":[[{"type":"STATION","value":"Zutphen"},{"type":"ICON","value":"MAINTENANCE"},{"type":"STATION","value":"Delden"},{"type":"STATION","value":"Oldenzaal"}]],"isActive":false,"start":"2023-10-14T01:00:00+0200","end":"2023-10-17T02:00:00+0200","period":"Zaterdag 14-10-2023 01:00 uur t/m dinsdag 17-10-2023 02:00 uur.","impact":{"value":4},"summaryAdditionalTravelTime":{"label":"De extra reistijd kan oplopen tot 15 minuten.","shortLabel":"extra reistijd tot 15 min.","maximumDurationInMinutes":15},"publicationSections":[{"section":{"stations":[{"uicCode":"8400744","stationCode":"ZP","name":"Zutphen","coordinate":{"lat":52.1452789306641,"lng":6.19416666030884},"countryCode":"NL"},{"uicCode":"8400399","stationCode":"LC","name":"Lochem","coordinate":{"lat":52.1666679382324,"lng":6.42638874053955},"countryCode":"NL"},{"uicCode":"8400254","stationCode":"GO","name":"Goor","coordinate":{"lat":52.2302780151367,"lng":6.58444452285767},"countryCode":"NL"},{"uicCode":"8400169","stationCode":"DDN","name":"Delden","coordinate":{"lat":52.2599983215332,"lng":6.7161111831665},"countryCode":"NL"},{"uicCode":"8400433","stationCode":"HGLG","name":"Hengelo Gezondheidspark","coordinate":{"lat":52.261667,"lng":6.767778},"countryCode":"NL"},{"uicCode":"8400316","stationCode":"HGL","name":"Hengelo","coordinate":{"lat":52.2616653442383,"lng":6.79388904571533},"countryCode":"NL"},{"uicCode":"8400312","stationCode":"HGLO","name":"Hengelo Oost","coordinate":{"lat":52.2688903808594,"lng":6.81944465637207},"countryCode":"NL"},{"uicCode":"8400483","stationCode":"ODZ","name":"Oldenzaal","coordinate":{"lat":52.3063888549805,"lng":6.93472242355347},"countryCode":"NL"}],"direction":"BOTH"},"consequence":{"section":{"stations":[{"uicCode":"8400744","stationCode":"ZP","name":"Zutphen","coordinate":{"lat":52.1452789306641,"lng":6.19416666030884},"countryCode":"NL"},{"uicCode":"8400399","stationCode":"LC","name":"Lochem","coordinate":{"lat":52.1666679382324,"lng":6.42638874053955},"countryCode":"NL"},{"uicCode":"8400254","stationCode":"GO","name":"Goor","coordinate":{"lat":52.2302780151367,"lng":6.58444452285767},"countryCode":"NL"},{"uicCode":"8400169","stationCode":"DDN","name":"Delden","coordinate":{"lat":52.2599983215332,"lng":6.7161111831665},"countryCode":"NL"}],"direction":"ONE_WAY"},"description":"rijden bussen","level":"LESS_TRAINS"},"sectionType":"NL"}],"timespans":[{"start":"2023-10-14T01:00:00+0200","end":"2023-10-17T02:00:00+0200","period":"Zaterdag 14-10-2023 01:00 uur t/m dinsdag 17-10-2023 02:00 uur.","situation":{"label":"Door werkzaamheden: tussen Zutphen en Delden rijden er bussen."},"cause":{"label":"werkzaamheden"},"additionalTravelTime":{"label":"De extra reistijd kan oplopen tot 15 minuten.","shortLabel":"extra reistijd tot 15 min.","maximumDurationInMinutes":15},"alternativeTransport":{"label":"er rijden stopbussen","shortLabel":"er rijden stopbussen"},"advices":[]}],"alternativeTransportTimespans":[{"start":"2023-10-14T01:00:00+0200","end":"2023-10-17T02:00:00+0200","alternativeTransport":{"location":[{"station":{"uicCode":"8400744","stationCode":"ZP","name":"Zutphen","coordinate":{"lat":52.1452789306641,"lng":6.19416666030884},"countryCode":"NL"},"description":"vanaf de voorzijde van het station"},{"station":{"uicCode":"8400399","stationCode":"LC","name":"Lochem","coordinate":{"lat":52.1666679382324,"lng":6.42638874053955},"countryCode":"NL"},"description":"vanaf de voorzijde van het station"},{"station":{"uicCode":"8400254","stationCode":"GO","name":"Goor","coordinate":{"lat":52.2302780151367,"lng":6.58444452285767},"countryCode":"NL"},"description":"vanaf de voorzijde van het station"},{"station":{"uicCode":"8400169","stationCode":"DDN","name":"Delden","coordinate":{"lat":52.2599983215332,"lng":6.7161111831665},"countryCode":"NL"},"description":"vanaf de voorzijde van het station"}],"label":"Er rijden stopbussen tussen Zutphen, Lochem, Goor en Delden.","shortLabel":"er rijden stopbussen Zutphen - Lochem - Goor - Delden"}}]},{"id":"7004002","type":"MAINTENANCE","registrationTime":"2023-09-20T14:09:28+0200","releaseTime":"2023-09-20T14:09:28+0200","local":false,"title":"Eindhoven - Venlo.","titleSections":[[{"type":"STATION","value":"Eindhoven C."},{"type":"ICON","value":"MAINTENANCE"},{"type":"STATION","value":"Venlo"}]],"isActive":false,"start":"2023-10-14T01:00:00+0200","end":"2023-10-23T02:00:00+0200","period":"Zaterdag 14-10-2023 01:00 uur t/m maandag 23-10-2023 02:00 uur.","impact":{"value":5},"summaryAdditionalTravelTime":{"label":"De extra reistijd kan oplopen tot 30 minuten.","shortLabel":"extra reistijd tot 30 min.","maximumDurationInMinutes":30},"publicationSections":[{"section":{"stations":[{"uicCode":"8400206","stationCode":"EHV","name":"Eindhoven Centraal","coordinate":{"lat":51.4433326721191,"lng":5.48138904571533},"countryCode":"NL"},{"uicCode":"8400242","stationCode":"HMBV","name":"Helmond Brandevoort","coordinate":{"lat":51.4622230529785,"lng":5.60722208023071},"countryCode":"NL"},{"uicCode":"8400300","stationCode":"HMH","name":"Helmond 't Hout","coordinate":{"lat":51.46794,"lng":5.63085},"countryCode":"NL"},{"uicCode":"8400313","stationCode":"HM","name":"Helmond","coordinate":{"lat":51.4755554199219,"lng":5.66194438934326},"countryCode":"NL"},{"uicCode":"8400299","stationCode":"HMBH","name":"Helmond Brouwhuis","coordinate":{"lat":51.47068,"lng":5.70177},"countryCode":"NL"},{"uicCode":"8400172","stationCode":"DN","name":"Deurne","coordinate":{"lat":51.4558334350586,"lng":5.78888893127441},"countryCode":"NL"},{"uicCode":"8400339","stationCode":"HRT","name":"Horst-Sevenum","coordinate":{"lat":51.4263877868652,"lng":6.04222202301025},"countryCode":"NL"},{"uicCode":"8400117","stationCode":"BR","name":"Blerick","coordinate":{"lat":51.372501373291,"lng":6.15500020980835},"countryCode":"NL"},{"uicCode":"8400644","stationCode":"VL","name":"Venlo","coordinate":{"lat":51.3636093139648,"lng":6.17277765274048},"countryCode":"NL"}],"direction":"BOTH"},"consequence":{"section":{"stations":[{"uicCode":"8400206","stationCode":"EHV","name":"Eindhoven Centraal","coordinate":{"lat":51.4433326721191,"lng":5.48138904571533},"countryCode":"NL"},{"uicCode":"8400242","stationCode":"HMBV","name":"Helmond Brandevoort","coordinate":{"lat":51.4622230529785,"lng":5.60722208023071},"countryCode":"NL"},{"uicCode":"8400300","stationCode":"HMH","name":"Helmond 't Hout","coordinate":{"lat":51.46794,"lng":5.63085},"countryCode":"NL"},{"uicCode":"8400313","stationCode":"HM","name":"Helmond","coordinate":{"lat":51.4755554199219,"lng":5.66194438934326},"countryCode":"NL"},{"uicCode":"8400299","stationCode":"HMBH","name":"Helmond Brouwhuis","coordinate":{"lat":51.47068,"lng":5.70177},"countryCode":"NL"},{"uicCode":"8400172","stationCode":"DN","name":"Deurne","coordinate":{"lat":51.4558334350586,"lng":5.78888893127441},"countryCode":"NL"},{"uicCode":"8400339","stationCode":"HRT","name":"Horst-Sevenum","coordinate":{"lat":51.4263877868652,"lng":6.04222202301025},"countryCode":"NL"},{"uicCode":"8400117","stationCode":"BR","name":"Blerick","coordinate":{"lat":51.372501373291,"lng":6.15500020980835},"countryCode":"NL"},{"uicCode":"8400644","stationCode":"VL","name":"Venlo","coordinate":{"lat":51.3636093139648,"lng":6.17277765274048},"countryCode":"NL"}],"direction":"ONE_WAY"},"description":"aangep. dienstregeling en businzet","level":"LESS_TRAINS"},"sectionType":"NL"}],"timespans":[{"start":"2023-10-14T01:00:00+0200","end":"2023-10-23T02:00:00+0200","period":"Zaterdag 14-10-2023 01:00 uur t/m maandag 23-10-2023 02:00 uur.","situation":{"label":"Door werkzaamheden: tussen Eindhoven Centraal en Venlo is de dienstregeling aangepast en rijden er bussen."},"cause":{"label":"werkzaamheden"},"additionalTravelTime":{"label":"De extra reistijd kan oplopen tot 30 minuten.","shortLabel":"extra reistijd tot 30 min.","maximumDurationInMinutes":30},"alternativeTransport":{"label":"maak gebruik van het vervangende vervoer","shortLabel":"gebruik het vervangende vervoer"},"advices":[]}],"alternativeTransportTimespans":[{"start":"2023-10-14T01:00:00+0200","end":"2023-10-18T02:00:00+0200","alternativeTransport":{"location":[{"station":{"uicCode":"8400313","stationCode":"HM","name":"Helmond","coordinate":{"lat":51.4755554199219,"lng":5.66194438934326},"countryCode":"NL"},"description":"vanaf de achterzijde van het station"},{"station":{"uicCode":"8400299","stationCode":"HMBH","name":"Helmond Brouwhuis","coordinate":{"lat":51.47068,"lng":5.70177},"countryCode":"NL"},"description":"vanaf de voorzijde van het station"},{"station":{"uicCode":"8400172","stationCode":"DN","name":"Deurne","coordinate":{"lat":51.4558334350586,"lng":5.78888893127441},"countryCode":"NL"},"description":"vanaf de achterzijde van het station"},{"station":{"uicCode":"8400339","stationCode":"HRT","name":"Horst-Sevenum","coordinate":{"lat":51.4263877868652,"lng":6.04222202301025},"countryCode":"NL"},"description":"vanaf de achterzijde van het station"},{"station":{"uicCode":"8400117","stationCode":"BR","name":"Blerick","coordinate":{"lat":51.372501373291,"lng":6.15500020980835},"countryCode":"NL"},"description":"vanaf de bushalte, centrumzijde"},{"station":{"uicCode":"8400644","stationCode":"VL","name":"Venlo","coordinate":{"lat":51.3636093139648,"lng":6.17277765274048},"countryCode":"NL"},"description":"vanaf het busstation"}],"label":"Er rijden stopbussen tussen Helmond, Helmond Brouwhuis, Deurne, Horst-Sevenum, Blerick en Venlo.","shortLabel":"er rijden stopbussen Helmond - Brouwhuis - Deurne - Horst-Sevenum - Blerick - Venlo"}},{"start":"2023-10-14T01:00:00+0200","end":"2023-10-18T02:00:00+0200","alternativeTransport":{"location":[{"station":{"uicCode":"8400206","stationCode":"EHV","name":"Eindhoven Centraal","coordinate":{"lat":51.4433326721191,"lng":5.48138904571533},"countryCode":"NL"},"description":"vanaf het Beursplein, aan de achterzijde van het station"},{"station":{"uicCode":"8400313","stationCode":"HM","name":"Helmond","coordinate":{"lat":51.4755554199219,"lng":5.66194438934326},"countryCode":"NL"},"description":"vanaf de achterzijde van het station"}],"label":"Er rijden snelbussen tussen Eindhoven Centraal en Helmond.","shortLabel":"er rijden snelbussen Eindhoven C. - Helmond"}},{"start":"2023-10-14T01:00:00+0200","end":"2023-10-18T02:00:00+0200","alternativeTransport":{"location":[{"station":{"uicCode":"8400313","stationCode":"HM","name":"Helmond","coordinate":{"lat":51.4755554199219,"lng":5.66194438934326},"countryCode":"NL"},"description":"vanaf de achterzijde van het station"},{"station":{"uicCode":"8400300","stationCode":"HMH","name":"Helmond 't Hout","coordinate":{"lat":51.46794,"lng":5.63085},"countryCode":"NL"},"description":"vanaf de zijde Meester Stikkerplein"},{"station":{"uicCode":"8400242","stationCode":"HMBV","name":"Helmond Brandevoort","coordinate":{"lat":51.4622230529785,"lng":5.60722208023071},"countryCode":"NL"},"description":"vanaf de achterzijde van het station"}],"label":"Er rijden taxibusjes tussen Helmond, Helmond 't Hout en Helmond Brandevoort.","shortLabel":"er rijden taxibusjes Helmond - 't Hout - Brandevoort"}},{"start":"2023-10-14T01:00:00+0200","end":"2023-10-18T02:00:00+0200","alternativeTransport":{"location":[{"station":{"uicCode":"8400206","stationCode":"EHV","name":"Eindhoven Centraal","coordinate":{"lat":51.4433326721191,"lng":5.48138904571533},"countryCode":"NL"},"description":"vanaf het Beursplein, aan de achterzijde van het station"},{"station":{"uicCode":"8400313","stationCode":"HM","name":"Helmond","coordinate":{"lat":51.4755554199219,"lng":5.66194438934326},"countryCode":"NL"},"description":"vanaf de achterzijde van het station"},{"station":{"uicCode":"8400644","stationCode":"VL","name":"Venlo","coordinate":{"lat":51.3636093139648,"lng":6.17277765274048},"countryCode":"NL"},"description":"vanaf het busstation"}],"label":"Er rijden snelbussen tussen Eindhoven Centraal, Helmond en Venlo.","shortLabel":"er rijden snelbussen Eindhoven C. - Helmond - Venlo"}},{"start":"2023-10-16T04:00:00+0200","end":"2023-10-18T02:00:00+0200","alternativeTransport":{"location":[{"station":{"uicCode":"8400206","stationCode":"EHV","name":"Eindhoven Centraal","coordinate":{"lat":51.4433326721191,"lng":5.48138904571533},"countryCode":"NL"},"description":"vanaf het Beursplein, aan de achterzijde van het station"},{"station":{"uicCode":"8400313","stationCode":"HM","name":"Helmond","coordinate":{"lat":51.4755554199219,"lng":5.66194438934326},"countryCode":"NL"},"description":"vanaf de achterzijde van het station"},{"station":{"uicCode":"8400299","stationCode":"HMBH","name":"Helmond Brouwhuis","coordinate":{"lat":51.47068,"lng":5.70177},"countryCode":"NL"},"description":"vanaf de voorzijde van het station"},{"station":{"uicCode":"8400172","stationCode":"DN","name":"Deurne","coordinate":{"lat":51.4558334350586,"lng":5.78888893127441},"countryCode":"NL"},"description":"vanaf de achterzijde van het station"}],"label":"Er rijden stopbussen tussen Eindhoven Centraal, Helmond, Helmond Brouwhuis en Deurne.","shortLabel":"er rijden stopbussen Eindhoven C. - Helmond - Brouwhuis - Deurne"}},{"start":"2023-10-16T04:00:00+0200","end":"2023-10-18T02:00:00+0200","alternativeTransport":{"location":[{"station":{"uicCode":"8400172","stationCode":"DN","name":"Deurne","coordinate":{"lat":51.4558334350586,"lng":5.78888893127441},"countryCode":"NL"},"description":"vanaf de achterzijde van het station"},{"station":{"uicCode":"8400339","stationCode":"HRT","name":"Horst-Sevenum","coordinate":{"lat":51.4263877868652,"lng":6.04222202301025},"countryCode":"NL"},"description":"vanaf de achterzijde van het station"},{"station":{"uicCode":"8400117","stationCode":"BR","name":"Blerick","coordinate":{"lat":51.372501373291,"lng":6.15500020980835},"countryCode":"NL"},"description":"vanaf de bushalte, centrumzijde"},{"station":{"uicCode":"8400644","stationCode":"VL","name":"Venlo","coordinate":{"lat":51.3636093139648,"lng":6.17277765274048},"countryCode":"NL"},"description":"vanaf het busstation"}],"label":"Er rijden stopbussen tussen Deurne, Horst-Sevenum, Blerick en Venlo.","shortLabel":"er rijden stopbussen Deurne - Horst-Sevenum - Blerick - Venlo"}},{"start":"2023-10-18T04:00:00+0200","end":"2023-10-23T02:00:00+0200","alternativeTransport":{"location":[{"station":{"uicCode":"8400313","stationCode":"HM","name":"Helmond","coordinate":{"lat":51.4755554199219,"lng":5.66194438934326},"countryCode":"NL"},"description":"vanaf de achterzijde van het station"},{"station":{"uicCode":"8400644","stationCode":"VL","name":"Venlo","coordinate":{"lat":51.3636093139648,"lng":6.17277765274048},"countryCode":"NL"},"description":"vanaf het busstation"}],"label":"Er rijden snelbussen tussen Helmond en Venlo.","shortLabel":"er rijden snelbussen Helmond - Venlo"}},{"start":"2023-10-18T04:00:00+0200","end":"2023-10-23T02:00:00+0200","alternativeTransport":{"location":[{"station":{"uicCode":"8400313","stationCode":"HM","name":"Helmond","coordinate":{"lat":51.4755554199219,"lng":5.66194438934326},"countryCode":"NL"},"description":"vanaf de achterzijde van het station"},{"station":{"uicCode":"8400299","stationCode":"HMBH","name":"Helmond Brouwhuis","coordinate":{"lat":51.47068,"lng":5.70177},"countryCode":"NL"},"description":"vanaf de voorzijde van het station"},{"station":{"uicCode":"8400172","stationCode":"DN","name":"Deurne","coordinate":{"lat":51.4558334350586,"lng":5.78888893127441},"countryCode":"NL"},"description":"vanaf de achterzijde van het station"}],"label":"Er rijden stopbussen tussen Helmond, Helmond Brouwhuis en Deurne.","shortLabel":"er rijden stopbussen Helmond - Brouwhuis - Deurne"}},{"start":"2023-10-18T04:00:00+0200","end":"2023-10-23T02:00:00+0200","alternativeTransport":{"location":[{"station":{"uicCode":"8400172","stationCode":"DN","name":"Deurne","coordinate":{"lat":51.4558334350586,"lng":5.78888893127441},"countryCode":"NL"},"description":"vanaf de achterzijde van het station"},{"station":{"uicCode":"8400339","stationCode":"HRT","name":"Horst-Sevenum","coordinate":{"lat":51.4263877868652,"lng":6.04222202301025},"countryCode":"NL"},"description":"vanaf de achterzijde van het station"},{"station":{"uicCode":"8400117","stationCode":"BR","name":"Blerick","coordinate":{"lat":51.372501373291,"lng":6.15500020980835},"countryCode":"NL"},"description":"vanaf de bushalte, centrumzijde"},{"station":{"uicCode":"8400644","stationCode":"VL","name":"Venlo","coordinate":{"lat":51.3636093139648,"lng":6.17277765274048},"countryCode":"NL"},"description":"vanaf het busstation"}],"label":"Er rijden stopbussen tussen Deurne, Horst-Sevenum, Blerick en Venlo.","shortLabel":"er rijden stopbussen Deurne - Horst-Sevenum - Blerick - Venlo"}}]},{"id":"7004056","type":"MAINTENANCE","registrationTime":"2023-10-09T15:37:46+0200","releaseTime":"2023-10-09T15:37:46+0200","local":false,"title":"Rotterdam - Dordrecht.","titleSections":[[{"type":"STATION","value":"Rotterdam C."},{"type":"ICON","value":"MAINTENANCE"},{"type":"STATION","value":"Dordrecht"}]],"isActive":false,"start":"2023-10-14T01:25:00+0200","end":"2023-10-20T02:00:00+0200","period":"Zaterdag 14-10-2023 01:25 uur t/m vrijdag 20-10-2023 02:00 uur.","impact":{"value":3},"summaryAdditionalTravelTime":{"label":"De extra reistijd is ongeveer 15 minuten.","shortLabel":"extra reistijd 15 min.","minimumDurationInMinutes":15,"maximumDurationInMinutes":15},"publicationSections":[{"section":{"stations":[{"uicCode":"8400530","stationCode":"RTD","name":"Rotterdam Centraal","coordinate":{"lat":51.9249992370605,"lng":4.46888875961304},"countryCode":"NL"},{"uicCode":"8400529","stationCode":"RTB","name":"Rotterdam Blaak","coordinate":{"lat":51.9202766418457,"lng":4.48888874053955},"countryCode":"NL"},{"uicCode":"8400533","stationCode":"RTZ","name":"Rotterdam Zuid","coordinate":{"lat":51.9044456481934,"lng":4.51027774810791},"countryCode":"NL"},{"uicCode":"8400542","stationCode":"RLB","name":"Rotterdam Lombardijen","coordinate":{"lat":51.8800010681152,"lng":4.53138875961304},"countryCode":"NL"},{"uicCode":"8400090","stationCode":"BRD","name":"Barendrecht","coordinate":{"lat":51.8547210693359,"lng":4.5533332824707},"countryCode":"NL"},{"uicCode":"8400752","stationCode":"ZWD","name":"Zwijndrecht","coordinate":{"lat":51.814998626709,"lng":4.64166688919067},"countryCode":"NL"},{"uicCode":"8400180","stationCode":"DDR","name":"Dordrecht","coordinate":{"lat":51.8072204589844,"lng":4.66833353042603},"countryCode":"NL"}],"direction":"BOTH"},"consequence":{"section":{"stations":[{"uicCode":"8400530","stationCode":"RTD","name":"Rotterdam Centraal","coordinate":{"lat":51.9249992370605,"lng":4.46888875961304},"countryCode":"NL"},{"uicCode":"8400529","stationCode":"RTB","name":"Rotterdam Blaak","coordinate":{"lat":51.9202766418457,"lng":4.48888874053955},"countryCode":"NL"},{"uicCode":"8400533","stationCode":"RTZ","name":"Rotterdam Zuid","coordinate":{"lat":51.9044456481934,"lng":4.51027774810791},"countryCode":"NL"},{"uicCode":"8400542","stationCode":"RLB","name":"Rotterdam Lombardijen","coordinate":{"lat":51.8800010681152,"lng":4.53138875961304},"countryCode":"NL"},{"uicCode":"8400090","stationCode":"BRD","name":"Barendrecht","coordinate":{"lat":51.8547210693359,"lng":4.5533332824707},"countryCode":"NL"},{"uicCode":"8400752","stationCode":"ZWD","name":"Zwijndrecht","coordinate":{"lat":51.814998626709,"lng":4.64166688919067},"countryCode":"NL"},{"uicCode":"8400180","stationCode":"DDR","name":"Dordrecht","coordinate":{"lat":51.8072204589844,"lng":4.66833353042603},"countryCode":"NL"}],"direction":"ONE_WAY"},"description":"dienstregeling aangepast","level":"LESS_TRAINS"},"sectionType":"NL"}],"timespans":[{"start":"2023-10-14T01:25:00+0200","end":"2023-10-20T02:00:00+0200","period":"Zaterdag 14-10-2023 01:25 uur t/m vrijdag 20-10-2023 02:00 uur.","situation":{"label":"Door werkzaamheden op een station: tussen Rotterdam Centraal en Dordrecht is de dienstregeling aangepast."},"cause":{"label":"werkzaamheden op station"},"additionalTravelTime":{"label":"De extra reistijd is ongeveer 15 minuten.","shortLabel":"extra reistijd 15 min.","minimumDurationInMinutes":15,"maximumDurationInMinutes":15},"alternativeTransport":{"label":"maak gebruik van het vervangende vervoer","shortLabel":"gebruik het vervangende vervoer"},"advices":["Er stoppen geen treinen in Rotterdam Blaak. Gebruik tramlijn 21 of 24 tussen Centraal en Blaak! Uw NS-vervoerbewijs is hier geldig.","tussen Blaak en Rotterdam Zuid/Dordrecht reist u via Rotterdam C."]}],"alternativeTransportTimespans":[{"start":"2023-10-14T05:10:00+0200","end":"2023-10-14T06:55:00+0200","alternativeTransport":{"location":[{"station":{"uicCode":"8400530","stationCode":"RTD","name":"Rotterdam Centraal","coordinate":{"lat":51.9249992370605,"lng":4.46888875961304},"countryCode":"NL"},"description":"vanaf de Conradstraat aan de centrumzijde"}],"label":"Er rijden taxibusjes van Rotterdam Centraal naar Rotterdam Blaak.","shortLabel":"er rijden taxibusjes Rotterdam C. -> Blaak"}},{"start":"2023-10-14T06:00:00+0200","end":"2023-10-15T01:15:00+0200","alternativeTransport":{"location":[],"label":"Maak gebruik van de Rotterdamse tram tussen Rotterdam Centraal en Rotterdam Blaak.","shortLabel":"gebruik de Rotterdamse tram Rotterdam C. - Blaak"}},{"start":"2023-10-15T05:45:00+0200","end":"2023-10-15T08:25:00+0200","alternativeTransport":{"location":[{"station":{"uicCode":"8400530","stationCode":"RTD","name":"Rotterdam Centraal","coordinate":{"lat":51.9249992370605,"lng":4.46888875961304},"countryCode":"NL"},"description":"vanaf de Conradstraat aan de centrumzijde"}],"label":"Er rijden taxibusjes van Rotterdam Centraal naar Rotterdam Blaak.","shortLabel":"er rijden taxibusjes Rotterdam C. -> Blaak"}},{"start":"2023-10-15T07:30:00+0200","end":"2023-10-16T01:15:00+0200","alternativeTransport":{"location":[],"label":"Maak gebruik van de Rotterdamse tram tussen Rotterdam Centraal en Rotterdam Blaak.","shortLabel":"gebruik de Rotterdamse tram Rotterdam C. - Blaak"}},{"start":"2023-10-16T05:15:00+0200","end":"2023-10-16T05:55:00+0200","alternativeTransport":{"location":[{"station":{"uicCode":"8400530","stationCode":"RTD","name":"Rotterdam Centraal","coordinate":{"lat":51.9249992370605,"lng":4.46888875961304},"countryCode":"NL"},"description":"vanaf de Conradstraat aan de centrumzijde"}],"label":"Er rijden taxibusjes van Rotterdam Centraal naar Rotterdam Blaak.","shortLabel":"er rijden taxibusjes Rotterdam C. -> Blaak"}},{"start":"2023-10-16T05:55:00+0200","end":"2023-10-17T01:15:00+0200","alternativeTransport":{"location":[],"label":"Maak gebruik van de Rotterdamse tram tussen Rotterdam Centraal en Rotterdam Blaak.","shortLabel":"gebruik de Rotterdamse tram Rotterdam C. - Blaak"}},{"start":"2023-10-17T05:15:00+0200","end":"2023-10-17T05:55:00+0200","alternativeTransport":{"location":[{"station":{"uicCode":"8400530","stationCode":"RTD","name":"Rotterdam Centraal","coordinate":{"lat":51.9249992370605,"lng":4.46888875961304},"countryCode":"NL"},"description":"vanaf de Conradstraat aan de centrumzijde"}],"label":"Er rijden taxibusjes van Rotterdam Centraal naar Rotterdam Blaak.","shortLabel":"er rijden taxibusjes Rotterdam C. -> Blaak"}},{"start":"2023-10-17T05:55:00+0200","end":"2023-10-18T01:15:00+0200","alternativeTransport":{"location":[],"label":"Maak gebruik van de Rotterdamse tram tussen Rotterdam Centraal en Rotterdam Blaak.","shortLabel":"gebruik de Rotterdamse tram Rotterdam C. - Blaak"}},{"start":"2023-10-18T05:15:00+0200","end":"2023-10-18T05:55:00+0200","alternativeTransport":{"location":[{"station":{"uicCode":"8400530","stationCode":"RTD","name":"Rotterdam Centraal","coordinate":{"lat":51.9249992370605,"lng":4.46888875961304},"countryCode":"NL"},"description":"vanaf de Conradstraat aan de centrumzijde"}],"label":"Er rijden taxibusjes van Rotterdam Centraal naar Rotterdam Blaak.","shortLabel":"er rijden taxibusjes Rotterdam C. -> Blaak"}},{"start":"2023-10-18T05:55:00+0200","end":"2023-10-19T01:15:00+0200","alternativeTransport":{"location":[],"label":"Maak gebruik van de Rotterdamse tram tussen Rotterdam Centraal en Rotterdam Blaak.","shortLabel":"gebruik de Rotterdamse tram Rotterdam C. - Blaak"}},{"start":"2023-10-19T05:15:00+0200","end":"2023-10-19T05:55:00+0200","alternativeTransport":{"location":[{"station":{"uicCode":"8400530","stationCode":"RTD","name":"Rotterdam Centraal","coordinate":{"lat":51.9249992370605,"lng":4.46888875961304},"countryCode":"NL"},"description":"vanaf de Conradstraat aan de centrumzijde"}],"label":"Er rijden taxibusjes van Rotterdam Centraal naar Rotterdam Blaak.","shortLabel":"er rijden taxibusjes Rotterdam C. -> Blaak"}},{"start":"2023-10-19T05:55:00+0200","end":"2023-10-20T01:15:00+0200","alternativeTransport":{"location":[],"label":"Maak gebruik van de Rotterdamse tram tussen Rotterdam Centraal en Rotterdam Blaak.","shortLabel":"gebruik de Rotterdamse tram Rotterdam C. - Blaak"}}]},{"id":"7003932","type":"MAINTENANCE","registrationTime":"2023-09-18T09:50:15+0200","releaseTime":"2023-09-18T09:50:15+0200","local":false,"title":"Venlo - Roermond.","titleSections":[[{"type":"STATION","value":"Venlo"},{"type":"ICON","value":"MAINTENANCE"},{"type":"STATION","value":"Roermond"}]],"isActive":false,"start":"2023-10-14T04:00:00+0200","end":"2023-10-16T02:00:00+0200","period":"Zaterdag 14-10-2023 04:00 uur t/m maandag 16-10-2023 02:00 uur.","impact":{"value":4},"summaryAdditionalTravelTime":{"label":"De extra reistijd kan oplopen tot 45 minuten.","shortLabel":"extra reistijd tot 45 min.","maximumDurationInMinutes":45},"publicationSections":[{"section":{"stations":[{"uicCode":"8400644","stationCode":"VL","name":"Venlo","coordinate":{"lat":51.3636093139648,"lng":6.17277765274048},"countryCode":"NL"},{"uicCode":"8400591","stationCode":"TG","name":"Tegelen","coordinate":{"lat":51.33894,"lng":6.14253},"countryCode":"NL"},{"uicCode":"8400518","stationCode":"RV","name":"Reuver","coordinate":{"lat":51.2832191665301,"lng":6.07895851135253},"countryCode":"NL"},{"uicCode":"8400583","stationCode":"SM","name":"Swalmen","coordinate":{"lat":51.23582,"lng":6.03228},"countryCode":"NL"},{"uicCode":"8400523","stationCode":"RM","name":"Roermond","coordinate":{"lat":51.1930541992188,"lng":5.9941668510437},"countryCode":"NL"}],"direction":"BOTH"},"consequence":{"section":{"stations":[{"uicCode":"8400644","stationCode":"VL","name":"Venlo","coordinate":{"lat":51.3636093139648,"lng":6.17277765274048},"countryCode":"NL"},{"uicCode":"8400591","stationCode":"TG","name":"Tegelen","coordinate":{"lat":51.33894,"lng":6.14253},"countryCode":"NL"},{"uicCode":"8400518","stationCode":"RV","name":"Reuver","coordinate":{"lat":51.2832191665301,"lng":6.07895851135253},"countryCode":"NL"},{"uicCode":"8400583","stationCode":"SM","name":"Swalmen","coordinate":{"lat":51.23582,"lng":6.03228},"countryCode":"NL"},{"uicCode":"8400523","stationCode":"RM","name":"Roermond","coordinate":{"lat":51.1930541992188,"lng":5.9941668510437},"countryCode":"NL"}],"direction":"ONE_WAY"},"description":"rijden bussen","level":"LESS_TRAINS"},"sectionType":"NL"}],"timespans":[{"start":"2023-10-14T04:00:00+0200","end":"2023-10-16T02:00:00+0200","period":"Zaterdag 14-10-2023 04:00 uur t/m maandag 16-10-2023 02:00 uur.","situation":{"label":"Door werkzaamheden: tussen Venlo en Roermond rijden er bussen."},"cause":{"label":"werkzaamheden"},"additionalTravelTime":{"label":"De extra reistijd kan oplopen tot 45 minuten.","shortLabel":"extra reistijd tot 45 min.","maximumDurationInMinutes":45},"alternativeTransport":{"label":"er rijden stopbussen","shortLabel":"er rijden stopbussen"},"advices":[]}],"alternativeTransportTimespans":[{"start":"2023-10-14T04:00:00+0200","end":"2023-10-16T02:00:00+0200","alternativeTransport":{"location":[{"station":{"uicCode":"8400644","stationCode":"VL","name":"Venlo","coordinate":{"lat":51.3636093139648,"lng":6.17277765274048},"countryCode":"NL"},"description":"vanaf het busstation"},{"station":{"uicCode":"8400591","stationCode":"TG","name":"Tegelen","coordinate":{"lat":51.33894,"lng":6.14253},"countryCode":"NL"},"description":"vanaf de bushalte"},{"station":{"uicCode":"8400518","stationCode":"RV","name":"Reuver","coordinate":{"lat":51.2832191665301,"lng":6.07895851135253},"countryCode":"NL"},"description":"vanaf de voorzijde van het station"},{"station":{"uicCode":"8400583","stationCode":"SM","name":"Swalmen","coordinate":{"lat":51.23582,"lng":6.03228},"countryCode":"NL"},"description":"vanaf de voorzijde van het station"},{"station":{"uicCode":"8400523","stationCode":"RM","name":"Roermond","coordinate":{"lat":51.1930541992188,"lng":5.9941668510437},"countryCode":"NL"},"description":"vanaf de OV-halte"}],"label":"Er rijden stopbussen tussen Venlo, Tegelen, Reuver, Swalmen en Roermond.","shortLabel":"er rijden stopbussen Venlo - Tegelen - Reuver - Swalmen - Roermond"}}]},{"id":"7004085","type":"MAINTENANCE","registrationTime":"2023-10-10T11:15:57+0200","releaseTime":"2023-10-10T11:15:57+0200","local":false,"title":"Venlo - Mönchengladbach - Düsseldorf.","titleSections":[[{"type":"STATION","value":"Venlo"},{"type":"ICON","value":"MAINTENANCE"},{"type":"STATION","value":"Kaldenkirchen"},{"type":"STATION","value":"Düsseldorf Hbf"}]],"isActive":false,"start":"2023-10-14T04:00:00+0200","end":"2023-10-22T22:00:00+0200","period":"Zaterdag 14-10-2023 04:00 uur t/m zondag 22-10-2023 22:00 uur.","impact":{"value":2},"summaryAdditionalTravelTime":{"label":"De extra reistijd is ongeveer 15 minuten.","shortLabel":"extra reistijd 15 min.","minimumDurationInMinutes":15,"maximumDurationInMinutes":15},"publicationSections":[{"section":{"stations":[{"uicCode":"8400644","stationCode":"VL","name":"Venlo","coordinate":{"lat":51.3636093139648,"lng":6.17277765274048},"countryCode":"NL"},{"uicCode":"8015130","stationCode":"KN","name":"Kaldenkirchen","coordinate":{"lat":51.327184,"lng":6.203225},"countryCode":"D"},{"uicCode":"8015129","stationCode":"KBRY","name":"Breyell","coordinate":{"lat":51.294615,"lng":6.241174},"countryCode":"D"},{"uicCode":"8015128","stationCode":"KBOI","name":"Boisheim","coordinate":{"lat":51.274323,"lng":6.274591},"countryCode":"D"},{"uicCode":"8015125","stationCode":"KDUL","name":"Dülken","coordinate":{"lat":51.257149,"lng":6.33793},"countryCode":"D"},{"uicCode":"8015122","stationCode":"VIERS","name":"Viersen","coordinate":{"lat":51.25516,"lng":6.40388},"countryCode":"D"},{"uicCode":"8015165","stationCode":"MCGB","name":"Mönchengladbach Hbf","coordinate":{"lat":51.196583,"lng":6.446111},"countryCode":"D"},{"uicCode":"8015149","stationCode":"NEUSS","name":"Neuss Hbf","coordinate":{"lat":51.20444,"lng":6.68468},"countryCode":"D"},{"uicCode":"8008094","stationCode":"DUSSEL","name":"Düsseldorf Hbf","coordinate":{"lat":51.220146,"lng":6.793137},"countryCode":"D"}],"direction":"BOTH"},"consequence":{"section":{"stations":[{"uicCode":"8400644","stationCode":"VL","name":"Venlo","coordinate":{"lat":51.3636093139648,"lng":6.17277765274048},"countryCode":"NL"},{"uicCode":"8015130","stationCode":"KN","name":"Kaldenkirchen","coordinate":{"lat":51.327184,"lng":6.203225},"countryCode":"D"}],"direction":"ONE_WAY"},"description":"rijden bussen","level":"LESS_TRAINS"},"sectionType":"NEIGHBORING_COUNTRY"}],"timespans":[{"start":"2023-10-14T04:00:00+0200","end":"2023-10-22T22:00:00+0200","period":"Zaterdag 14-10-2023 04:00 uur t/m zondag 22-10-2023 22:00 uur.","situation":{"label":"Door werkzaamheden: tussen Venlo en Kaldenkirchen rijden er bussen."},"cause":{"label":"werkzaamheden"},"additionalTravelTime":{"label":"De extra reistijd is ongeveer 15 minuten.","shortLabel":"extra reistijd 15 min.","minimumDurationInMinutes":15,"maximumDurationInMinutes":15},"alternativeTransport":{"label":"er rijden stopbussen","shortLabel":"er rijden stopbussen"},"advices":[]}],"alternativeTransportTimespans":[{"start":"2023-10-14T04:00:00+0200","end":"2023-10-22T22:00:00+0200","alternativeTransport":{"location":[{"station":{"uicCode":"8400644","stationCode":"VL","name":"Venlo","coordinate":{"lat":51.3636093139648,"lng":6.17277765274048},"countryCode":"NL"},"description":"vanaf de voorzijde van het station"}],"label":"Er rijden stopbussen tussen Venlo en Kaldenkirchen.","shortLabel":"er rijden stopbussen Venlo - Kaldenkirchen"}}]},{"id":"7003697","type":"MAINTENANCE","registrationTime":"2023-10-04T11:38:40+0200","releaseTime":"2023-10-04T11:38:40+0200","local":false,"title":"Amsterdam - Brussel - Paris (HSL).","titleSections":[[{"type":"STATION","value":"Amsterdam C."},{"type":"ICON","value":"MAINTENANCE"},{"type":"STATION","value":"Brussel-Z. Midi"},{"type":"STATION","value":"Paris-Nord"}]],"isActive":false,"start":"2023-10-14T05:00:00+0200","end":"2023-10-15T23:59:00+0200","period":"Zaterdag 14-10-2023 05:00 uur t/m zondag 15-10-2023 23:59 uur.","impact":{"value":2},"summaryAdditionalTravelTime":{"label":"U heeft geen langere reistijd.","shortLabel":"Geen extra reistijd"},"publicationSections":[{"section":{"stations":[{"uicCode":"8400058","stationCode":"ASD","name":"Amsterdam Centraal","coordinate":{"lat":52.3788871765137,"lng":4.90027761459351},"countryCode":"NL"},{"uicCode":"8400059","stationCode":"ASS","name":"Amsterdam Sloterdijk","coordinate":{"lat":52.3888893127441,"lng":4.83777761459351},"countryCode":"NL"},{"uicCode":"8400079","stationCode":"ASDL","name":"Amsterdam Lelylaan","coordinate":{"lat":52.3577766418457,"lng":4.83388900756836},"countryCode":"NL"},{"uicCode":"8400561","stationCode":"SHL","name":"Schiphol Airport","coordinate":{"lat":52.3094444274902,"lng":4.76194429397583},"countryCode":"NL"},{"uicCode":"8400332","stationCode":"HFD","name":"Hoofddorp","coordinate":{"lat":52.2933349609375,"lng":4.70055532455444},"countryCode":"NL"},{"uicCode":"8400530","stationCode":"RTD","name":"Rotterdam Centraal","coordinate":{"lat":51.9249992370605,"lng":4.46888875961304},"countryCode":"NL"},{"uicCode":"8400529","stationCode":"RTB","name":"Rotterdam Blaak","coordinate":{"lat":51.9202766418457,"lng":4.48888874053955},"countryCode":"NL"},{"uicCode":"8400533","stationCode":"RTZ","name":"Rotterdam Zuid","coordinate":{"lat":51.9044456481934,"lng":4.51027774810791},"countryCode":"NL"},{"uicCode":"8400542","stationCode":"RLB","name":"Rotterdam Lombardijen","coordinate":{"lat":51.8800010681152,"lng":4.53138875961304},"countryCode":"NL"},{"uicCode":"8821105","stationCode":"NDKP","name":"Noorderkempen","coordinate":{"lat":51.358088,"lng":4.633977},"countryCode":"B"},{"uicCode":"8821063","stationCode":"ATWLB","name":"Antwerpen-Luchtbal","coordinate":{"lat":51.2449375,"lng":4.4251543},"countryCode":"B"},{"uicCode":"8821006","stationCode":"ATW","name":"Antwerpen-Centraal","coordinate":{"lat":51.21686,"lng":4.421242},"countryCode":"B"},{"uicCode":"8821121","stationCode":"BERCH","name":"Antwerpen-Berchem","coordinate":{"lat":51.198914,"lng":4.4332},"countryCode":"B"},{"uicCode":"8822004","stationCode":"MECH","name":"Mechelen","coordinate":{"lat":51.01758,"lng":4.48313},"countryCode":"B"},{"uicCode":"8812005","stationCode":"BRUSN","name":"Brussel-Noord","coordinate":{"lat":50.859658,"lng":4.360854},"countryCode":"B"},{"uicCode":"8813003","stationCode":"BRUSC","name":"Brussel-Centraal","coordinate":{"lat":50.845175,"lng":4.357131},"countryCode":"B"},{"uicCode":"8814001","stationCode":"BRUSZ","name":"Brussel-Zuid Midi","coordinate":{"lat":50.836782,"lng":4.336922},"countryCode":"B"},{"uicCode":"8727100","stationCode":"PARIS","name":"Paris-Nord","coordinate":{"lat":48.87977,"lng":2.35575},"countryCode":"F"}],"direction":"BOTH"},"consequence":{"section":{"stations":[{"uicCode":"8400058","stationCode":"ASD","name":"Amsterdam Centraal","coordinate":{"lat":52.3788871765137,"lng":4.90027761459351},"countryCode":"NL"},{"uicCode":"8400059","stationCode":"ASS","name":"Amsterdam Sloterdijk","coordinate":{"lat":52.3888893127441,"lng":4.83777761459351},"countryCode":"NL"},{"uicCode":"8400079","stationCode":"ASDL","name":"Amsterdam Lelylaan","coordinate":{"lat":52.3577766418457,"lng":4.83388900756836},"countryCode":"NL"},{"uicCode":"8400561","stationCode":"SHL","name":"Schiphol Airport","coordinate":{"lat":52.3094444274902,"lng":4.76194429397583},"countryCode":"NL"},{"uicCode":"8400332","stationCode":"HFD","name":"Hoofddorp","coordinate":{"lat":52.2933349609375,"lng":4.70055532455444},"countryCode":"NL"},{"uicCode":"8400530","stationCode":"RTD","name":"Rotterdam Centraal","coordinate":{"lat":51.9249992370605,"lng":4.46888875961304},"countryCode":"NL"},{"uicCode":"8400529","stationCode":"RTB","name":"Rotterdam Blaak","coordinate":{"lat":51.9202766418457,"lng":4.48888874053955},"countryCode":"NL"},{"uicCode":"8400533","stationCode":"RTZ","name":"Rotterdam Zuid","coordinate":{"lat":51.9044456481934,"lng":4.51027774810791},"countryCode":"NL"},{"uicCode":"8400542","stationCode":"RLB","name":"Rotterdam Lombardijen","coordinate":{"lat":51.8800010681152,"lng":4.53138875961304},"countryCode":"NL"},{"uicCode":"8821105","stationCode":"NDKP","name":"Noorderkempen","coordinate":{"lat":51.358088,"lng":4.633977},"countryCode":"B"},{"uicCode":"8821063","stationCode":"ATWLB","name":"Antwerpen-Luchtbal","coordinate":{"lat":51.2449375,"lng":4.4251543},"countryCode":"B"},{"uicCode":"8821006","stationCode":"ATW","name":"Antwerpen-Centraal","coordinate":{"lat":51.21686,"lng":4.421242},"countryCode":"B"},{"uicCode":"8821121","stationCode":"BERCH","name":"Antwerpen-Berchem","coordinate":{"lat":51.198914,"lng":4.4332},"countryCode":"B"},{"uicCode":"8822004","stationCode":"MECH","name":"Mechelen","coordinate":{"lat":51.01758,"lng":4.48313},"countryCode":"B"},{"uicCode":"8812005","stationCode":"BRUSN","name":"Brussel-Noord","coordinate":{"lat":50.859658,"lng":4.360854},"countryCode":"B"},{"uicCode":"8813003","stationCode":"BRUSC","name":"Brussel-Centraal","coordinate":{"lat":50.845175,"lng":4.357131},"countryCode":"B"},{"uicCode":"8814001","stationCode":"BRUSZ","name":"Brussel-Zuid Midi","coordinate":{"lat":50.836782,"lng":4.336922},"countryCode":"B"}],"direction":"ONE_WAY"},"description":"aangepaste internationale dienstregeling","level":"LESS_TRAINS"},"sectionType":"HSL"}],"timespans":[{"start":"2023-10-14T05:00:00+0200","end":"2023-10-15T23:59:00+0200","period":"Zaterdag 14-10-2023 05:00 uur t/m zondag 15-10-2023 23:59 uur.","situation":{"label":"Door werkzaamheden: tussen Amsterdam Centraal en Brussel-Zuid Midi is de internationale dienstregeling aangepast."},"cause":{"label":"werkzaamheden"},"additionalTravelTime":{"label":"U heeft geen langere reistijd.","shortLabel":"Geen extra reistijd"},"advices":["Diverse Eurostars naar Paris Nord rijden niet tussen Amsterdam Centraal en Brussel Zuid"]}],"alternativeTransportTimespans":[]},{"id":"7004019","type":"MAINTENANCE","registrationTime":"2023-09-21T14:02:19+0200","releaseTime":"2023-09-21T14:02:19+0200","local":false,"title":"Amsterdam - Almere; Hoofddorp - Schiphol - Almere Oostvaarders; Amsterdam Zuid - Den Haag.","titleSections":[[{"type":"STATION","value":"Hoofddorp"},{"type":"ICON","value":"MAINTENANCE"},{"type":"STATION","value":"Almere C."},{"type":"STATION","value":"Oostvaarders"}],[{"type":"STATION","value":"Amsterdam Zuid"},{"type":"STATION","value":"Schiphol Airport"},{"type":"ICON","value":"MAINTENANCE"},{"type":"STATION","value":"Den Haag C."}],[{"type":"STATION","value":"Amsterdam C."},{"type":"ICON","value":"MAINTENANCE"},{"type":"STATION","value":"Almere C."}]],"isActive":false,"start":"2023-10-14T05:00:00+0200","end":"2023-10-16T05:25:00+0200","period":"Zaterdag 14-10-2023 05:00 uur t/m maandag 16-10-2023 05:25 uur.","impact":{"value":3},"summaryAdditionalTravelTime":{"label":"De extra reistijd is ongeveer 0 minuten.","shortLabel":"extra reistijd 0 min.","minimumDurationInMinutes":0,"maximumDurationInMinutes":0},"publicationSections":[{"section":{"stations":[{"uicCode":"8400332","stationCode":"HFD","name":"Hoofddorp","coordinate":{"lat":52.2933349609375,"lng":4.70055532455444},"countryCode":"NL"},{"uicCode":"8400561","stationCode":"SHL","name":"Schiphol Airport","coordinate":{"lat":52.3094444274902,"lng":4.76194429397583},"countryCode":"NL"},{"uicCode":"8400061","stationCode":"ASDZ","name":"Amsterdam Zuid","coordinate":{"lat":52.338889,"lng":4.872356},"countryCode":"NL"},{"uicCode":"8400056","stationCode":"RAI","name":"Amsterdam RAI","coordinate":{"lat":52.3372230529785,"lng":4.89027786254883},"countryCode":"NL"},{"uicCode":"8400194","stationCode":"DVD","name":"Duivendrecht","coordinate":{"lat":52.3233337402344,"lng":4.93638896942139},"countryCode":"NL"},{"uicCode":"8400163","stationCode":"DMNZ","name":"Diemen Zuid","coordinate":{"lat":52.3302764892578,"lng":4.95583343505859},"countryCode":"NL"},{"uicCode":"8400685","stationCode":"WP","name":"Weesp","coordinate":{"lat":52.3127784729004,"lng":5.04305553436279},"countryCode":"NL"},{"uicCode":"8400450","stationCode":"AMPO","name":"Almere Poort","coordinate":{"lat":52.342778,"lng":5.151944},"countryCode":"NL"},{"uicCode":"8400082","stationCode":"ALMM","name":"Almere Muziekwijk","coordinate":{"lat":52.3675003051758,"lng":5.19027757644653},"countryCode":"NL"},{"uicCode":"8400080","stationCode":"ALM","name":"Almere Centrum","coordinate":{"lat":52.37503,"lng":5.21764},"countryCode":"NL"},{"uicCode":"8400104","stationCode":"ALMP","name":"Almere Parkwijk","coordinate":{"lat":52.3766670227051,"lng":5.24472236633301},"countryCode":"NL"},{"uicCode":"8400081","stationCode":"ALMB","name":"Almere Buiten","coordinate":{"lat":52.3941650390625,"lng":5.2780556678772},"countryCode":"NL"},{"uicCode":"8400226","stationCode":"ALMO","name":"Almere Oostvaarders","coordinate":{"lat":52.4033317565918,"lng":5.30055570602417},"countryCode":"NL"}],"direction":"BOTH"},"consequence":{"section":{"stations":[{"uicCode":"8400332","stationCode":"HFD","name":"Hoofddorp","coordinate":{"lat":52.2933349609375,"lng":4.70055532455444},"countryCode":"NL"},{"uicCode":"8400561","stationCode":"SHL","name":"Schiphol Airport","coordinate":{"lat":52.3094444274902,"lng":4.76194429397583},"countryCode":"NL"},{"uicCode":"8400061","stationCode":"ASDZ","name":"Amsterdam Zuid","coordinate":{"lat":52.338889,"lng":4.872356},"countryCode":"NL"},{"uicCode":"8400056","stationCode":"RAI","name":"Amsterdam RAI","coordinate":{"lat":52.3372230529785,"lng":4.89027786254883},"countryCode":"NL"},{"uicCode":"8400194","stationCode":"DVD","name":"Duivendrecht","coordinate":{"lat":52.3233337402344,"lng":4.93638896942139},"countryCode":"NL"},{"uicCode":"8400163","stationCode":"DMNZ","name":"Diemen Zuid","coordinate":{"lat":52.3302764892578,"lng":4.95583343505859},"countryCode":"NL"},{"uicCode":"8400685","stationCode":"WP","name":"Weesp","coordinate":{"lat":52.3127784729004,"lng":5.04305553436279},"countryCode":"NL"},{"uicCode":"8400450","stationCode":"AMPO","name":"Almere Poort","coordinate":{"lat":52.342778,"lng":5.151944},"countryCode":"NL"},{"uicCode":"8400082","stationCode":"ALMM","name":"Almere Muziekwijk","coordinate":{"lat":52.3675003051758,"lng":5.19027757644653},"countryCode":"NL"},{"uicCode":"8400080","stationCode":"ALM","name":"Almere Centrum","coordinate":{"lat":52.37503,"lng":5.21764},"countryCode":"NL"}],"direction":"ONE_WAY"},"description":"dienstregeling aangepast","level":"LESS_TRAINS"},"sectionType":"NL"},{"section":{"stations":[{"uicCode":"8400061","stationCode":"ASDZ","name":"Amsterdam Zuid","coordinate":{"lat":52.338889,"lng":4.872356},"countryCode":"NL"},{"uicCode":"8400561","stationCode":"SHL","name":"Schiphol Airport","coordinate":{"lat":52.3094444274902,"lng":4.76194429397583},"countryCode":"NL"},{"uicCode":"8400332","stationCode":"HFD","name":"Hoofddorp","coordinate":{"lat":52.2933349609375,"lng":4.70055532455444},"countryCode":"NL"},{"uicCode":"8400460","stationCode":"NVP","name":"Nieuw Vennep","coordinate":{"lat":52.2588882446289,"lng":4.64555549621582},"countryCode":"NL"},{"uicCode":"8400603","stationCode":"SSH","name":"Sassenheim","coordinate":{"lat":52.215278,"lng":4.517222},"countryCode":"NL"},{"uicCode":"8400390","stationCode":"LEDN","name":"Leiden Centraal","coordinate":{"lat":52.1661109924316,"lng":4.48166656494141},"countryCode":"NL"},{"uicCode":"8400188","stationCode":"DVNK","name":"De Vink","coordinate":{"lat":52.1472206115723,"lng":4.4563889503479},"countryCode":"NL"},{"uicCode":"8400659","stationCode":"VST","name":"Voorschoten","coordinate":{"lat":52.1252784729004,"lng":4.43249988555908},"countryCode":"NL"},{"uicCode":"8400278","stationCode":"GVM","name":"Den Haag Mariahoeve","coordinate":{"lat":52.0905570983887,"lng":4.36944437026978},"countryCode":"NL"},{"uicCode":"8400380","stationCode":"LAA","name":"Den Haag Laan v NOI","coordinate":{"lat":52.0786094665527,"lng":4.34277772903442},"countryCode":"NL"},{"uicCode":"8400282","stationCode":"GVC","name":"Den Haag Centraal","coordinate":{"lat":52.0802764892578,"lng":4.32499980926514},"countryCode":"NL"}],"direction":"BOTH"},"consequence":{"section":{"stations":[{"uicCode":"8400561","stationCode":"SHL","name":"Schiphol Airport","coordinate":{"lat":52.3094444274902,"lng":4.76194429397583},"countryCode":"NL"},{"uicCode":"8400332","stationCode":"HFD","name":"Hoofddorp","coordinate":{"lat":52.2933349609375,"lng":4.70055532455444},"countryCode":"NL"},{"uicCode":"8400460","stationCode":"NVP","name":"Nieuw Vennep","coordinate":{"lat":52.2588882446289,"lng":4.64555549621582},"countryCode":"NL"},{"uicCode":"8400603","stationCode":"SSH","name":"Sassenheim","coordinate":{"lat":52.215278,"lng":4.517222},"countryCode":"NL"},{"uicCode":"8400390","stationCode":"LEDN","name":"Leiden Centraal","coordinate":{"lat":52.1661109924316,"lng":4.48166656494141},"countryCode":"NL"},{"uicCode":"8400188","stationCode":"DVNK","name":"De Vink","coordinate":{"lat":52.1472206115723,"lng":4.4563889503479},"countryCode":"NL"},{"uicCode":"8400659","stationCode":"VST","name":"Voorschoten","coordinate":{"lat":52.1252784729004,"lng":4.43249988555908},"countryCode":"NL"},{"uicCode":"8400278","stationCode":"GVM","name":"Den Haag Mariahoeve","coordinate":{"lat":52.0905570983887,"lng":4.36944437026978},"countryCode":"NL"},{"uicCode":"8400380","stationCode":"LAA","name":"Den Haag Laan v NOI","coordinate":{"lat":52.0786094665527,"lng":4.34277772903442},"countryCode":"NL"},{"uicCode":"8400282","stationCode":"GVC","name":"Den Haag Centraal","coordinate":{"lat":52.0802764892578,"lng":4.32499980926514},"countryCode":"NL"}],"direction":"ONE_WAY"},"description":"dienstregeling aangepast","level":"LESS_TRAINS"},"sectionType":"NL"},{"section":{"stations":[{"uicCode":"8400058","stationCode":"ASD","name":"Amsterdam Centraal","coordinate":{"lat":52.3788871765137,"lng":4.90027761459351},"countryCode":"NL"},{"uicCode":"8400060","stationCode":"ASDM","name":"Amsterdam Muiderpoort","coordinate":{"lat":52.3605537414551,"lng":4.93111133575439},"countryCode":"NL"},{"uicCode":"8400235","stationCode":"ASSP","name":"Amsterdam Science Park","coordinate":{"lat":52.35526,"lng":4.94651},"countryCode":"NL"},{"uicCode":"8400165","stationCode":"DMN","name":"Diemen","coordinate":{"lat":52.34515,"lng":4.967566},"countryCode":"NL"},{"uicCode":"8400685","stationCode":"WP","name":"Weesp","coordinate":{"lat":52.3127784729004,"lng":5.04305553436279},"countryCode":"NL"},{"uicCode":"8400450","stationCode":"AMPO","name":"Almere Poort","coordinate":{"lat":52.342778,"lng":5.151944},"countryCode":"NL"},{"uicCode":"8400082","stationCode":"ALMM","name":"Almere Muziekwijk","coordinate":{"lat":52.3675003051758,"lng":5.19027757644653},"countryCode":"NL"},{"uicCode":"8400080","stationCode":"ALM","name":"Almere Centrum","coordinate":{"lat":52.37503,"lng":5.21764},"countryCode":"NL"}],"direction":"BOTH"},"consequence":{"section":{"stations":[{"uicCode":"8400058","stationCode":"ASD","name":"Amsterdam Centraal","coordinate":{"lat":52.3788871765137,"lng":4.90027761459351},"countryCode":"NL"},{"uicCode":"8400060","stationCode":"ASDM","name":"Amsterdam Muiderpoort","coordinate":{"lat":52.3605537414551,"lng":4.93111133575439},"countryCode":"NL"},{"uicCode":"8400235","stationCode":"ASSP","name":"Amsterdam Science Park","coordinate":{"lat":52.35526,"lng":4.94651},"countryCode":"NL"},{"uicCode":"8400165","stationCode":"DMN","name":"Diemen","coordinate":{"lat":52.34515,"lng":4.967566},"countryCode":"NL"},{"uicCode":"8400685","stationCode":"WP","name":"Weesp","coordinate":{"lat":52.3127784729004,"lng":5.04305553436279},"countryCode":"NL"},{"uicCode":"8400450","stationCode":"AMPO","name":"Almere Poort","coordinate":{"lat":52.342778,"lng":5.151944},"countryCode":"NL"},{"uicCode":"8400082","stationCode":"ALMM","name":"Almere Muziekwijk","coordinate":{"lat":52.3675003051758,"lng":5.19027757644653},"countryCode":"NL"},{"uicCode":"8400080","stationCode":"ALM","name":"Almere Centrum","coordinate":{"lat":52.37503,"lng":5.21764},"countryCode":"NL"}],"direction":"ONE_WAY"},"description":"dienstregeling aangepast","level":"LESS_TRAINS"},"sectionType":"NL"}],"timespans":[{"start":"2023-10-14T05:00:00+0200","end":"2023-10-16T05:25:00+0200","period":"Zaterdag 14-10-2023 05:00 uur t/m maandag 16-10-2023 05:25 uur.","situation":{"label":"Door werkzaamheden: tussen Hoofddorp en Almere Centrum is de dienstregeling aangepast en tussen Schiphol Airport en Den Haag Centraal is de dienstregeling aangepast en tussen Amsterdam Centraal en Almere Centrum is de dienstregeling aangepast."},"cause":{"label":"werkzaamheden"},"additionalTravelTime":{"label":"De extra reistijd is ongeveer 0 minuten.","shortLabel":"extra reistijd 0 min.","minimumDurationInMinutes":0,"maximumDurationInMinutes":0},"advices":[]}],"alternativeTransportTimespans":[]},{"id":"7003829","type":"MAINTENANCE","registrationTime":"2023-10-06T14:44:28+0200","releaseTime":"2023-10-06T14:44:28+0200","local":false,"title":"Amsterdam - Rotterdam - Brussel (HSL).","titleSections":[[{"type":"STATION","value":"Amsterdam C."},{"type":"ICON","value":"MAINTENANCE"},{"type":"STATION","value":"Breda"},{"type":"STATION","value":"Brussel-Z. Midi"}]],"isActive":false,"start":"2023-10-14T07:15:00+0200","end":"2023-10-15T22:15:00+0200","period":"Zaterdag 14-10-2023 07:15 uur t/m zondag 15-10-2023 22:15 uur.","impact":{"value":2},"summaryAdditionalTravelTime":{"label":"U heeft geen langere reistijd.","shortLabel":"Geen extra reistijd"},"publicationSections":[{"section":{"stations":[{"uicCode":"8400058","stationCode":"ASD","name":"Amsterdam Centraal","coordinate":{"lat":52.3788871765137,"lng":4.90027761459351},"countryCode":"NL"},{"uicCode":"8400059","stationCode":"ASS","name":"Amsterdam Sloterdijk","coordinate":{"lat":52.3888893127441,"lng":4.83777761459351},"countryCode":"NL"},{"uicCode":"8400079","stationCode":"ASDL","name":"Amsterdam Lelylaan","coordinate":{"lat":52.3577766418457,"lng":4.83388900756836},"countryCode":"NL"},{"uicCode":"8400561","stationCode":"SHL","name":"Schiphol Airport","coordinate":{"lat":52.3094444274902,"lng":4.76194429397583},"countryCode":"NL"},{"uicCode":"8400332","stationCode":"HFD","name":"Hoofddorp","coordinate":{"lat":52.2933349609375,"lng":4.70055532455444},"countryCode":"NL"},{"uicCode":"8400530","stationCode":"RTD","name":"Rotterdam Centraal","coordinate":{"lat":51.9249992370605,"lng":4.46888875961304},"countryCode":"NL"},{"uicCode":"8400529","stationCode":"RTB","name":"Rotterdam Blaak","coordinate":{"lat":51.9202766418457,"lng":4.48888874053955},"countryCode":"NL"},{"uicCode":"8400533","stationCode":"RTZ","name":"Rotterdam Zuid","coordinate":{"lat":51.9044456481934,"lng":4.51027774810791},"countryCode":"NL"},{"uicCode":"8400542","stationCode":"RLB","name":"Rotterdam Lombardijen","coordinate":{"lat":51.8800010681152,"lng":4.53138875961304},"countryCode":"NL"},{"uicCode":"8400132","stationCode":"BDPB","name":"Breda-Prinsenbeek","coordinate":{"lat":51.606388092041,"lng":4.72083330154419},"countryCode":"NL"},{"uicCode":"8400131","stationCode":"BD","name":"Breda","coordinate":{"lat":51.5955543518066,"lng":4.78000020980835},"countryCode":"NL"},{"uicCode":"8821105","stationCode":"NDKP","name":"Noorderkempen","coordinate":{"lat":51.358088,"lng":4.633977},"countryCode":"B"},{"uicCode":"8821063","stationCode":"ATWLB","name":"Antwerpen-Luchtbal","coordinate":{"lat":51.2449375,"lng":4.4251543},"countryCode":"B"},{"uicCode":"8821006","stationCode":"ATW","name":"Antwerpen-Centraal","coordinate":{"lat":51.21686,"lng":4.421242},"countryCode":"B"},{"uicCode":"8821121","stationCode":"BERCH","name":"Antwerpen-Berchem","coordinate":{"lat":51.198914,"lng":4.4332},"countryCode":"B"},{"uicCode":"8822004","stationCode":"MECH","name":"Mechelen","coordinate":{"lat":51.01758,"lng":4.48313},"countryCode":"B"},{"uicCode":"8812005","stationCode":"BRUSN","name":"Brussel-Noord","coordinate":{"lat":50.859658,"lng":4.360854},"countryCode":"B"},{"uicCode":"8813003","stationCode":"BRUSC","name":"Brussel-Centraal","coordinate":{"lat":50.845175,"lng":4.357131},"countryCode":"B"},{"uicCode":"8814001","stationCode":"BRUSZ","name":"Brussel-Zuid Midi","coordinate":{"lat":50.836782,"lng":4.336922},"countryCode":"B"}],"direction":"BOTH"},"consequence":{"section":{"stations":[{"uicCode":"8400058","stationCode":"ASD","name":"Amsterdam Centraal","coordinate":{"lat":52.3788871765137,"lng":4.90027761459351},"countryCode":"NL"},{"uicCode":"8400059","stationCode":"ASS","name":"Amsterdam Sloterdijk","coordinate":{"lat":52.3888893127441,"lng":4.83777761459351},"countryCode":"NL"},{"uicCode":"8400079","stationCode":"ASDL","name":"Amsterdam Lelylaan","coordinate":{"lat":52.3577766418457,"lng":4.83388900756836},"countryCode":"NL"},{"uicCode":"8400561","stationCode":"SHL","name":"Schiphol Airport","coordinate":{"lat":52.3094444274902,"lng":4.76194429397583},"countryCode":"NL"},{"uicCode":"8400332","stationCode":"HFD","name":"Hoofddorp","coordinate":{"lat":52.2933349609375,"lng":4.70055532455444},"countryCode":"NL"},{"uicCode":"8400530","stationCode":"RTD","name":"Rotterdam Centraal","coordinate":{"lat":51.9249992370605,"lng":4.46888875961304},"countryCode":"NL"},{"uicCode":"8400529","stationCode":"RTB","name":"Rotterdam Blaak","coordinate":{"lat":51.9202766418457,"lng":4.48888874053955},"countryCode":"NL"},{"uicCode":"8400533","stationCode":"RTZ","name":"Rotterdam Zuid","coordinate":{"lat":51.9044456481934,"lng":4.51027774810791},"countryCode":"NL"},{"uicCode":"8400542","stationCode":"RLB","name":"Rotterdam Lombardijen","coordinate":{"lat":51.8800010681152,"lng":4.53138875961304},"countryCode":"NL"},{"uicCode":"8400132","stationCode":"BDPB","name":"Breda-Prinsenbeek","coordinate":{"lat":51.606388092041,"lng":4.72083330154419},"countryCode":"NL"},{"uicCode":"8400131","stationCode":"BD","name":"Breda","coordinate":{"lat":51.5955543518066,"lng":4.78000020980835},"countryCode":"NL"}],"direction":"ONE_WAY"},"description":"dienstregeling aangepast","level":"LESS_TRAINS"},"sectionType":"HSL"}],"timespans":[{"start":"2023-10-14T07:15:00+0200","end":"2023-10-15T22:15:00+0200","period":"Zaterdag 14-10-2023 07:15 uur t/m zondag 15-10-2023 22:15 uur.","situation":{"label":"Door werkzaamheden: tussen Amsterdam Centraal en Breda is de dienstregeling aangepast."},"cause":{"label":"werkzaamheden"},"additionalTravelTime":{"label":"U heeft geen langere reistijd.","shortLabel":"Geen extra reistijd"},"advices":["Intercity Brussel rijdt niet tussen Amsterdam C en Breda."]}],"alternativeTransportTimespans":[]},{"id":"7004004","type":"MAINTENANCE","registrationTime":"2023-09-25T14:01:47+0200","releaseTime":"2023-09-25T14:01:47+0200","local":false,"title":"Utrecht - Gouda; Utrecht - Woerden.","titleSections":[[{"type":"STATION","value":"Utrecht C."},{"type":"ICON","value":"MAINTENANCE"},{"type":"STATION","value":"Woerden"}],[{"type":"STATION","value":"Utrecht C."},{"type":"STATION","value":"Woerden"},{"type":"ICON","value":"MAINTENANCE"},{"type":"STATION","value":"Gouda"}]],"isActive":false,"start":"2023-10-15T07:00:00+0200","end":"2023-10-15T23:45:00+0200","period":"Zondag 15-10-2023 07:00 uur t/m zondag 15-10-2023 23:45 uur.","impact":{"value":3},"summaryAdditionalTravelTime":{"label":"De extra reistijd kan oplopen tot 30 minuten.","shortLabel":"extra reistijd tot 30 min.","maximumDurationInMinutes":30},"publicationSections":[{"section":{"stations":[{"uicCode":"8400621","stationCode":"UT","name":"Utrecht Centraal","coordinate":{"lat":52.0888900756836,"lng":5.11027765274048},"countryCode":"NL"},{"uicCode":"8400607","stationCode":"UTLR","name":"Utrecht Leidsche Rijn","coordinate":{"lat":52.09896,"lng":5.06523},"countryCode":"NL"},{"uicCode":"8400614","stationCode":"UTT","name":"Utrecht Terwijde","coordinate":{"lat":52.1000753,"lng":5.0439547},"countryCode":"NL"},{"uicCode":"8400651","stationCode":"VTN","name":"Vleuten","coordinate":{"lat":52.103056,"lng":5.007404},"countryCode":"NL"},{"uicCode":"8400702","stationCode":"WD","name":"Woerden","coordinate":{"lat":52.0849990844727,"lng":4.89361095428467},"countryCode":"NL"}],"direction":"BOTH"},"consequence":{"section":{"stations":[{"uicCode":"8400621","stationCode":"UT","name":"Utrecht Centraal","coordinate":{"lat":52.0888900756836,"lng":5.11027765274048},"countryCode":"NL"},{"uicCode":"8400607","stationCode":"UTLR","name":"Utrecht Leidsche Rijn","coordinate":{"lat":52.09896,"lng":5.06523},"countryCode":"NL"},{"uicCode":"8400614","stationCode":"UTT","name":"Utrecht Terwijde","coordinate":{"lat":52.1000753,"lng":5.0439547},"countryCode":"NL"},{"uicCode":"8400651","stationCode":"VTN","name":"Vleuten","coordinate":{"lat":52.103056,"lng":5.007404},"countryCode":"NL"},{"uicCode":"8400702","stationCode":"WD","name":"Woerden","coordinate":{"lat":52.0849990844727,"lng":4.89361095428467},"countryCode":"NL"}],"direction":"ONE_WAY"},"description":"rijden bussen","level":"LESS_TRAINS"},"sectionType":"NL"},{"section":{"stations":[{"uicCode":"8400621","stationCode":"UT","name":"Utrecht Centraal","coordinate":{"lat":52.0888900756836,"lng":5.11027765274048},"countryCode":"NL"},{"uicCode":"8400607","stationCode":"UTLR","name":"Utrecht Leidsche Rijn","coordinate":{"lat":52.09896,"lng":5.06523},"countryCode":"NL"},