[{"id":"6026397","type":"DISRUPTION","registrationTime":"2023-10-21T18:07:16+0200","releaseTime":"2023-10-21T18:07:16+0200","local":false,"title":"Arnhem-Duisburg-Düsseldorf","titleSections":[[{"type":"STATION","value":"Arnhem C."},{"type":"ICON","value":"DISRUPTION"},{"type":"STATION","value":"Emmerich"},{"type":"STATION","value":"Düsseldorf Hbf"}]],"topic":"disruption_6026397_nl","isActive":true,"start":"2023-10-21T18:05:34+0200","end":"2023-10-21T21:00:00+0200","phase":{"id":"1b","label":"Gevolgen bekend"},"impact":{"value":2},"expectedDuration":{"description":"Dit duurt tot ongeveer 21:00 uur.","endTime":"2023-10-21T21:00:00+0200"},"publicationSections":[{"section":{"stations":[{"uicCode":"8400071","stationCode":"AH","name":"Arnhem Centraal","coordinate":{"lat":51.9850006103516,"lng":5.89916658401489},"countryCode":"NL"},{"uicCode":"8400072","stationCode":"AHP","name":"Arnhem Velperpoort","coordinate":{"lat":51.985279083252,"lng":5.91944456100464},"countryCode":"NL"},{"uicCode":"8400688","stationCode":"WTV","name":"Westervoort","coordinate":{"lat":51.96286,"lng":5.9695},"countryCode":"NL"},{"uicCode":"8400193","stationCode":"DVN","name":"Duiven","coordinate":{"lat":51.9433326721191,"lng":6.01472234725952},"countryCode":"NL"},{"uicCode":"8400735","stationCode":"ZV","name":"Zevenaar","coordinate":{"lat":51.9230537414551,"lng":6.07194423675537},"countryCode":"NL"},{"uicCode":"8033415","stationCode":"EL","name":"Emmerich-Elten","coordinate":{"lat":51.8743,"lng":6.15417},"countryCode":"D"},{"uicCode":"8010288","stationCode":"EM","name":"Emmerich","coordinate":{"lat":51.834283,"lng":6.255718},"countryCode":"D"},{"uicCode":"8010275","stationCode":"WESEL","name":"Wesel","coordinate":{"lat":51.655833,"lng":6.627222},"countryCode":"D"},{"uicCode":"8010263","stationCode":"OBERH","name":"Oberhausen Hbf","coordinate":{"lat":51.47512,"lng":6.852038},"countryCode":"D"},{"uicCode":"8010316","stationCode":"DUISB","name":"Duisburg Hbf","coordinate":{"lat":51.4297785713316,"lng":6.77590370178222},"countryCode":"D"},{"uicCode":"8039904","stationCode":"KDFFH","name":"Düsseldorf Flughafen","coordinate":{"lat":51.292009,"lng":6.786836},"countryCode":"D"},{"uicCode":"8008094","stationCode":"DUSSEL","name":"Düsseldorf Hbf","coordinate":{"lat":51.220146,"lng":6.793137},"countryCode":"D"}],"direction":"BOTH"},"consequence":{"section":{"stations":[{"uicCode":"8400071","stationCode":"AH","name":"Arnhem Centraal","coordinate":{"lat":51.9850006103516,"lng":5.89916658401489},"countryCode":"NL"},{"uicCode":"8400072","stationCode":"AHP","name":"Arnhem Velperpoort","coordinate":{"lat":51.985279083252,"lng":5.91944456100464},"countryCode":"NL"},{"uicCode":"8400688","stationCode":"WTV","name":"Westervoort","coordinate":{"lat":51.96286,"lng":5.9695},"countryCode":"NL"},{"uicCode":"8400193","stationCode":"DVN","name":"Duiven","coordinate":{"lat":51.9433326721191,"lng":6.01472234725952},"countryCode":"NL"},{"uicCode":"8400735","stationCode":"ZV","name":"Zevenaar","coordinate":{"lat":51.9230537414551,"lng":6.07194423675537},"countryCode":"NL"},{"uicCode":"8033415","stationCode":"EL","name":"Emmerich-Elten","coordinate":{"lat":51.8743,"lng":6.15417},"countryCode":"D"},{"uicCode":"8010288","stationCode":"EM","name":"Emmerich","coordinate":{"lat":51.834283,"lng":6.255718},"countryCode":"D"}],"direction":"ONE_WAY"},"description":"veel minder treinen","level":"LESS_TRAINS"},"sectionType":"NEIGHBORING_COUNTRY"}],"timespans":[{"start":"2023-10-21T18:05:34+0200","end":"2023-10-21T21:00:00+0200","situation":{"label":"Tussen Arnhem Centraal en Emmerich rijden er veel minder treinen door een tekort aan personeel."},"cause":{"label":"Tekort personeel"},"advices":[]}],"alternativeTransportTimespans":[]},{"id":"f1749716-6592-4ce0-8c2f-e177dff01970","title":"Werkzaamheden Weesp-Almere Oostvaarders","topic":"disruption_f1749716-6592-4ce0-8c2f-e177dff01970_nl","description":"Door werkzaamheden rijden er van dinsdag 24 oktober (21.00 uur) t/m zondag 29 oktober geen treinen tussen Weesp en Almere Oostvaarders.","priority":"PRIO_3","lastUpdated":"2023-10-21T00:00:00+0200","bodyItems":[{"content":{"text":"<p>Er rijden NS-bussen tussen Weesp en Almere Oostvaarders. U kunt ook omreizen via Amersfoort Centraal. Plan je reis vooraf.</p>"},"type":"TEXT"}],"buttons":{"position":["BOTTOM"],"items":[{"label":"Plan je reis","type":"PLANNER","accessibilityLabel":"Plan je reis","url":"https://www.ns.nl/reisplanner"}]},"url":"https://www.ns.nl/reisinformatie/calamiteiten/witte-rege-lwerkzaamheden-weesp-almere-oostvaarders.html","type":"CALAMITY","isActive":true},{"id":"243b58a6-a4ba-4a73-b9f1-b983638c4421","title":"Werkzaamheden Arnhem Centraal-Dieren","topic":"disruption_243b58a6-a4ba-4a73-b9f1-b983638c4421_nl","description":"Door werkzaamheden rijden er van maandag 23 t/m zondag 29 oktober geen treinen tussen Arnhem Centraal en Dieren.","priority":"PRIO_3","lastUpdated":"2023-10-20T02:02:00+0200","bodyItems":[{"content":{"text":"<p>Er rijden bussen tussen Arnhem Centraal en Dieren. U kunt ook omreizen. Plan je reis vooraf.</p>"},"type":"TEXT"}],"buttons":{"position":["BOTTOM"],"items":[{"label":"Plan je reis","type":"PLANNER","accessibilityLabel":"Plan je reis","url":"https://www.ns.nl/reisplanner"}]},"url":"https://www.ns.nl/reisinformatie/calamiteiten/werkzaamheden-arnhem-centraal-dieren.html","type":"CALAMITY","isActive":true},{"id":"7004002","type":"MAINTENANCE","registrationTime":"2023-10-18T07:37:32+0200","releaseTime":"2023-10-18T07:37:32+0200","local":false,"title":"Eindhoven - Venlo.","titleSections":[[{"type":"STATION","value":"Eindhoven C."},{"type":"STATION","value":"Helmond"},{"type":"ICON","value":"MAINTENANCE"},{"type":"STATION","value":"Venlo"}]],"isActive":true,"start":"2023-10-14T01:00:00+0200","end":"2023-10-23T02:00:00+0200","period":"Zaterdag 14-10-2023 01:00 uur t/m maandag 23-10-2023 02:00 uur.","impact":{"value":5},"summaryAdditionalTravelTime":{"label":"De extra reistijd kan oplopen tot 30 minuten.","shortLabel":"extra reistijd tot 30 min.","maximumDurationInMinutes":30},"publicationSections":[{"section":{"stations":[{"uicCode":"8400206","stationCode":"EHV","name":"Eindhoven Centraal","coordinate":{"lat":51.4433326721191,"lng":5.48138904571533},"countryCode":"NL"},{"uicCode":"8400242","stationCode":"HMBV","name":"Helmond Brandevoort","coordinate":{"lat":51.4622230529785,"lng":5.60722208023071},"countryCode":"NL"},{"uicCode":"8400300","stationCode":"HMH","name":"Helmond 't Hout","coordinate":{"lat":51.46794,"lng":5.63085},"countryCode":"NL"},{"uicCode":"8400313","stationCode":"HM","name":"Helmond","coordinate":{"lat":51.4755554199219,"lng":5.66194438934326},"countryCode":"NL"},{"uicCode":"8400299","stationCode":"HMBH","name":"Helmond Brouwhuis","coordinate":{"lat":51.47068,"lng":5.70177},"countryCode":"NL"},{"uicCode":"8400172","stationCode":"DN","name":"Deurne","coordinate":{"lat":51.4558334350586,"lng":5.78888893127441},"countryCode":"NL"},{"uicCode":"8400339","stationCode":"HRT","name":"Horst-Sevenum","coordinate":{"lat":51.4263877868652,"lng":6.04222202301025},"countryCode":"NL"},{"uicCode":"8400117","stationCode":"BR","name":"Blerick","coordinate":{"lat":51.372501373291,"lng":6.15500020980835},"countryCode":"NL"},{"uicCode":"8400644","stationCode":"VL","name":"Venlo","coordinate":{"lat":51.3636093139648,"lng":6.17277765274048},"countryCode":"NL"}],"direction":"BOTH"},"consequence":{"section":{"stations":[{"uicCode":"8400313","stationCode":"HM","name":"Helmond","coordinate":{"lat":51.4755554199219,"lng":5.66194438934326},"countryCode":"NL"},{"uicCode":"8400299","stationCode":"HMBH","name":"Helmond Brouwhuis","coordinate":{"lat":51.47068,"lng":5.70177},"countryCode":"NL"},{"uicCode":"8400172","stationCode":"DN","name":"Deurne","coordinate":{"lat":51.4558334350586,"lng":5.78888893127441},"countryCode":"NL"},{"uicCode":"8400339","stationCode":"HRT","name":"Horst-Sevenum","coordinate":{"lat":51.4263877868652,"lng":6.04222202301025},"countryCode":"NL"},{"uicCode":"8400117","stationCode":"BR","name":"Blerick","coordinate":{"lat":51.372501373291,"lng":6.15500020980835},"countryCode":"NL"},{"uicCode":"8400644","stationCode":"VL","name":"Venlo","coordinate":{"lat":51.3636093139648,"lng":6.17277765274048},"countryCode":"NL"}],"direction":"ONE_WAY"},"description":"aangep. dienstregeling en businzet","level":"LESS_TRAINS"},"sectionType":"NL"}],"timespans":[{"start":"2023-10-14T01:00:00+0200","end":"2023-10-23T02:00:00+0200","period":"Zaterdag 14-10-2023 01:00 uur t/m maandag 23-10-2023 02:00 uur.","situation":{"label":"Door werkzaamheden: tussen Helmond en Venlo is de dienstregeling aangepast en rijden er bussen."},"cause":{"label":"werkzaamheden"},"additionalTravelTime":{"label":"De extra reistijd kan oplopen tot 30 minuten.","shortLabel":"extra reistijd tot 30 min.","maximumDurationInMinutes":30},"alternativeTransport":{"label":"maak gebruik van het vervangende vervoer","shortLabel":"gebruik het vervangende vervoer"},"advices":[]}],"alternativeTransportTimespans":[{"start":"2023-10-14T01:00:00+0200","end":"2023-10-18T02:00:00+0200","alternativeTransport":{"location":[{"station":{"uicCode":"8400313","stationCode":"HM","name":"Helmond","coordinate":{"lat":51.4755554199219,"lng":5.66194438934326},"countryCode":"NL"},"description":"vanaf de achterzijde van het station"},{"station":{"uicCode":"8400299","stationCode":"HMBH","name":"Helmond Brouwhuis","coordinate":{"lat":51.47068,"lng":5.70177},"countryCode":"NL"},"description":"vanaf de voorzijde van het station"},{"station":{"uicCode":"8400172","stationCode":"DN","name":"Deurne","coordinate":{"lat":51.4558334350586,"lng":5.78888893127441},"countryCode":"NL"},"description":"vanaf de achterzijde van het station"},{"station":{"uicCode":"8400339","stationCode":"HRT","name":"Horst-Sevenum","coordinate":{"lat":51.4263877868652,"lng":6.04222202301025},"countryCode":"NL"},"description":"vanaf de achterzijde van het station"},{"station":{"uicCode":"8400117","stationCode":"BR","name":"Blerick","coordinate":{"lat":51.372501373291,"lng":6.15500020980835},"countryCode":"NL"},"description":"vanaf de bushalte, centrumzijde"},{"station":{"uicCode":"8400644","stationCode":"VL","name":"Venlo","coordinate":{"lat":51.3636093139648,"lng":6.17277765274048},"countryCode":"NL"},"description":"vanaf het busstation"}],"label":"Er rijden stopbussen tussen Helmond, Helmond Brouwhuis, Deurne, Horst-Sevenum, Blerick en Venlo.","shortLabel":"er rijden stopbussen Helmond - Brouwhuis - Deurne - Horst-Sevenum - Blerick - Venlo"}},{"start":"2023-10-14T01:00:00+0200","end":"2023-10-18T02:00:00+0200","alternativeTransport":{"location":[{"station":{"uicCode":"8400206","stationCode":"EHV","name":"Eindhoven Centraal","coordinate":{"lat":51.4433326721191,"lng":5.48138904571533},"countryCode":"NL"},"description":"vanaf het Beursplein, aan de achterzijde van het station"},{"station":{"uicCode":"8400313","stationCode":"HM","name":"Helmond","coordinate":{"lat":51.4755554199219,"lng":5.66194438934326},"countryCode":"NL"},"description":"vanaf de achterzijde van het station"}],"label":"Er rijden snelbussen tussen Eindhoven Centraal en Helmond.","shortLabel":"er rijden snelbussen Eindhoven C. - Helmond"}},{"start":"2023-10-14T01:00:00+0200","end":"2023-10-18T02:00:00+0200","alternativeTransport":{"location":[{"station":{"uicCode":"8400313","stationCode":"HM","name":"Helmond","coordinate":{"lat":51.4755554199219,"lng":5.66194438934326},"countryCode":"NL"},"description":"vanaf de achterzijde van het station"},{"station":{"uicCode":"8400300","stationCode":"HMH","name":"Helmond 't Hout","coordinate":{"lat":51.46794,"lng":5.63085},"countryCode":"NL"},"description":"vanaf de zijde Meester Stikkerplein"},{"station":{"uicCode":"8400242","stationCode":"HMBV","name":"Helmond Brandevoort","coordinate":{"lat":51.4622230529785,"lng":5.60722208023071},"countryCode":"NL"},"description":"vanaf de achterzijde van het station"}],"label":"Er rijden taxibusjes tussen Helmond, Helmond 't Hout en Helmond Brandevoort.","shortLabel":"er rijden taxibusjes Helmond - 't Hout - Brandevoort"}},{"start":"2023-10-14T01:00:00+0200","end":"2023-10-18T02:00:00+0200","alternativeTransport":{"location":[{"station":{"uicCode":"8400206","stationCode":"EHV","name":"Eindhoven Centraal","coordinate":{"lat":51.4433326721191,"lng":5.48138904571533},"countryCode":"NL"},"description":"vanaf het Beursplein, aan de achterzijde van het station"},{"station":{"uicCode":"8400313","stationCode":"HM","name":"Helmond","coordinate":{"lat":51.4755554199219,"lng":5.66194438934326},"countryCode":"NL"},"description":"vanaf de achterzijde van het station"},{"station":{"uicCode":"8400644","stationCode":"VL","name":"Venlo","coordinate":{"lat":51.3636093139648,"lng":6.17277765274048},"countryCode":"NL"},"description":"vanaf het busstation"}],"label":"Er rijden snelbussen tussen Eindhoven Centraal, Helmond en Venlo.","shortLabel":"er rijden snelbussen Eindhoven C. - Helmond - Venlo"}},{"start":"2023-10-16T04:00:00+0200","end":"2023-10-18T02:00:00+0200","alternativeTransport":{"location":[{"station":{"uicCode":"8400206","stationCode":"EHV","name":"Eindhoven Centraal","coordinate":{"lat":51.4433326721191,"lng":5.48138904571533},"countryCode":"NL"},"description":"vanaf het Beursplein, aan de achterzijde van het station"},{"station":{"uicCode":"8400313","stationCode":"HM","name":"Helmond","coordinate":{"lat":51.4755554199219,"lng":5.66194438934326},"countryCode":"NL"},"description":"vanaf de achterzijde van het station"},{"station":{"uicCode":"8400299","stationCode":"HMBH","name":"Helmond Brouwhuis","coordinate":{"lat":51.47068,"lng":5.70177},"countryCode":"NL"},"description":"vanaf de voorzijde van het station"},{"station":{"uicCode":"8400172","stationCode":"DN","name":"Deurne","coordinate":{"lat":51.4558334350586,"lng":5.78888893127441},"countryCode":"NL"},"description":"vanaf de achterzijde van het station"}],"label":"Er rijden stopbussen tussen Eindhoven Centraal, Helmond, Helmond Brouwhuis en Deurne.","shortLabel":"er rijden stopbussen Eindhoven C. - Helmond - Brouwhuis - Deurne"}},{"start":"2023-10-16T04:00:00+0200","end":"2023-10-18T02:00:00+0200","alternativeTransport":{"location":[{"station":{"uicCode":"8400172","stationCode":"DN","name":"Deurne","coordinate":{"lat":51.4558334350586,"lng":5.78888893127441},"countryCode":"NL"},"description":"vanaf de achterzijde van het station"},{"station":{"uicCode":"8400339","stationCode":"HRT","name":"Horst-Sevenum","coordinate":{"lat":51.4263877868652,"lng":6.04222202301025},"countryCode":"NL"},"description":"vanaf de achterzijde van het station"},{"station":{"uicCode":"8400117","stationCode":"BR","name":"Blerick","coordinate":{"lat":51.372501373291,"lng":6.15500020980835},"countryCode":"NL"},"description":"vanaf de bushalte, centrumzijde"},{"station":{"uicCode":"8400644","stationCode":"VL","name":"Venlo","coordinate":{"lat":51.3636093139648,"lng":6.17277765274048},"countryCode":"NL"},"description":"vanaf het busstation"}],"label":"Er rijden stopbussen tussen Deurne, Horst-Sevenum, Blerick en Venlo.","shortLabel":"er rijden stopbussen Deurne - Horst-Sevenum - Blerick - Venlo"}},{"start":"2023-10-18T04:00:00+0200","end":"2023-10-23T02:00:00+0200","alternativeTransport":{"location":[{"station":{"uicCode":"8400313","stationCode":"HM","name":"Helmond","coordinate":{"lat":51.4755554199219,"lng":5.66194438934326},"countryCode":"NL"},"description":"vanaf de achterzijde van het station"},{"station":{"uicCode":"8400644","stationCode":"VL","name":"Venlo","coordinate":{"lat":51.3636093139648,"lng":6.17277765274048},"countryCode":"NL"},"description":"vanaf het busstation"}],"label":"Er rijden snelbussen tussen Helmond en Venlo.","shortLabel":"er rijden snelbussen Helmond - Venlo"}},{"start":"2023-10-18T04:00:00+0200","end":"2023-10-23T02:00:00+0200","alternativeTransport":{"location":[{"station":{"uicCode":"8400313","stationCode":"HM","name":"Helmond","coordinate":{"lat":51.4755554199219,"lng":5.66194438934326},"countryCode":"NL"},"description":"vanaf de achterzijde van het station"},{"station":{"uicCode":"8400299","stationCode":"HMBH","name":"Helmond Brouwhuis","coordinate":{"lat":51.47068,"lng":5.70177},"countryCode":"NL"},"description":"vanaf de voorzijde van het station"},{"station":{"uicCode":"8400172","stationCode":"DN","name":"Deurne","coordinate":{"lat":51.4558334350586,"lng":5.78888893127441},"countryCode":"NL"},"description":"vanaf de achterzijde van het station"}],"label":"Er rijden stopbussen tussen Helmond, Helmond Brouwhuis en Deurne.","shortLabel":"er rijden stopbussen Helmond - Brouwhuis - Deurne"}},{"start":"2023-10-18T04:00:00+0200","end":"2023-10-23T02:00:00+0200","alternativeTransport":{"location":[{"station":{"uicCode":"8400172","stationCode":"DN","name":"Deurne","coordinate":{"lat":51.4558334350586,"lng":5.78888893127441},"countryCode":"NL"},"description":"vanaf de achterzijde van het station"},{"station":{"uicCode":"8400339","stationCode":"HRT","name":"Horst-Sevenum","coordinate":{"lat":51.4263877868652,"lng":6.04222202301025},"countryCode":"NL"},"description":"vanaf de achterzijde van het station"},{"station":{"uicCode":"8400117","stationCode":"BR","name":"Blerick","coordinate":{"lat":51.372501373291,"lng":6.15500020980835},"countryCode":"NL"},"description":"vanaf de bushalte, centrumzijde"},{"station":{"uicCode":"8400644","stationCode":"VL","name":"Venlo","coordinate":{"lat":51.3636093139648,"lng":6.17277765274048},"countryCode":"NL"},"description":"vanaf het busstation"}],"label":"Er rijden stopbussen tussen Deurne, Horst-Sevenum, Blerick en Venlo.","shortLabel":"er rijden stopbussen Deurne - Horst-Sevenum - Blerick - Venlo"}}]},{"id":"7004085","type":"MAINTENANCE","registrationTime":"2023-10-10T11:15:57+0200","releaseTime":"2023-10-10T11:15:57+0200","local":false,"title":"Venlo - Mönchengladbach - Düsseldorf.","titleSections":[[{"type":"STATION","value":"Venlo"},{"type":"ICON","value":"MAINTENANCE"},{"type":"STATION","value":"Kaldenkirchen"},{"type":"STATION","value":"Düsseldorf Hbf"}]],"isActive":true,"start":"2023-10-14T04:00:00+0200","end":"2023-10-22T22:00:00+0200","period":"Zaterdag 14-10-2023 04:00 uur t/m zondag 22-10-2023 22:00 uur.","impact":{"value":2},"summaryAdditionalTravelTime":{"label":"De extra reistijd is ongeveer 15 minuten.","shortLabel":"extra reistijd 15 min.","minimumDurationInMinutes":15,"maximumDurationInMinutes":15},"publicationSections":[{"section":{"stations":[{"uicCode":"8400644","stationCode":"VL","name":"Venlo","coordinate":{"lat":51.3636093139648,"lng":6.17277765274048},"countryCode":"NL"},{"uicCode":"8015130","stationCode":"KN","name":"Kaldenkirchen","coordinate":{"lat":51.327184,"lng":6.203225},"countryCode":"D"},{"uicCode":"8015129","stationCode":"KBRY","name":"Breyell","coordinate":{"lat":51.294615,"lng":6.241174},"countryCode":"D"},{"uicCode":"8015128","stationCode":"KBOI","name":"Boisheim","coordinate":{"lat":51.274323,"lng":6.274591},"countryCode":"D"},{"uicCode":"8015125","stationCode":"KDUL","name":"Dülken","coordinate":{"lat":51.257149,"lng":6.33793},"countryCode":"D"},{"uicCode":"8015122","stationCode":"VIERS","name":"Viersen","coordinate":{"lat":51.25516,"lng":6.40388},"countryCode":"D"},{"uicCode":"8015165","stationCode":"MCGB","name":"Mönchengladbach Hbf","coordinate":{"lat":51.196583,"lng":6.446111},"countryCode":"D"},{"uicCode":"8015149","stationCode":"NEUSS","name":"Neuss Hbf","coordinate":{"lat":51.20444,"lng":6.68468},"countryCode":"D"},{"uicCode":"8008094","stationCode":"DUSSEL","name":"Düsseldorf Hbf","coordinate":{"lat":51.220146,"lng":6.793137},"countryCode":"D"}],"direction":"BOTH"},"consequence":{"section":{"stations":[{"uicCode":"8400644","stationCode":"VL","name":"Venlo","coordinate":{"lat":51.3636093139648,"lng":6.17277765274048},"countryCode":"NL"},{"uicCode":"8015130","stationCode":"KN","name":"Kaldenkirchen","coordinate":{"lat":51.327184,"lng":6.203225},"countryCode":"D"}],"direction":"ONE_WAY"},"description":"rijden bussen","level":"LESS_TRAINS"},"sectionType":"NEIGHBORING_COUNTRY"}],"timespans":[{"start":"2023-10-14T04:00:00+0200","end":"2023-10-22T22:00:00+0200","period":"Zaterdag 14-10-2023 04:00 uur t/m zondag 22-10-2023 22:00 uur.","situation":{"label":"Door werkzaamheden: tussen Venlo en Kaldenkirchen rijden er bussen."},"cause":{"label":"werkzaamheden"},"additionalTravelTime":{"label":"De extra reistijd is ongeveer 15 minuten.","shortLabel":"extra reistijd 15 min.","minimumDurationInMinutes":15,"maximumDurationInMinutes":15},"alternativeTransport":{"label":"er rijden stopbussen","shortLabel":"er rijden stopbussen"},"advices":[]}],"alternativeTransportTimespans":[{"start":"2023-10-14T04:00:00+0200","end":"2023-10-22T22:00:00+0200","alternativeTransport":{"location":[{"station":{"uicCode":"8400644","stationCode":"VL","name":"Venlo","coordinate":{"lat":51.3636093139648,"lng":6.17277765274048},"countryCode":"NL"},"description":"vanaf de voorzijde van het station"}],"label":"Er rijden stopbussen tussen Venlo en Kaldenkirchen.","shortLabel":"er rijden stopbussen Venlo - Kaldenkirchen"}}]},{"id":"7003969","type":"MAINTENANCE","registrationTime":"2023-09-28T09:54:50+0200","releaseTime":"2023-09-28T09:54:50+0200","local":false,"title":"Amsterdam - Brussel - Paris (HSL).","titleSections":[[{"type":"STATION","value":"Amsterdam C."},{"type":"ICON","value":"MAINTENANCE"},{"type":"STATION","value":"Schiphol Airport"},{"type":"STATION","value":"Paris-Nord"}]],"isActive":true,"start":"2023-10-15T07:00:00+0200","end":"2023-11-01T20:00:00+0100","period":"Zondag 15-10-2023 07:00 uur t/m woensdag 01-11-2023 20:00 uur.","impact":{"value":2},"summaryAdditionalTravelTime":{"label":"U heeft geen langere reistijd.","shortLabel":"Geen extra reistijd"},"publicationSections":[{"section":{"stations":[{"uicCode":"8400058","stationCode":"ASD","name":"Amsterdam Centraal","coordinate":{"lat":52.3788871765137,"lng":4.90027761459351},"countryCode":"NL"},{"uicCode":"8400059","stationCode":"ASS","name":"Amsterdam Sloterdijk","coordinate":{"lat":52.3888893127441,"lng":4.83777761459351},"countryCode":"NL"},{"uicCode":"8400079","stationCode":"ASDL","name":"Amsterdam Lelylaan","coordinate":{"lat":52.3577766418457,"lng":4.83388900756836},"countryCode":"NL"},{"uicCode":"8400561","stationCode":"SHL","name":"Schiphol Airport","coordinate":{"lat":52.3094444274902,"lng":4.76194429397583},"countryCode":"NL"},{"uicCode":"8400332","stationCode":"HFD","name":"Hoofddorp","coordinate":{"lat":52.2933349609375,"lng":4.70055532455444},"countryCode":"NL"},{"uicCode":"8400530","stationCode":"RTD","name":"Rotterdam Centraal","coordinate":{"lat":51.9249992370605,"lng":4.46888875961304},"countryCode":"NL"},{"uicCode":"8400529","stationCode":"RTB","name":"Rotterdam Blaak","coordinate":{"lat":51.9202766418457,"lng":4.48888874053955},"countryCode":"NL"},{"uicCode":"8400533","stationCode":"RTZ","name":"Rotterdam Zuid","coordinate":{"lat":51.9044456481934,"lng":4.51027774810791},"countryCode":"NL"},{"uicCode":"8400542","stationCode":"RLB","name":"Rotterdam Lombardijen","coordinate":{"lat":51.8800010681152,"lng":4.53138875961304},"countryCode":"NL"},{"uicCode":"8821105","stationCode":"NDKP","name":"Noorderkempen","coordinate":{"lat":51.358088,"lng":4.633977},"countryCode":"B"},{"uicCode":"8821063","stationCode":"ATWLB","name":"Antwerpen-Luchtbal","coordinate":{"lat":51.2449375,"lng":4.4251543},"countryCode":"B"},{"uicCode":"8821006","stationCode":"ATW","name":"Antwerpen-Centraal","coordinate":{"lat":51.21686,"lng":4.421242},"countryCode":"B"},{"uicCode":"8821121","stationCode":"BERCH","name":"Antwerpen-Berchem","coordinate":{"lat":51.198914,"lng":4.4332},"countryCode":"B"},{"uicCode":"8822004","stationCode":"MECH","name":"Mechelen","coordinate":{"lat":51.01758,"lng":4.48313},"countryCode":"B"},{"uicCode":"8812005","stationCode":"BRUSN","name":"Brussel-Noord","coordinate":{"lat":50.859658,"lng":4.360854},"countryCode":"B"},{"uicCode":"8813003","stationCode":"BRUSC","name":"Brussel-Centraal","coordinate":{"lat":50.845175,"lng":4.357131},"countryCode":"B"},{"uicCode":"8814001","stationCode":"BRUSZ","name":"Brussel-Zuid Midi","coordinate":{"lat":50.836782,"lng":4.336922},"countryCode":"B"},{"uicCode":"8727100","stationCode":"PARIS","name":"Paris-Nord","coordinate":{"lat":48.87977,"lng":2.35575},"countryCode":"F"}],"direction":"BOTH"},"consequence":{"section":{"stations":[{"uicCode":"8400058","stationCode":"ASD","name":"Amsterdam Centraal","coordinate":{"lat":52.3788871765137,"lng":4.90027761459351},"countryCode":"NL"},{"uicCode":"8400059","stationCode":"ASS","name":"Amsterdam Sloterdijk","coordinate":{"lat":52.3888893127441,"lng":4.83777761459351},"countryCode":"NL"},{"uicCode":"8400079","stationCode":"ASDL","name":"Amsterdam Lelylaan","coordinate":{"lat":52.3577766418457,"lng":4.83388900756836},"countryCode":"NL"},{"uicCode":"8400561","stationCode":"SHL","name":"Schiphol Airport","coordinate":{"lat":52.3094444274902,"lng":4.76194429397583},"countryCode":"NL"}],"direction":"ONE_WAY"},"description":"aangepaste internationale dienstregeling","level":"LESS_TRAINS"},"sectionType":"HSL"}],"timespans":[{"start":"2023-10-15T07:00:00+0200","end":"2023-11-01T20:00:00+0100","period":"Zondag 15-10-2023 07:00 uur t/m woensdag 01-11-2023 20:00 uur.","situation":{"label":"Door werkzaamheden: tussen Amsterdam Centraal en Schiphol Airport is de internationale dienstregeling aangepast."},"cause":{"label":"werkzaamheden"},"additionalTravelTime":{"label":"U heeft geen langere reistijd.","shortLabel":"Geen extra reistijd"},"advices":["Diverse Eurostar rijden vanaf Schiphol Airport."]}],"alternativeTransportTimespans":[]},{"id":"7004014","type":"MAINTENANCE","registrationTime":"2023-10-05T09:58:18+0200","releaseTime":"2023-10-05T09:58:18+0200","local":false,"title":"Meppel - Leeuwarden.","titleSections":[[{"type":"STATION","value":"Meppel"},{"type":"STATION","value":"Heerenveen"},{"type":"ICON","value":"MAINTENANCE"},{"type":"STATION","value":"Leeuwarden"}],[{"type":"STATION","value":"Meppel"},{"type":"STATION","value":"Akkrum"},{"type":"ICON","value":"MAINTENANCE"},{"type":"STATION","value":"Leeuwarden"}]],"isActive":true,"start":"2023-10-21T00:20:00+0200","end":"2023-10-30T02:00:00+0100","period":"Zaterdag 21-10-2023 00:20 uur t/m maandag 30-10-2023 02:00 uur.","impact":{"value":5},"summaryAdditionalTravelTime":{"label":"De extra reistijd kan oplopen tot 30 minuten.","shortLabel":"extra reistijd tot 30 min.","maximumDurationInMinutes":30},"publicationSections":[{"section":{"stations":[{"uicCode":"8400435","stationCode":"MP","name":"Meppel","coordinate":{"lat":52.6908340454102,"lng":6.19750022888184},"countryCode":"NL"},{"uicCode":"8400578","stationCode":"SWK","name":"Steenwijk","coordinate":{"lat":52.7915109924316,"lng":6.11455576324463},"countryCode":"NL"},{"uicCode":"8400705","stationCode":"WV","name":"Wolvega","coordinate":{"lat":52.8808326721191,"lng":6.00361108779907},"countryCode":"NL"},{"uicCode":"8400305","stationCode":"HR","name":"Heerenveen","coordinate":{"lat":52.9613876342773,"lng":5.91416645050049},"countryCode":"NL"},{"uicCode":"8400049","stationCode":"AKM","name":"Akkrum","coordinate":{"lat":53.0463905334473,"lng":5.84361124038696},"countryCode":"NL"},{"uicCode":"8400266","stationCode":"GW","name":"Grou-Jirnsum","coordinate":{"lat":53.0888900756836,"lng":5.82250022888184},"countryCode":"NL"},{"uicCode":"8400387","stationCode":"LW","name":"Leeuwarden","coordinate":{"lat":53.1958351135254,"lng":5.79222202301025},"countryCode":"NL"}],"direction":"BOTH"},"consequence":{"section":{"stations":[{"uicCode":"8400305","stationCode":"HR","name":"Heerenveen","coordinate":{"lat":52.9613876342773,"lng":5.91416645050049},"countryCode":"NL"},{"uicCode":"8400049","stationCode":"AKM","name":"Akkrum","coordinate":{"lat":53.0463905334473,"lng":5.84361124038696},"countryCode":"NL"},{"uicCode":"8400266","stationCode":"GW","name":"Grou-Jirnsum","coordinate":{"lat":53.0888900756836,"lng":5.82250022888184},"countryCode":"NL"},{"uicCode":"8400387","stationCode":"LW","name":"Leeuwarden","coordinate":{"lat":53.1958351135254,"lng":5.79222202301025},"countryCode":"NL"}],"direction":"ONE_WAY"},"description":"rijden bussen","level":"LESS_TRAINS"},"sectionType":"NL"},{"section":{"stations":[{"uicCode":"8400435","stationCode":"MP","name":"Meppel","coordinate":{"lat":52.6908340454102,"lng":6.19750022888184},"countryCode":"NL"},{"uicCode":"8400578","stationCode":"SWK","name":"Steenwijk","coordinate":{"lat":52.7915109924316,"lng":6.11455576324463},"countryCode":"NL"},{"uicCode":"8400705","stationCode":"WV","name":"Wolvega","coordinate":{"lat":52.8808326721191,"lng":6.00361108779907},"countryCode":"NL"},{"uicCode":"8400305","stationCode":"HR","name":"Heerenveen","coordinate":{"lat":52.9613876342773,"lng":5.91416645050049},"countryCode":"NL"},{"uicCode":"8400049","stationCode":"AKM","name":"Akkrum","coordinate":{"lat":53.0463905334473,"lng":5.84361124038696},"countryCode":"NL"},{"uicCode":"8400266","stationCode":"GW","name":"Grou-Jirnsum","coordinate":{"lat":53.0888900756836,"lng":5.82250022888184},"countryCode":"NL"},{"uicCode":"8400387","stationCode":"LW","name":"Leeuwarden","coordinate":{"lat":53.1958351135254,"lng":5.79222202301025},"countryCode":"NL"}],"direction":"BOTH"},"consequence":{"section":{"stations":[{"uicCode":"8400049","stationCode":"AKM","name":"Akkrum","coordinate":{"lat":53.0463905334473,"lng":5.84361124038696},"countryCode":"NL"},{"uicCode":"8400266","stationCode":"GW","name":"Grou-Jirnsum","coordinate":{"lat":53.0888900756836,"lng":5.82250022888184},"countryCode":"NL"},{"uicCode":"8400387","stationCode":"LW","name":"Leeuwarden","coordinate":{"lat":53.1958351135254,"lng":5.79222202301025},"countryCode":"NL"}],"direction":"ONE_WAY"},"description":"rijden bussen","level":"LESS_TRAINS"},"sectionType":"NL"}],"timespans":[{"start":"2023-10-21T00:20:00+0200","end":"2023-10-23T02:00:00+0200","period":"Zaterdag 21-10-2023 00:20 uur t/m maandag 23-10-2023 02:00 uur.","situation":{"label":"Door werkzaamheden: tussen Heerenveen en Leeuwarden rijden er bussen."},"cause":{"label":"werkzaamheden"},"additionalTravelTime":{"label":"De extra reistijd kan oplopen tot 30 minuten.","shortLabel":"extra reistijd tot 30 min.","maximumDurationInMinutes":30},"alternativeTransport":{"label":"er rijden stop- en snelbussen","shortLabel":"er rijden stop- en snelbussen"},"advices":[]},{"start":"2023-10-23T02:01:00+0200","end":"2023-10-30T02:00:00+0100","period":"Maandag 23-10-2023 02:01 uur t/m maandag 30-10-2023 02:00 uur.","situation":{"label":"Door werkzaamheden: tussen Akkrum en Leeuwarden rijden er bussen."},"cause":{"label":"werkzaamheden"},"additionalTravelTime":{"label":"De extra reistijd kan oplopen tot 30 minuten.","shortLabel":"extra reistijd tot 30 min.","maximumDurationInMinutes":30},"alternativeTransport":{"label":"er rijden stop- en snelbussen","shortLabel":"er rijden stop- en snelbussen"},"advices":[]}],"alternativeTransportTimespans":[{"start":"2023-10-21T00:20:00+0200","end":"2023-10-23T02:00:00+0200","alternativeTransport":{"location":[{"station":{"uicCode":"8400305","stationCode":"HR","name":"Heerenveen","coordinate":{"lat":52.9613876342773,"lng":5.91416645050049},"countryCode":"NL"},"description":"vanaf de voorzijde van het station"},{"station":{"uicCode":"8400387","stationCode":"LW","name":"Leeuwarden","coordinate":{"lat":53.1958351135254,"lng":5.79222202301025},"countryCode":"NL"},"description":"vanaf het busstation halte K, aan de voorzijde van het station"}],"label":"Er rijden snelbussen tussen Heerenveen en Leeuwarden.","shortLabel":"er rijden snelbussen Heerenveen - Leeuwarden"}},{"start":"2023-10-21T00:20:00+0200","end":"2023-10-23T02:00:00+0200","alternativeTransport":{"location":[{"station":{"uicCode":"8400305","stationCode":"HR","name":"Heerenveen","coordinate":{"lat":52.9613876342773,"lng":5.91416645050049},"countryCode":"NL"},"description":"vanaf de voorzijde van het station"},{"station":{"uicCode":"8400049","stationCode":"AKM","name":"Akkrum","coordinate":{"lat":53.0463905334473,"lng":5.84361124038696},"countryCode":"NL"},"description":"vanaf de voorzijde van het station"},{"station":{"uicCode":"8400266","stationCode":"GW","name":"Grou-Jirnsum","coordinate":{"lat":53.0888900756836,"lng":5.82250022888184},"countryCode":"NL"},"description":"vanaf de voorzijde van het station"},{"station":{"uicCode":"8400387","stationCode":"LW","name":"Leeuwarden","coordinate":{"lat":53.1958351135254,"lng":5.79222202301025},"countryCode":"NL"},"description":"vanaf de voorzijde van het station"}],"label":"Er rijden stopbussen tussen Heerenveen, Akkrum, Grou-Jirnsum en Leeuwarden.","shortLabel":"er rijden stopbussen Heerenveen - Akkrum - Grou-Jirnsum - Leeuwarden"}},{"start":"2023-10-21T00:20:00+0200","end":"2023-10-21T01:50:00+0200","alternativeTransport":{"location":[{"station":{"uicCode":"8400305","stationCode":"HR","name":"Heerenveen","coordinate":{"lat":52.9613876342773,"lng":5.91416645050049},"countryCode":"NL"},"description":"vanaf de voorzijde van het station"},{"station":{"uicCode":"8400049","stationCode":"AKM","name":"Akkrum","coordinate":{"lat":53.0463905334473,"lng":5.84361124038696},"countryCode":"NL"},"description":"vanaf de voorzijde van het station"},{"station":{"uicCode":"8400266","stationCode":"GW","name":"Grou-Jirnsum","coordinate":{"lat":53.0888900756836,"lng":5.82250022888184},"countryCode":"NL"},"description":"vanaf de voorzijde van het station"},{"station":{"uicCode":"8400387","stationCode":"LW","name":"Leeuwarden","coordinate":{"lat":53.1958351135254,"lng":5.79222202301025},"countryCode":"NL"},"description":"vanaf de voorzijde van het station"}],"label":"Er rijden stopbussen van Heerenveen, Akkrum, Grou-Jirnsum naar Leeuwarden.","shortLabel":"er rijden stopbussen Heerenveen -> Akkrum -> Grou-Jirnsum -> Leeuwarden"}},{"start":"2023-10-23T02:01:00+0200","end":"2023-10-30T02:00:00+0100","alternativeTransport":{"location":[{"station":{"uicCode":"8400049","stationCode":"AKM","name":"Akkrum","coordinate":{"lat":53.0463905334473,"lng":5.84361124038696},"countryCode":"NL"},"description":"vanaf de voorzijde van het station"},{"station":{"uicCode":"8400387","stationCode":"LW","name":"Leeuwarden","coordinate":{"lat":53.1958351135254,"lng":5.79222202301025},"countryCode":"NL"},"description":"vanaf het busstation halte K, aan de voorzijde van het station"}],"label":"Er rijden snelbussen tussen Akkrum en Leeuwarden.","shortLabel":"er rijden snelbussen Akkrum - Leeuwarden"}},{"start":"2023-10-23T02:01:00+0200","end":"2023-10-30T02:00:00+0100","alternativeTransport":{"location":[{"station":{"uicCode":"8400049","stationCode":"AKM","name":"Akkrum","coordinate":{"lat":53.0463905334473,"lng":5.84361124038696},"countryCode":"NL"},"description":"vanaf de voorzijde van het station"},{"station":{"uicCode":"8400266","stationCode":"GW","name":"Grou-Jirnsum","coordinate":{"lat":53.0888900756836,"lng":5.82250022888184},"countryCode":"NL"},"description":"vanaf de voorzijde van het station"},{"station":{"uicCode":"8400387","stationCode":"LW","name":"Leeuwarden","coordinate":{"lat":53.1958351135254,"lng":5.79222202301025},"countryCode":"NL"},"description":"vanaf de voorzijde van het station"}],"label":"Er rijden stopbussen tussen Akkrum, Grou-Jirnsum en Leeuwarden.","shortLabel":"er rijden stopbussen Akkrum - Grou-Jirnsum - Leeuwarden"}}]},{"id":"7003830","type":"MAINTENANCE","registrationTime":"2023-09-08T19:20:13+0200","releaseTime":"2023-09-08T19:20:13+0200","local":false,"title":"Amsterdam - Rotterdam - Brussel (HSL).","titleSections":[[{"type":"STATION","value":"Amsterdam C."},{"type":"STATION","value":"Breda"},{"type":"ICON","value":"MAINTENANCE"},{"type":"STATION","value":"Brussel-Z. Midi"}]],"isActive":true,"start":"2023-10-21T04:00:00+0200","end":"2023-10-22T23:59:00+0200","period":"Zaterdag 21-10-2023 04:00 uur t/m zondag 22-10-2023 23:59 uur.","impact":{"value":2},"summaryAdditionalTravelTime":{"label":"U heeft geen langere reistijd.","shortLabel":"Geen extra reistijd"},"publicationSections":[{"section":{"stations":[{"uicCode":"8400058","stationCode":"ASD","name":"Amsterdam Centraal","coordinate":{"lat":52.3788871765137,"lng":4.90027761459351},"countryCode":"NL"},{"uicCode":"8400059","stationCode":"ASS","name":"Amsterdam Sloterdijk","coordinate":{"lat":52.3888893127441,"lng":4.83777761459351},"countryCode":"NL"},{"uicCode":"8400079","stationCode":"ASDL","name":"Amsterdam Lelylaan","coordinate":{"lat":52.3577766418457,"lng":4.83388900756836},"countryCode":"NL"},{"uicCode":"8400561","stationCode":"SHL","name":"Schiphol Airport","coordinate":{"lat":52.3094444274902,"lng":4.76194429397583},"countryCode":"NL"},{"uicCode":"8400332","stationCode":"HFD","name":"Hoofddorp","coordinate":{"lat":52.2933349609375,"lng":4.70055532455444},"countryCode":"NL"},{"uicCode":"8400530","stationCode":"RTD","name":"Rotterdam Centraal","coordinate":{"lat":51.9249992370605,"lng":4.46888875961304},"countryCode":"NL"},{"uicCode":"8400529","stationCode":"RTB","name":"Rotterdam Blaak","coordinate":{"lat":51.9202766418457,"lng":4.48888874053955},"countryCode":"NL"},{"uicCode":"8400533","stationCode":"RTZ","name":"Rotterdam Zuid","coordinate":{"lat":51.9044456481934,"lng":4.51027774810791},"countryCode":"NL"},{"uicCode":"8400542","stationCode":"RLB","name":"Rotterdam Lombardijen","coordinate":{"lat":51.8800010681152,"lng":4.53138875961304},"countryCode":"NL"},{"uicCode":"8400132","stationCode":"BDPB","name":"Breda-Prinsenbeek","coordinate":{"lat":51.606388092041,"lng":4.72083330154419},"countryCode":"NL"},{"uicCode":"8400131","stationCode":"BD","name":"Breda","coordinate":{"lat":51.5955543518066,"lng":4.78000020980835},"countryCode":"NL"},{"uicCode":"8821105","stationCode":"NDKP","name":"Noorderkempen","coordinate":{"lat":51.358088,"lng":4.633977},"countryCode":"B"},{"uicCode":"8821063","stationCode":"ATWLB","name":"Antwerpen-Luchtbal","coordinate":{"lat":51.2449375,"lng":4.4251543},"countryCode":"B"},{"uicCode":"8821006","stationCode":"ATW","name":"Antwerpen-Centraal","coordinate":{"lat":51.21686,"lng":4.421242},"countryCode":"B"},{"uicCode":"8821121","stationCode":"BERCH","name":"Antwerpen-Berchem","coordinate":{"lat":51.198914,"lng":4.4332},"countryCode":"B"},{"uicCode":"8822004","stationCode":"MECH","name":"Mechelen","coordinate":{"lat":51.01758,"lng":4.48313},"countryCode":"B"},{"uicCode":"8812005","stationCode":"BRUSN","name":"Brussel-Noord","coordinate":{"lat":50.859658,"lng":4.360854},"countryCode":"B"},{"uicCode":"8813003","stationCode":"BRUSC","name":"Brussel-Centraal","coordinate":{"lat":50.845175,"lng":4.357131},"countryCode":"B"},{"uicCode":"8814001","stationCode":"BRUSZ","name":"Brussel-Zuid Midi","coordinate":{"lat":50.836782,"lng":4.336922},"countryCode":"B"}],"direction":"BOTH"},"consequence":{"section":{"stations":[{"uicCode":"8400131","stationCode":"BD","name":"Breda","coordinate":{"lat":51.5955543518066,"lng":4.78000020980835},"countryCode":"NL"},{"uicCode":"8821105","stationCode":"NDKP","name":"Noorderkempen","coordinate":{"lat":51.358088,"lng":4.633977},"countryCode":"B"},{"uicCode":"8821063","stationCode":"ATWLB","name":"Antwerpen-Luchtbal","coordinate":{"lat":51.2449375,"lng":4.4251543},"countryCode":"B"},{"uicCode":"8821006","stationCode":"ATW","name":"Antwerpen-Centraal","coordinate":{"lat":51.21686,"lng":4.421242},"countryCode":"B"},{"uicCode":"8821121","stationCode":"BERCH","name":"Antwerpen-Berchem","coordinate":{"lat":51.198914,"lng":4.4332},"countryCode":"B"},{"uicCode":"8822004","stationCode":"MECH","name":"Mechelen","coordinate":{"lat":51.01758,"lng":4.48313},"countryCode":"B"},{"uicCode":"8812005","stationCode":"BRUSN","name":"Brussel-Noord","coordinate":{"lat":50.859658,"lng":4.360854},"countryCode":"B"},{"uicCode":"8813003","stationCode":"BRUSC","name":"Brussel-Centraal","coordinate":{"lat":50.845175,"lng":4.357131},"countryCode":"B"},{"uicCode":"8814001","stationCode":"BRUSZ","name":"Brussel-Zuid Midi","coordinate":{"lat":50.836782,"lng":4.336922},"countryCode":"B"}],"direction":"ONE_WAY"},"description":"dienstregeling aangepast","level":"LESS_TRAINS"},"sectionType":"HSL"}],"timespans":[{"start":"2023-10-21T04:00:00+0200","end":"2023-10-22T23:59:00+0200","period":"Zaterdag 21-10-2023 04:00 uur t/m zondag 22-10-2023 23:59 uur.","situation":{"label":"Door werkzaamheden: tussen Breda en Brussel-Zuid Midi is de dienstregeling aangepast."},"cause":{"label":"werkzaamheden"},"additionalTravelTime":{"label":"U heeft geen langere reistijd.","shortLabel":"Geen extra reistijd"},"advices":["Intercity Brussel stopt niet in Antwerpen C.","tussen Breda en Antwerpen-C. reist u via Antw-Berchem"]}],"alternativeTransportTimespans":[]},{"id":"7003836","type":"MAINTENANCE","registrationTime":"2023-09-25T16:40:17+0200","releaseTime":"2023-09-25T16:40:17+0200","local":false,"title":"Roosendaal - Antwerpen - Puurs.","titleSections":[[{"type":"STATION","value":"Roosendaal"},{"type":"STATION","value":"Kapellen"},{"type":"ICON","value":"MAINTENANCE"},{"type":"STATION","value":"Antwerpen-C."},{"type":"STATION","value":"Puurs"}]],"isActive":true,"start":"2023-10-21T04:00:00+0200","end":"2023-10-23T02:00:00+0200","period":"Zaterdag 21-10-2023 04:00 uur t/m maandag 23-10-2023 02:00 uur.","impact":{"value":2},"summaryAdditionalTravelTime":{"label":"De extra reistijd kan oplopen tot 30 minuten.","shortLabel":"extra reistijd tot 30 min.","maximumDurationInMinutes":30},"publicationSections":[{"section":{"stations":[{"uicCode":"8400526","stationCode":"RSD","name":"Roosendaal","coordinate":{"lat":51.5402793884277,"lng":4.45833349227905},"countryCode":"NL"},{"uicCode":"8821402","stationCode":"ESN","name":"Essen","coordinate":{"lat":51.46261,"lng":4.45129},"countryCode":"B"},{"uicCode":"8821436","stationCode":"GWD","name":"Wildert","coordinate":{"lat":51.4277061,"lng":4.4633962},"countryCode":"B"},{"uicCode":"8821444","stationCode":"FKTH","name":"Kalmthout","coordinate":{"lat":51.3909989,"lng":4.4668202},"countryCode":"B"},{"uicCode":"8821451","stationCode":"GKT","name":"Kijkuit","coordinate":{"lat":51.37867,"lng":4.46722},"countryCode":"B"},{"uicCode":"8821519","stationCode":"MID","name":"Heide (B)","coordinate":{"lat":51.364828,"lng":4.4604308},"countryCode":"B"},{"uicCode":"8821535","stationCode":"LKP","name":"Kapellen","coordinate":{"lat":51.31362,"lng":4.43262},"countryCode":"B"},{"uicCode":"8821006","stationCode":"ATW","name":"Antwerpen-Centraal","coordinate":{"lat":51.21686,"lng":4.421242},"countryCode":"B"},{"uicCode":"8822715","stationCode":"FRP","name":"Puurs","coordinate":{"lat":51.07716,"lng":4.28273},"countryCode":"B"}],"direction":"BOTH"},"consequence":{"section":{"stations":[{"uicCode":"8821535","stationCode":"LKP","name":"Kapellen","coordinate":{"lat":51.31362,"lng":4.43262},"countryCode":"B"},{"uicCode":"8821006","stationCode":"ATW","name":"Antwerpen-Centraal","coordinate":{"lat":51.21686,"lng":4.421242},"countryCode":"B"}],"direction":"ONE_WAY"},"description":"aangepaste internationale dienstregeling","level":"LESS_TRAINS"},"sectionType":"NEIGHBORING_COUNTRY"}],"timespans":[{"start":"2023-10-21T04:00:00+0200","end":"2023-10-23T02:00:00+0200","period":"Zaterdag 21-10-2023 04:00 uur t/m maandag 23-10-2023 02:00 uur.","situation":{"label":"Door werkzaamheden: tussen Kapellen en Antwerpen-Centraal is de internationale dienstregeling aangepast."},"cause":{"label":"werkzaamheden"},"additionalTravelTime":{"label":"De extra reistijd kan oplopen tot 30 minuten.","shortLabel":"extra reistijd tot 30 min.","maximumDurationInMinutes":30},"alternativeTransport":{"label":"er rijden stopbussen","shortLabel":"er rijden stopbussen"},"advices":[]}],"alternativeTransportTimespans":[{"start":"2023-10-21T04:00:00+0200","end":"2023-10-23T02:00:00+0200","alternativeTransport":{"location":[],"label":"Er rijden stopbussen tussen Kapellen en Antwerpen-Centraal.","shortLabel":"er rijden stopbussen Kapellen - Antwerpen-C."}}]},{"id":"7004078","type":"MAINTENANCE","registrationTime":"2023-10-21T13:01:40+0200","releaseTime":"2023-10-21T13:01:40+0200","local":false,"title":"Amsterdam - Hannover - Berlin.","titleSections":[[{"type":"STATION","value":"Amsterdam C."},{"type":"STATION","value":"Bad Bentheim"},{"type":"ICON","value":"MAINTENANCE"},{"type":"STATION","value":"Berlin Hbf"}]],"isActive":true,"start":"2023-10-21T04:00:00+0200","end":"2023-10-23T02:00:00+0200","period":"Zaterdag 21-10-2023 04:00 uur t/m maandag 23-10-2023 02:00 uur.","impact":{"value":2},"summaryAdditionalTravelTime":{"label":"U heeft geen langere reistijd.","shortLabel":"Geen extra reistijd"},"publicationSections":[{"section":{"stations":[{"uicCode":"8400058","stationCode":"ASD","name":"Amsterdam Centraal","coordinate":{"lat":52.3788871765137,"lng":4.90027761459351},"countryCode":"NL"},{"uicCode":"8400060","stationCode":"ASDM","name":"Amsterdam Muiderpoort","coordinate":{"lat":52.3605537414551,"lng":4.93111133575439},"countryCode":"NL"},{"uicCode":"8400235","stationCode":"ASSP","name":"Amsterdam Science Park","coordinate":{"lat":52.35526,"lng":4.94651},"countryCode":"NL"},{"uicCode":"8400165","stationCode":"DMN","name":"Diemen","coordinate":{"lat":52.34515,"lng":4.967566},"countryCode":"NL"},{"uicCode":"8400685","stationCode":"WP","name":"Weesp","coordinate":{"lat":52.3127784729004,"lng":5.04305553436279},"countryCode":"NL"},{"uicCode":"8400452","stationCode":"NDB","name":"Naarden-Bussum","coordinate":{"lat":52.2802772521973,"lng":5.15694427490234},"countryCode":"NL"},{"uicCode":"8400145","stationCode":"BSMZ","name":"Bussum Zuid","coordinate":{"lat":52.2658348083496,"lng":5.16305541992188},"countryCode":"NL"},{"uicCode":"8400324","stationCode":"HVSM","name":"Hilversum Media Park","coordinate":{"lat":52.2380561828613,"lng":5.17388868331909},"countryCode":"NL"},{"uicCode":"8400322","stationCode":"HVS","name":"Hilversum","coordinate":{"lat":52.2258338928223,"lng":5.18194437026978},"countryCode":"NL"},{"uicCode":"8400086","stationCode":"BRN","name":"Baarn","coordinate":{"lat":52.2083320617676,"lng":5.28083324432373},"countryCode":"NL"},{"uicCode":"8400055","stationCode":"AMF","name":"Amersfoort Centraal","coordinate":{"lat":52.1538887023926,"lng":5.37055540084839},"countryCode":"NL"},{"uicCode":"8400490","stationCode":"HVL","name":"Hoevelaken","coordinate":{"lat":52.16652,"lng":5.45718},"countryCode":"NL"},{"uicCode":"8400066","stationCode":"APD","name":"Apeldoorn","coordinate":{"lat":52.2091674804687,"lng":5.97027778625488},"countryCode":"NL"},{"uicCode":"8400229","stationCode":"APDO","name":"Apeldoorn Osseveld","coordinate":{"lat":52.2152786254883,"lng":6.00444459915161},"countryCode":"NL"},{"uicCode":"8400599","stationCode":"TWL","name":"Twello","coordinate":{"lat":52.2377777099609,"lng":6.09861087799072},"countryCode":"NL"},{"uicCode":"8400173","stationCode":"DV","name":"Deventer","coordinate":{"lat":52.2574996948242,"lng":6.16055536270142},"countryCode":"NL"},{"uicCode":"8400185","stationCode":"DVC","name":"Deventer Colmschate","coordinate":{"lat":52.2502784729004,"lng":6.21444463729858},"countryCode":"NL"},{"uicCode":"8400328","stationCode":"HON","name":"Holten","coordinate":{"lat":52.2838897705078,"lng":6.42027759552002},"countryCode":"NL"},{"uicCode":"8400538","stationCode":"RSN","name":"Rijssen","coordinate":{"lat":52.3122215270996,"lng":6.52027797698975},"countryCode":"NL"},{"uicCode":"8400691","stationCode":"WDN","name":"Wierden","coordinate":{"lat":52.3613891601562,"lng":6.59166669845581},"countryCode":"NL"},{"uicCode":"8400051","stationCode":"AML","name":"Almelo","coordinate":{"lat":52.3580551147461,"lng":6.65388870239258},"countryCode":"NL"},{"uicCode":"8400520","stationCode":"AMRI","name":"Almelo de Riet","coordinate":{"lat":52.3419456481934,"lng":6.66666650772095},"countryCode":"NL"},{"uicCode":"8400124","stationCode":"BN","name":"Borne","coordinate":{"lat":52.2988891601562,"lng":6.74805545806885},"countryCode":"NL"},{"uicCode":"8400316","stationCode":"HGL","name":"Hengelo","coordinate":{"lat":52.2616653442383,"lng":6.79388904571533},"countryCode":"NL"},{"uicCode":"8400312","stationCode":"HGLO","name":"Hengelo Oost","coordinate":{"lat":52.2688903808594,"lng":6.81944465637207},"countryCode":"NL"},{"uicCode":"8400483","stationCode":"ODZ","name":"Oldenzaal","coordinate":{"lat":52.3063888549805,"lng":6.93472242355347},"countryCode":"NL"},{"uicCode":"8021156","stationCode":"BH","name":"Bad Bentheim","coordinate":{"lat":52.309685595156,"lng":7.15853691101074},"countryCode":"D"},{"uicCode":"8021067","stationCode":"RHEINE","name":"Rheine","coordinate":{"lat":52.276299,"lng":7.434255},"countryCode":"D"},{"uicCode":"8021025","stationCode":"OSNH","name":"Osnabrück Hbf","coordinate":{"lat":52.272851,"lng":8.061781},"countryCode":"D"},{"uicCode":"8013552","stationCode":"HANN","name":"Hannover Hbf","coordinate":{"lat":52.3770401,"lng":9.7416759},"countryCode":"D"},{"uicCode":"8065969","stationCode":"BERHBL","name":"Berlin Hbf","coordinate":{"lat":52.52503,"lng":13.36946},"countryCode":"D"}],"direction":"BOTH"},"consequence":{"section":{"stations":[{"uicCode":"8021156","stationCode":"BH","name":"Bad Bentheim","coordinate":{"lat":52.309685595156,"lng":7.15853691101074},"countryCode":"D"},{"uicCode":"8021067","stationCode":"RHEINE","name":"Rheine","coordinate":{"lat":52.276299,"lng":7.434255},"countryCode":"D"},{"uicCode":"8021025","stationCode":"OSNH","name":"Osnabrück Hbf","coordinate":{"lat":52.272851,"lng":8.061781},"countryCode":"D"},{"uicCode":"8013552","stationCode":"HANN","name":"Hannover Hbf","coordinate":{"lat":52.3770401,"lng":9.7416759},"countryCode":"D"},{"uicCode":"8065969","stationCode":"BERHBL","name":"Berlin Hbf","coordinate":{"lat":52.52503,"lng":13.36946},"countryCode":"D"}],"direction":"ONE_WAY"},"description":"aangepaste internationale dienstregeling","level":"LESS_TRAINS"},"sectionType":"NEIGHBORING_COUNTRY"}],"timespans":[{"start":"2023-10-21T04:00:00+0200","end":"2023-10-23T02:00:00+0200","period":"Zaterdag 21-10-2023 04:00 uur t/m maandag 23-10-2023 02:00 uur.","situation":{"label":"Door werkzaamheden: tussen Bad Bentheim en Berlin Hbf is de internationale dienstregeling aangepast."},"cause":{"label":"werkzaamheden"},"additionalTravelTime":{"label":"U heeft geen langere reistijd.","shortLabel":"Geen extra reistijd"},"advices":["IC Berlijn rijdt niet verder dan Hamm. U kunt in Hamm overstappen op overige treinen."]}],"alternativeTransportTimespans":[]},{"id":"7003955","type":"MAINTENANCE","registrationTime":"2023-09-29T11:30:39+0200","releaseTime":"2023-09-29T11:30:39+0200","local":false,"title":"Leeuwarden - Harlingen Haven; Leeuwarden - Stavoren.","titleSections":[[{"type":"STATION","value":"Leeuwarden"},{"type":"ICON","value":"MAINTENANCE"},{"type":"STATION","value":"Harlingen Haven"}],[{"type":"STATION","value":"Leeuwarden"},{"type":"ICON","value":"MAINTENANCE"},{"type":"STATION","value":"Stavoren"}]],"isActive":true,"start":"2023-10-21T04:00:00+0200","end":"2023-10-23T02:00:00+0200","period":"Zaterdag 21-10-2023 04:00 uur t/m maandag 23-10-2023 02:00 uur.","impact":{"value":4},"summaryAdditionalTravelTime":{"label":"De extra reistijd is ongeveer 30 minuten.","shortLabel":"extra reistijd 30 min.","minimumDurationInMinutes":30,"maximumDurationInMinutes":30},"publicationSections":[{"section":{"stations":[{"uicCode":"8400387","stationCode":"LW","name":"Leeuwarden","coordinate":{"lat":53.1958351135254,"lng":5.79222202301025},"countryCode":"NL"},{"uicCode":"8400168","stationCode":"DEI","name":"Deinum","coordinate":{"lat":53.1888115,"lng":5.7281572},"countryCode":"NL"},{"uicCode":"8400192","stationCode":"DRP","name":"Dronryp","coordinate":{"lat":53.1778086,"lng":5.6347411},"countryCode":"NL"},{"uicCode":"8400232","stationCode":"FN","name":"Franeker","coordinate":{"lat":53.1824488,"lng":5.5483094},"countryCode":"NL"},{"uicCode":"8400296","stationCode":"HLG","name":"Harlingen","coordinate":{"lat":53.1704205,"lng":5.4251932},"countryCode":"NL"},{"uicCode":"8400298","stationCode":"HLGH","name":"Harlingen Haven","coordinate":{"lat":53.174917,"lng":5.4112885},"countryCode":"NL"}],"direction":"BOTH"},"consequence":{"section":{"stations":[{"uicCode":"8400387","stationCode":"LW","name":"Leeuwarden","coordinate":{"lat":53.1958351135254,"lng":5.79222202301025},"countryCode":"NL"},{"uicCode":"8400168","stationCode":"DEI","name":"Deinum","coordinate":{"lat":53.1888115,"lng":5.7281572},"countryCode":"NL"},{"uicCode":"8400192","stationCode":"DRP","name":"Dronryp","coordinate":{"lat":53.1778086,"lng":5.6347411},"countryCode":"NL"},{"uicCode":"8400232","stationCode":"FN","name":"Franeker","coordinate":{"lat":53.1824488,"lng":5.5483094},"countryCode":"NL"},{"uicCode":"8400296","stationCode":"HLG","name":"Harlingen","coordinate":{"lat":53.1704205,"lng":5.4251932},"countryCode":"NL"},{"uicCode":"8400298","stationCode":"HLGH","name":"Harlingen Haven","coordinate":{"lat":53.174917,"lng":5.4112885},"countryCode":"NL"}],"direction":"ONE_WAY"},"description":"rijden bussen","level":"LESS_TRAINS"},"sectionType":"NL"},{"section":{"stations":[{"uicCode":"8400387","stationCode":"LW","name":"Leeuwarden","coordinate":{"lat":53.1958351135254,"lng":5.79222202301025},"countryCode":"NL"},{"uicCode":"8400427","stationCode":"MG","name":"Mantgum","coordinate":{"lat":53.1296368,"lng":5.7131996},"countryCode":"NL"},{"uicCode":"8400574","stationCode":"SKND","name":"Sneek Noord","coordinate":{"lat":53.0409319,"lng":5.6631808},"countryCode":"NL"},{"uicCode":"8400566","stationCode":"SK","name":"Sneek","coordinate":{"lat":53.0328688,"lng":5.6523969},"countryCode":"NL"},{"uicCode":"8400722","stationCode":"IJT","name":"IJlst","coordinate":{"lat":53.0146614,"lng":5.6160801},"countryCode":"NL"},{"uicCode":"8400706","stationCode":"WK","name":"Workum","coordinate":{"lat":52.9724864,"lng":5.4564285},"countryCode":"NL"},{"uicCode":"8400323","stationCode":"HNP","name":"Hindeloopen","coordinate":{"lat":52.9464903,"lng":5.423063},"countryCode":"NL"},{"uicCode":"8400366","stationCode":"KMW","name":"Koudum-Molkwerum","coordinate":{"lat":52.9028197,"lng":5.4106913},"countryCode":"NL"},{"uicCode":"8400575","stationCode":"STV","name":"Stavoren","coordinate":{"lat":52.8865535,"lng":5.3600212},"countryCode":"NL"}],"direction":"BOTH"},"consequence":{"section":{"stations":[{"uicCode":"8400387","stationCode":"LW","name":"Leeuwarden","coordinate":{"lat":53.1958351135254,"lng":5.79222202301025},"countryCode":"NL"},{"uicCode":"8400427","stationCode":"MG","name":"Mantgum","coordinate":{"lat":53.1296368,"lng":5.7131996},"countryCode":"NL"},{"uicCode":"8400574","stationCode":"SKND","name":"Sneek Noord","coordinate":{"lat":53.0409319,"lng":5.6631808},"countryCode":"NL"},{"uicCode":"8400566","stationCode":"SK","name":"Sneek","coordinate":{"lat":53.0328688,"lng":5.6523969},"countryCode":"NL"},{"uicCode":"8400722","stationCode":"IJT","name":"IJlst","coordinate":{"lat":53.0146614,"lng":5.6160801},"countryCode":"NL"},{"uicCode":"8400706","stationCode":"WK","name":"Workum","coordinate":{"lat":52.9724864,"lng":5.4564285},"countryCode":"NL"},{"uicCode":"8400323","stationCode":"HNP","name":"Hindeloopen","coordinate":{"lat":52.9464903,"lng":5.423063},"countryCode":"NL"},{"uicCode":"8400366","stationCode":"KMW","name":"Koudum-Molkwerum","coordinate":{"lat":52.9028197,"lng":5.4106913},"countryCode":"NL"},{"uicCode":"8400575","stationCode":"STV","name":"Stavoren","coordinate":{"lat":52.8865535,"lng":5.3600212},"countryCode":"NL"}],"direction":"ONE_WAY"},"description":"rijden bussen","level":"LESS_TRAINS"},"sectionType":"NL"}],"timespans":[{"start":"2023-10-21T04:00:00+0200","end":"2023-10-23T02:00:00+0200","period":"Zaterdag 21-10-2023 04:00 uur t/m maandag 23-10-2023 02:00 uur.","situation":{"label":"Door werkzaamheden: tussen Leeuwarden en Harlingen Haven rijden er bussen en tussen Leeuwarden en Stavoren rijden er bussen."},"cause":{"label":"werkzaamheden"},"additionalTravelTime":{"label":"De extra reistijd is ongeveer 30 minuten.","shortLabel":"extra reistijd 30 min.","minimumDurationInMinutes":30,"maximumDurationInMinutes":30},"alternativeTransport":{"label":"maak gebruik van het vervangende vervoer","shortLabel":"gebruik het vervangende vervoer"},"advices":[]}],"alternativeTransportTimespans":[{"start":"2023-10-21T04:00:00+0200","end":"2023-10-23T02:00:00+0200","alternativeTransport":{"location":[{"station":{"uicCode":"8400387","stationCode":"LW","name":"Leeuwarden","coordinate":{"lat":53.1958351135254,"lng":5.79222202301025},"countryCode":"NL"},"description":"vanaf het busstation Halte O"},{"station":{"uicCode":"8400168","stationCode":"DEI","name":"Deinum","coordinate":{"lat":53.1888115,"lng":5.7281572},"countryCode":"NL"},"description":"vanaf de voorzijde van het station"},{"station":{"uicCode":"8400192","stationCode":"DRP","name":"Dronryp","coordinate":{"lat":53.1778086,"lng":5.6347411},"countryCode":"NL"},"description":"vanaf de doorgaande weg"},{"station":{"uicCode":"8400232","stationCode":"FN","name":"Franeker","coordinate":{"lat":53.1824488,"lng":5.5483094},"countryCode":"NL"},"description":"vanaf de bushalte"},{"station":{"uicCode":"8400296","stationCode":"HLG","name":"Harlingen","coordinate":{"lat":53.1704205,"lng":5.4251932},"countryCode":"NL"},"description":"vanaf de bushalte"},{"station":{"uicCode":"8400298","stationCode":"HLGH","name":"Harlingen Haven","coordinate":{"lat":53.174917,"lng":5.4112885},"countryCode":"NL"},"description":"bij de Willemshaven"}],"label":"Er rijden stopbussen tussen Leeuwarden, Deinum, Dronryp, Franeker, Harlingen en Harlingen Haven.","shortLabel":"er rijden stopbussen Leeuwarden - Deinum - Dronryp - Franeker - Harlingen - Harlingen Haven"}},{"start":"2023-10-21T04:00:00+0200","end":"2023-10-23T02:00:00+0200","alternativeTransport":{"location":[{"station":{"uicCode":"8400387","stationCode":"LW","name":"Leeuwarden","coordinate":{"lat":53.1958351135254,"lng":5.79222202301025},"countryCode":"NL"},"description":"vanaf het busstation Halte O"},{"station":{"uicCode":"8400427","stationCode":"MG","name":"Mantgum","coordinate":{"lat":53.1296368,"lng":5.7131996},"countryCode":"NL"},"description":"vanaf de doorgaande weg"},{"station":{"uicCode":"8400574","stationCode":"SKND","name":"Sneek Noord","coordinate":{"lat":53.0409319,"lng":5.6631808},"countryCode":"NL"},"description":"vanaf de doorgaande weg"},{"station":{"uicCode":"8400566","stationCode":"SK","name":"Sneek","coordinate":{"lat":53.0328688,"lng":5.6523969},"countryCode":"NL"},"description":"vanaf het busstation"},{"station":{"uicCode":"8400706","stationCode":"WK","name":"Workum","coordinate":{"lat":52.9724864,"lng":5.4564285},"countryCode":"NL"},"description":"vanaf de bushalte"},{"station":{"uicCode":"8400323","stationCode":"HNP","name":"Hindeloopen","coordinate":{"lat":52.9464903,"lng":5.423063},"countryCode":"NL"},"description":"vanaf de doorgaande weg"},{"station":{"uicCode":"8400366","stationCode":"KMW","name":"Koudum-Molkwerum","coordinate":{"lat":52.9028197,"lng":5.4106913},"countryCode":"NL"},"description":"vanaf de doorgaande weg"},{"station":{"uicCode":"8400575","stationCode":"STV","name":"Stavoren","coordinate":{"lat":52.8865535,"lng":5.3600212},"countryCode":"NL"},"description":"vanaf de bushalte"}],"label":"Er rijden stopbussen tussen Leeuwarden, Mantgum, Sneek Noord, Sneek, Workum, Hindeloopen, Koudum-Molkwerum en Stavoren.","shortLabel":"er rijden stopbussen Leeuwarden - Mantgum - Sneek Noord - Sneek - Workum - Hindeloopen - Koudum-Molkwerum - Stavoren"}},{"start":"2023-10-21T04:00:00+0200","end":"2023-10-23T02:00:00+0200","alternativeTransport":{"location":[{"station":{"uicCode":"8400566","stationCode":"SK","name":"Sneek","coordinate":{"lat":53.0328688,"lng":5.6523969},"countryCode":"NL"},"description":"vanaf het busstation"},{"station":{"uicCode":"8400722","stationCode":"IJT","name":"IJlst","coordinate":{"lat":53.0146614,"lng":5.6160801},"countryCode":"NL"},"description":"vanaf de voorzijde van het station"}],"label":"Er rijden taxibusjes tussen Sneek en IJlst.","shortLabel":"er rijden taxibusjes Sneek - IJlst"}}]},{"id":"7004079","type":"MAINTENANCE","registrationTime":"2023-10-10T15:25:33+0200","releaseTime":"2023-10-10T15:25:33+0200","local":false,"title":"Amsterdam - Hannover - Berlin.","titleSections":[[{"type":"STATION","value":"Amsterdam C."},{"type":"STATION","value":"Bad Bentheim"},{"type":"ICON","value":"MAINTENANCE"},{"type":"STATION","value":"Berlin Hbf"}]],"isActive":true,"start":"2023-10-21T04:00:00+0200","end":"2023-11-04T02:00:00+0100","period":"Zaterdag 21-10-2023 04:00 uur t/m zaterdag 04-11-2023 02:00 uur.","impact":{"value":2},"summaryAdditionalTravelTime":{"label":"U heeft geen langere reistijd.","shortLabel":"Geen extra reistijd"},"publicationSections":[{"section":{"stations":[{"uicCode":"8400058","stationCode":"ASD","name":"Amsterdam Centraal","coordinate":{"lat":52.3788871765137,"lng":4.90027761459351},"countryCode":"NL"},{"uicCode":"8400060","stationCode":"ASDM","name":"Amsterdam Muiderpoort","coordinate":{"lat":52.3605537414551,"lng":4.93111133575439},"countryCode":"NL"},{"uicCode":"8400235","stationCode":"ASSP","name":"Amsterdam Science Park","coordinate":{"lat":52.35526,"lng":4.94651},"countryCode":"NL"},{"uicCode":"8400165","stationCode":"DMN","name":"Diemen","coordinate":{"lat":52.34515,"lng":4.967566},"countryCode":"NL"},{"uicCode":"8400685","stationCode":"WP","name":"Weesp","coordinate":{"lat":52.3127784729004,"lng":5.04305553436279},"countryCode":"NL"},{"uicCode":"8400452","stationCode":"NDB","name":"Naarden-Bussum","coordinate":{"lat":52.2802772521973,"lng":5.15694427490234},"countryCode":"NL"},{"uicCode":"8400145","stationCode":"BSMZ","name":"Bussum Zuid","coordinate":{"lat":52.2658348083496,"lng":5.16305541992188},"countryCode":"NL"},{"uicCode":"8400324","stationCode":"HVSM","name":"Hilversum Media Park","coordinate":{"lat":52.2380561828613,"lng":5.17388868331909},"countryCode":"NL"},{"uicCode":"8400322","stationCode":"HVS","name":"Hilversum","coordinate":{"lat":52.2258338928223,"lng":5.18194437026978},"countryCode":"NL"},{"uicCode":"8400086","stationCode":"BRN","name":"Baarn","coordinate":{"lat":52.2083320617676,"lng":5.28083324432373},"countryCode":"NL"},{"uicCode":"8400055","stationCode":"AMF","name":"Amersfoort Centraal","coordinate":{"lat":52.1538887023926,"lng":5.37055540084839},"countryCode":"NL"},{"uicCode":"8400490","stationCode":"HVL","name":"Hoevelaken","coordinate":{"lat":52.16652,"lng":5.45718},"countryCode":"NL"},{"uicCode":"8400066","stationCode":"APD","name":"Apeldoorn","coordinate":{"lat":52.2091674804687,"lng":5.97027778625488},"countryCode":"NL"},{"uicCode":"8400229","stationCode":"APDO","name":"Apeldoorn Osseveld","coordinate":{"lat":52.2152786254883,"lng":6.00444459915161},"countryCode":"NL"},{"uicCode":"8400599","stationCode":"TWL","name":"Twello","coordinate":{"lat":52.2377777099609,"lng":6.09861087799072},"countryCode":"NL"},{"uicCode":"8400173","stationCode":"DV","name":"Deventer","coordinate":{"lat":52.2574996948242,"lng":6.16055536270142},"countryCode":"NL"},{"uicCode":"8400185","stationCode":"DVC","name":"Deventer Colmschate","coordinate":{"lat":52.2502784729004,"lng":6.21444463729858},"countryCode":"NL"},{"uicCode":"8400328","stationCode":"HON","name":"Holten","coordinate":{"lat":52.2838897705078,"lng":6.42027759552002},"countryCode":"NL"},{"uicCode":"8400538","stationCode":"RSN","name":"Rijssen","coordinate":{"lat":52.3122215270996,"lng":6.52027797698975},"countryCode":"NL"},{"uicCode":"8400691","stationCode":"WDN","name":"Wierden","coordinate":{"lat":52.3613891601562,"lng":6.59166669845581},"countryCode":"NL"},{"uicCode":"8400051","stationCode":"AML","name":"Almelo","coordinate":{"lat":52.3580551147461,"lng":6.65388870239258},"countryCode":"NL"},{"uicCode":"8400520","stationCode":"AMRI","name":"Almelo de Riet","coordinate":{"lat":52.3419456481934,"lng":6.66666650772095},"countryCode":"NL"},{"uicCode":"8400124","stationCode":"BN","name":"Borne","coordinate":{"lat":52.2988891601562,"lng":6.74805545806885},"countryCode":"NL"},{"uicCode":"8400316","stationCode":"HGL","name":"Hengelo","coordinate":{"lat":52.2616653442383,"lng":6.79388904571533},"countryCode":"NL"},{"uicCode":"8400312","stationCode":"HGLO","name":"Hengelo Oost","coordinate":{"lat":52.2688903808594,"lng":6.81944465637207},"countryCode":"NL"},{"uicCode":"8400483","stationCode":"ODZ","name":"Oldenzaal","coordinate":{"lat":52.3063888549805,"lng":6.93472242355347},"countryCode":"NL"},{"uicCode":"8021156","stationCode":"BH","name":"Bad Bentheim","coordinate":{"lat":52.309685595156,"lng":7.15853691101074},"countryCode":"D"},{"uicCode":"8021067","stationCode":"RHEINE","name":"Rheine","coordinate":{"lat":52.276299,"lng":7.434255},"countryCode":"D"},{"uicCode":"8021025","stationCode":"OSNH","name":"Osnabrück Hbf","coordinate":{"lat":52.272851,"lng":8.061781},"countryCode":"D"},{"uicCode":"8013552","stationCode":"HANN","name":"Hannover Hbf","coordinate":{"lat":52.3770401,"lng":9.7416759},"countryCode":"D"},{"uicCode":"8065969","stationCode":"BERHBL","name":"Berlin Hbf","coordinate":{"lat":52.52503,"lng":13.36946},"countryCode":"D"}],"direction":"BOTH"},"consequence":{"section":{"stations":[{"uicCode":"8021156","stationCode":"BH","name":"Bad Bentheim","coordinate":{"lat":52.309685595156,"lng":7.15853691101074},"countryCode":"D"},{"uicCode":"8021067","stationCode":"RHEINE","name":"Rheine","coordinate":{"lat":52.276299,"lng":7.434255},"countryCode":"D"},{"uicCode":"8021025","stationCode":"OSNH","name":"Osnabrück Hbf","coordinate":{"lat":52.272851,"lng":8.061781},"countryCode":"D"},{"uicCode":"8013552","stationCode":"HANN","name":"Hannover Hbf","coordinate":{"lat":52.3770401,"lng":9.7416759},"countryCode":"D"},{"uicCode":"8065969","stationCode":"BERHBL","name":"Berlin Hbf","coordinate":{"lat":52.52503,"lng":13.36946},"countryCode":"D"}],"direction":"ONE_WAY"},"description":"aangepaste internationale dienstregeling","level":"LESS_TRAINS"},"sectionType":"NEIGHBORING_COUNTRY"}],"timespans":[{"start":"2023-10-21T04:00:00+0200","end":"2023-11-04T02:00:00+0100","period":"Zaterdag 21-10-2023 04:00 uur t/m zaterdag 04-11-2023 02:00 uur.","situation":{"label":"Door werkzaamheden: tussen Bad Bentheim en Berlin Hbf is de internationale dienstregeling aangepast."},"cause":{"label":"werkzaamheden"},"additionalTravelTime":{"label":"U heeft geen langere reistijd.","shortLabel":"Geen extra reistijd"},"advices":["Dit kan gevolgen hebben voor uw reis. Plan uw reis in de (Internationale) app."]}],"alternativeTransportTimespans":[]},{"id":"7003965","type":"MAINTENANCE","registrationTime":"2023-09-28T09:53:31+0200","releaseTime":"2023-09-28T09:53:31+0200","local":false,"title":"Groningen - Leer.","titleSections":[[{"type":"STATION","value":"Groningen"},{"type":"STATION","value":"Winschoten"},{"type":"ICON","value":"MAINTENANCE"},{"type":"STATION","value":"Weener"},{"type":"STATION","value":"Leer (Ostfr.)"}]],"isActive":true,"start":"2023-10-21T05:00:00+0200","end":"2023-10-22T02:00:00+0200","period":"Zaterdag 21-10-2023 05:00 uur t/m zondag 22-10-2023 02:00 uur.","impact":{"value":3},"summaryAdditionalTravelTime":{"label":"De extra reistijd is ongeveer 30 minuten.","shortLabel":"extra reistijd 30 min.","minimumDurationInMinutes":30,"maximumDurationInMinutes":30},"publicationSections":[{"section":{"stations":[{"uicCode":"8400263","stationCode":"GN","name":"Groningen","coordinate":{"lat":53.2105560302734,"lng":6.56472206115723},"countryCode":"NL"},{"uicCode":"8400238","stationCode":"GERP","name":"Groningen Europapark","coordinate":{"lat":53.20480027,"lng":6.5854178},"countryCode":"NL"},{"uicCode":"8400369","stationCode":"KW","name":"Kropswolde","coordinate":{"lat":53.1617362,"lng":6.7220882},"countryCode":"NL"},{"uicCode":"8400430","stationCode":"MTH","name":"Martenshoek","coordinate":{"lat":53.1607232,"lng":6.7402989},"countryCode":"NL"},{"uicCode":"8400331","stationCode":"HGZ","name":"Hoogezand-Sappemeer","coordinate":{"lat":53.1598181316756,"lng":6.77075386047363},"countryCode":"NL"},{"uicCode":"8400742","stationCode":"ZB","name":"Zuidbroek","coordinate":{"lat":53.1596122800056,"lng":6.8679141998291},"countryCode":"NL"},{"uicCode":"8400551","stationCode":"SDA","name":"Scheemda","coordinate":{"lat":53.1655362,"lng":6.9777775},"countryCode":"NL"},{"uicCode":"8400696","stationCode":"WS","name":"Winschoten","coordinate":{"lat":53.1392377,"lng":7.035101},"countryCode":"NL"},{"uicCode":"8400457","stationCode":"NSCH","name":"Bad Nieuweschans","coordinate":{"lat":53.1844,"lng":7.19937},"countryCode":"NL"},{"uicCode":"8021239","stationCode":"WR","name":"Weener","coordinate":{"lat":53.16311,"lng":7.3442},"countryCode":"D"},{"uicCode":"8021091","stationCode":"LEER","name":"Leer (Ostfriesl)","coordinate":{"lat":53.23165,"lng":7.465283},"countryCode":"D"}],"direction":"BOTH"},"consequence":{"section":{"stations":[{"uicCode":"8400696","stationCode":"WS","name":"Winschoten","coordinate":{"lat":53.1392377,"lng":7.035101},"countryCode":"NL"},{"uicCode":"8400457","stationCode":"NSCH","name":"Bad Nieuweschans","coordinate":{"lat":53.1844,"lng":7.19937},"countryCode":"NL"},{"uicCode":"8021239","stationCode":"WR","name":"Weener","coordinate":{"lat":53.16311,"lng":7.3442},"countryCode":"D"}],"direction":"ONE_WAY"},"description":"rijden bussen","level":"LESS_TRAINS"},"sectionType":"NEIGHBORING_COUNTRY"}],"timespans":[{"start":"2023-10-21T05:00:00+0200","end":"2023-10-22T02:00:00+0200","period":"Zaterdag 21-10-2023 05:00 uur t/m zondag 22-10-2023 02:00 uur.","situation":{"label":"Door werkzaamheden: tussen Winschoten en Weener rijden er bussen."},"cause":{"label":"werkzaamheden"},"additionalTravelTime":{"label":"De extra reistijd is ongeveer 30 minuten.","shortLabel":"extra reistijd 30 min.","minimumDurationInMinutes":30,"maximumDurationInMinutes":30},"alternativeTransport":{"label":"er rijden stopbussen","shortLabel":"er rijden stopbussen"},"advices":[]}],"alternativeTransportTimespans":[{"start":"2023-10-21T05:00:00+0200","end":"2023-10-22T02:00:00+0200","alternativeTransport":{"location":[{"station":{"uicCode":"8400696","stationCode":"WS","name":"Winschoten","coordinate":{"lat":53.1392377,"lng":7.035101},"countryCode":"NL"},"description":"vanaf het busstation"},{"station":{"uicCode":"8400457","stationCode":"NSCH","name":"Bad Nieuweschans","coordinate":{"lat":53.1844,"lng":7.19937},"countryCode":"NL"},"description":"vanaf de doorgaande weg"}],"label":"Er rijden stopbussen tussen Winschoten, Bad Nieuweschans en Weener.","shortLabel":"er rijden stopbussen Winschoten - Bad Nieuweschans - Weener"}}]},{"id":"7003959","type":"MAINTENANCE","registrationTime":"2023-10-02T10:59:32+0200","releaseTime":"2023-10-02T10:59:32+0200","local":false,"title":"Sittard - Maastricht; Maastricht - Randwijck.","titleSections":[[{"type":"STATION","value":"Sittard"},{"type":"ICON","value":"MAINTENANCE"},{"type":"STATION","value":"Maastricht"}],[{"type":"STATION","value":"Maastricht"},{"type":"ICON","value":"MAINTENANCE"},{"type":"STATION","value":"Randwyck"}]],"isActive":true,"start":"2023-10-21T05:00:00+0200","end":"2023-10-23T02:00:00+0200","period":"Zaterdag 21-10-2023 05:00 uur t/m maandag 23-10-2023 02:00 uur.","impact":{"value":4},"summaryAdditionalTravelTime":{"label":"De extra reistijd is ongeveer 30 minuten.","shortLabel":"extra reistijd 30 min.","minimumDurationInMinutes":30,"maximumDurationInMinutes":30},"publicationSections":[{"section":{"stations":[{"uicCode":"8400564","stationCode":"STD","name":"Sittard","coordinate":{"lat":51.0016670227051,"lng":5.85861110687256},"countryCode":"NL"},{"uicCode":"8400248","stationCode":"LUT","name":"Geleen-Lutterade","coordinate":{"lat":50.9755554199219,"lng":5.82472229003906},"countryCode":"NL"},{"uicCode":"8400096","stationCode":"BK","name":"Beek-Elsloo","coordinate":{"lat":50.9474983215332,"lng":5.78666687011719},"countryCode":"NL"},{"uicCode":"8400140","stationCode":"BDE","name":"Bunde","coordinate":{"lat":50.8969459533691,"lng":5.73666667938232},"countryCode":"NL"},{"uicCode":"8400424","stationCode":"MT","name":"Maastricht","coordinate":{"lat":50.8502769470215,"lng":5.70555543899536},"countryCode":"NL"}],"direction":"BOTH"},"consequence":{"section":{"stations":[{"uicCode":"8400564","stationCode":"STD","name":"Sittard","coordinate":{"lat":51.0016670227051,"lng":5.85861110687256},"countryCode":"NL"},{"uicCode":"8400248","stationCode":"LUT","name":"Geleen-Lutterade","coordinate":{"lat":50.9755554199219,"lng":5.82472229003906},"countryCode":"NL"},{"uicCode":"8400096","stationCode":"BK","name":"Beek-Elsloo","coordinate":{"lat":50.9474983215332,"lng":5.78666687011719},"countryCode":"NL"},{"uicCode":"8400140","stationCode":"BDE","name":"Bunde","coordinate":{"lat":50.8969459533691,"lng":5.73666667938232},"countryCode":"NL"},{"uicCode":"8400424","stationCode":"MT","name":"Maastricht","coordinate":{"lat":50.8502769470215,"lng":5.70555543899536},"countryCode":"NL"}],"direction":"ONE_WAY"},"description":"rijden bussen","level":"LESS_TRAINS"},"sectionType":"NL"},{"section":{"stations":[{"uicCode":"8400424","stationCode":"MT","name":"Maastricht","coordinate":{"lat":50.8502769470215,"lng":5.70555543899536},"countryCode":"NL"},{"uicCode":"8400426","stationCode":"MTR","name":"Maastricht Randwyck","coordinate":{"lat":50.8386116027832,"lng":5.71722221374512},"countryCode":"NL"}],"direction":"BOTH"},"consequence":{"section":{"stations":[{"uicCode":"8400424","stationCode":"MT","name":"Maastricht","coordinate":{"lat":50.8502769470215,"lng":5.70555543899536},"countryCode":"NL"},{"uicCode":"8400426","stationCode":"MTR","name":"Maastricht Randwyck","coordinate":{"lat":50.8386116027832,"lng":5.71722221374512},"countryCode":"NL"}],"direction":"ONE_WAY"},"description":"dienstregeling aangepast","level":"LESS_TRAINS"},"sectionType":"NL"}],"timespans":[{"start":"2023-10-21T05:00:00+0200","end":"2023-10-23T02:00:00+0200","period":"Zaterdag 21-10-2023 05:00 uur t/m maandag 23-10-2023 02:00 uur.","situation":{"label":"Door werkzaamheden: tussen Sittard en Maastricht rijden er bussen en tussen Maastricht en Maastricht Randwyck is de dienstregeling aangepast."},"cause":{"label":"werkzaamheden"},"additionalTravelTime":{"label":"De extra reistijd is ongeveer 30 minuten.","shortLabel":"extra reistijd 30 min.","minimumDurationInMinutes":30,"maximumDurationInMinutes":30},"alternativeTransport":{"label":"er rijden stop- en snelbussen","shortLabel":"er rijden stop- en snelbussen"},"advices":[]}],"alternativeTransportTimespans":[{"start":"2023-10-21T05:00:00+0200","end":"2023-10-23T02:00:00+0200","alternativeTransport":{"location":[{"station":{"uicCode":"8400564","stationCode":"STD","name":"Sittard","coordinate":{"lat":51.0016670227051,"lng":5.85861110687256},"countryCode":"NL"},"description":"vanaf de achterzijde van het station"},{"station":{"uicCode":"8400424","stationCode":"MT","name":"Maastricht","coordinate":{"lat":50.8502769470215,"lng":5.70555543899536},"countryCode":"NL"},"description":"vanaf het Stationsplein"}],"label":"Er rijden snelbussen tussen Sittard en Maastricht.","shortLabel":"er rijden snelbussen Sittard - Maastricht"}},{"start":"2023-10-21T05:00:00+0200","end":"2023-10-23T02:00:00+0200","alternativeTransport":{"location":[{"station":{"uicCode":"8400564","stationCode":"STD","name":"Sittard","coordinate":{"lat":51.0016670227051,"lng":5.85861110687256},"countryCode":"NL"},"description":"vanaf de achterzijde van het station"},{"station":{"uicCode":"8400248","stationCode":"LUT","name":"Geleen-Lutterade","coordinate":{"lat":50.9755554199219,"lng":5.82472229003906},"countryCode":"NL"},"description":"vanaf de achterzijde van het station"},{"station":{"uicCode":"8400096","stationCode":"BK","name":"Beek-Elsloo","coordinate":{"lat":50.9474983215332,"lng":5.78666687011719},"countryCode":"NL"},"description":"vanaf de voorzijde van het station"},{"station":{"uicCode":"8400140","stationCode":"BDE","name":"Bunde","coordinate":{"lat":50.8969459533691,"lng":5.73666667938232},"countryCode":"NL"},"description":"vanaf de voorzijde van het station"},{"station":{"uicCode":"8400424","stationCode":"MT","name":"Maastricht","coordinate":{"lat":50.8502769470215,"lng":5.70555543899536},"countryCode":"NL"},"description":"vanaf het Stationsplein"}],"label":"Er rijden stopbussen tussen Sittard, Geleen-Lutterade, Beek-Elsloo, Bunde en Maastricht.","shortLabel":"er rijden stopbussen Sittard - Geleen-Lut. - Beek-Elsloo - Bunde - Maastricht"}}]},{"id":"7003754","type":"MAINTENANCE","registrationTime":"2023-10-13T13:50:37+0200","releaseTime":"2023-10-13T13:50:37+0200","local":false,"title":"Amsterdam - Brussel - Paris (HSL); Amsterdam - Brussel - London (HSL).","titleSections":[[{"type":"STATION","value":"Amsterdam C."},{"type":"ICON","value":"MAINTENANCE"},{"type":"STATION","value":"Antwerpen-C."},{"type":"STATION","value":"Paris-Nord"}],[{"type":"STATION","value":"Amsterdam C."},{"type":"ICON","value":"MAINTENANCE"},{"type":"STATION","value":"Brussel-Z. Midi"},{"type":"STATION","value":"London St. P Int"}]],"isActive":true,"start":"2023-10-21T06:00:00+0200","end":"2023-10-22T23:59:00+0200","period":"Zaterdag 21-10-2023 06:00 uur t/m zondag 22-10-2023 23:59 uur.","impact":{"value":2},"summaryAdditionalTravelTime":{"label":"U heeft geen langere reistijd.","shortLabel":"Geen extra reistijd"},"publicationSections":[{"section":{"stations":[{"uicCode":"8400058","stationCode":"ASD","name":"Amsterdam Centraal","coordinate":{"lat":52.3788871765137,"lng":4.90027761459351},"countryCode":"NL"},{"uicCode":"8400059","stationCode":"ASS","name":"Amsterdam Sloterdijk","coordinate":{"lat":52.3888893127441,"lng":4.83777761459351},"countryCode":"NL"},{"uicCode":"8400079","stationCode":"ASDL","name":"Amsterdam Lelylaan","coordinate":{"lat":52.3577766418457,"lng":4.83388900756836},"countryCode":"NL"},{"uicCode":"8400561","stationCode":"SHL","name":"Schiphol Airport","coordinate":{"lat":52.3094444274902,"lng":4.76194429397583},"countryCode":"NL"},{"uicCode":"8400332","stationCode":"HFD","name":"Hoofddorp","coordinate":{"lat":52.2933349609375,"lng":4.70055532455444},"countryCode":"NL"},{"uicCode":"8400530","stationCode":"RTD","name":"Rotterdam Centraal","coordinate":{"lat":51.9249992370605,"lng":4.46888875961304},"countryCode":"NL"},{"uicCode":"8400529","stationCode":"RTB","name":"Rotterdam Blaak","coordinate":{"lat":51.9202766418457,"lng":4.48888874053955},"countryCode":"NL"},{"uicCode":"8400533","stationCode":"RTZ","name":"Rotterdam Zuid","coordinate":{"lat":51.9044456481934,"lng":4.51027774810791},"countryCode":"NL"},{"uicCode":"8400542","stationCode":"RLB","name":"Rotterdam Lombardijen","coordinate":{"lat":51.8800010681152,"lng":4.53138875961304},"countryCode":"NL"},{"uicCode":"8821105","stationCode":"NDKP","name":"Noorderkempen","coordinate":{"lat":51.358088,"lng":4.633977},"countryCode":"B"},{"uicCode":"8821063","stationCode":"ATWLB","name":"Antwerpen-Luchtbal","coordinate":{"lat":51.2449375,"lng":4.4251543},"countryCode":"B"},{"uicCode":"8821006","stationCode":"ATW","name":"Antwerpen-Centraal","coordinate":{"lat":51.21686,"lng":4.421242},"countryCode":"B"},{"uicCode":"8821121","stationCode":"BERCH","name":"Antwerpen-Berchem","coordinate":{"lat":51.198914,"lng":4.4332},"countryCode":"B"},{"uicCode":"8822004","stationCode":"MECH","name":"Mechelen","coordinate":{"lat":51.01758,"lng":4.48313},"countryCode":"B"},{"uicCode":"8812005","stationCode":"BRUSN","name":"Brussel-Noord","coordinate":{"lat":50.859658,"lng":4.360854},"countryCode":"B"},{"uicCode":"8813003","stationCode":"BRUSC","name":"Brussel-Centraal","coordinate":{"lat":50.845175,"lng":4.357131},"countryCode":"B"},{"uicCode":"8814001","stationCode":"BRUSZ","name":"Brussel-Zuid Midi","coordinate":{"lat":50.836782,"lng":4.336922},"countryCode":"B"},{"uicCode":"8727100","stationCode":"PARIS","name":"Paris-Nord","coordinate":{"lat":48.87977,"lng":2.35575},"countryCode":"F"}],"direction":"BOTH"},"consequence":{"section":{"stations":[{"uicCode":"8400058","stationCode":"ASD","name":"Amsterdam Centraal","coordinate":{"lat":52.3788871765137,"lng":4.90027761459351},"countryCode":"NL"},{"uicCode":"8400059","stationCode":"ASS","name":"Amsterdam Sloterdijk","coordinate":{"lat":52.3888893127441,"lng":4.83777761459351},"countryCode":"NL"},{"uicCode":"8400079","stationCode":"ASDL","name":"Amsterdam Lelylaan","coordinate":{"lat":52.3577766418457,"lng":4.83388900756836},"countryCode":"NL"},{"uicCode":"8400561","stationCode":"SHL","name":"Schiphol Airport","coordinate":{"lat":52.3094444274902,"lng":4.76194429397583},"countryCode":"NL"},{"uicCode":"8400332","stationCode":"HFD","name":"Hoofddorp","coordinate":{"lat":52.2933349609375,"lng":4.70055532455444},"countryCode":"NL"},{"uicCode":"8400530","stationCode":"RTD","name":"Rotterdam Centraal","coordinate":{"lat":51.9249992370605,"lng":4.46888875961304},"countryCode":"NL"},{"uicCode":"8400529","stationCode":"RTB","name":"Rotterdam Blaak","coordinate":{"lat":51.9202766418457,"lng":4.48888874053955},"countryCode":"NL"},{"uicCode":"8400533","stationCode":"RTZ","name":"Rotterdam Zuid","coordinate":{"lat":51.9044456481934,"lng":4.51027774810791},"countryCode":"NL"},{"uicCode":"8400542","stationCode":"RLB","name":"Rotterdam Lombardijen","coordinate":{"lat":51.8800010681152,"lng":4.53138875961304},"countryCode":"NL"},{"uicCode":"8821105","stationCode":"NDKP","name":"Noorderkempen","coordinate":{"lat":51.358088,"lng":4.633977},"countryCode":"B"},{"uicCode":"8821063","stationCode":"ATWLB","name":"Antwerpen-Luchtbal","coordinate":{"lat":51.2449375,"lng":4.4251543},"countryCode":"B"},{"uicCode":"8821006","stationCode":"ATW","name":"Antwerpen-Centraal","coordinate":{"lat":51.21686,"lng":4.421242},"countryCode":"B"}],"direction":"ONE_WAY"},"description":"aangepaste internationale dienstregeling","level":"LESS_TRAINS"},"sectionType":"HSL"},{"section":{"stations":[{"uicCode":"8400058","stationCode":"ASD","name":"Amsterdam Centraal","coordinate":{"lat":52.3788871765137,"lng":4.90027761459351},"countryCode":"NL"},{"uicCode":"8400059","stationCode":"ASS","name":"Amsterdam Sloterdijk","coordinate":{"lat":52.3888893127441,"lng":4.83777761459351},"countryCode":"NL"},{"uicCode":"8400079","stationCode":"ASDL","name":"Amsterdam Lelylaan","coordinate":{"lat":52.3577766418457,"lng":4.83388900756836},"countryCode":"NL"},{"uicCode":"8400561","stationCode":"SHL","name":"Schiphol Airport","coordinate":{"lat":52.3094444274902,"lng":4.76194429397583},"countryCode":"NL"},{"uicCode":"8400332","stationCode":"HFD","name":"Hoofddorp","coordinate":{"lat":52.2933349609375,"lng":4.70055532455444},"countryCode":"NL"},{"uicCode":"8400530","stationCode":"RTD","name":"Rotterdam Centraal","coordinate":{"lat":51.9249992370605,"lng":4.46888875961304},"countryCode":"NL"},{"uicCode":"8400529","stationCode":"RTB","name":"Rotterdam Blaak","coordinate":{"lat":51.9202766418457,"lng":4.48888874053955},"countryCode":"NL"},{"uicCode":"8400533","stationCode":"RTZ","name":"Rotterdam Zuid","coordinate":{"lat":51.9044456481934,"lng":4.51027774810791},"countryCode":"NL"},{"uicCode":"8400542","stationCode":"RLB","name":"Rotterdam Lombardijen","coordinate":{"lat":51.8800010681152,"lng":4.53138875961304},"countryCode":"NL"},{"uicCode":"8400132","stationCode":"BDPB","name":"Breda-Prinsenbeek","coordinate":{"lat":51.606388092041,"lng":4.72083330154419},"countryCode":"NL"},{"uicCode":"8400131","stationCode":"BD","name":"Breda","coordinate":{"lat":51.5955543518066,"lng":4.78000020980835},"countryCode":"NL"},{"uicCode":"8821105","stationCode":"NDKP","name":"Noorderkempen","coordinate":{"lat":51.358088,"lng":4.633977},"countryCode":"B"},{"uicCode":"8821063","stationCode":"ATWLB","name":"Antwerpen-Luchtbal","coordinate":{"lat":51.2449375,"lng":4.4251543},"countryCode":"B"},{"uicCode":"8821006","stationCode":"ATW","name":"Antwerpen-Centraal","coordinate":{"lat":51.21686,"lng":4.421242},"countryCode":"B"},{"uicCode":"8821121","stationCode":"BERCH","name":"Antwerpen-Berchem","coordinate":{"lat":51.198914,"lng":4.4332},"countryCode":"B"},{"uicCode":"8822004","stationCode":"MECH","name":"Mechelen","coordinate":{"lat":51.01758,"lng":4.48313},"countryCode":"B"},{"uicCode":"8812005","stationCode":"BRUSN","name":"Brussel-Noord","coordinate":{"lat":50.859658,"lng":4.360854},"countryCode":"B"},{"uicCode":"8813003","stationCode":"BRUSC","name":"Brussel-Centraal","coordinate":{"lat":50.845175,"lng":4.357131},"countryCode":"B"},{"uicCode":"8814001","stationCode":"BRUSZ","name":"Brussel-Zuid Midi","coordinate":{"lat":50.836782,"lng":4.336922},"countryCode":"B"},{"uicCode":"8722326","stationCode":"LILLEE","name":"Lille Europe","coordinate":{"lat":50.639444,"lng":3.074722},"countryCode":"F"},{"uicCode":"7015400","stationCode":"STP","name":"London St. Pancras Int.","coordinate":{"lat":51.531437,"lng":-0.126136},"countryCode":"GB"}],"direction":"BOTH"},"consequence":{"section":{"stations":[{"uicCode":"8400058","stationCode":"ASD","name":"Amsterdam Centraal","coordinate":{"lat":52.3788871765137,"lng":4.90027761459351},"countryCode":"NL"},{"uicCode":"8400059","stationCode":"ASS","name":"Amsterdam Sloterdijk","coordinate":{"lat":52.3888893127441,"lng":4.83777761459351},"countryCode":"NL"},{"uicCode":"8400079","stationCode":"ASDL","name":"Amsterdam Lelylaan","coordinate":{"lat":52.3577766418457,"lng":4.83388900756836},"countryCode":"NL"},{"uicCode":"8400561","stationCode":"SHL","name":"Schiphol Airport","coordinate":{"lat":52.3094444274902,"lng":4.76194429397583},"countryCode":"NL"},{"uicCode":"8400332","stationCode":"HFD","name":"Hoofddorp","coordinate":{"lat":52.2933349609375,"lng":4.70055532455444},"countryCode":"NL"},{"uicCode":"8400530","stationCode":"RTD","name":"Rotterdam Centraal","coordinate":{"lat":51.9249992370605,"lng":4.46888875961304},"countryCode":"NL"},{"uicCode":"8400529","stationCode":"RTB","name":"Rotterdam Blaak","coordinate":{"lat":51.9202766418457,"lng":4.48888874053955},"countryCode":"NL"},{"uicCode":"8400533","stationCode":"RTZ","name":"Rotterdam Zuid","coordinate":{"lat":51.9044456481934,"lng":4.51027774810791},"countryCode":"NL"},{"uicCode":"8400542","stationCode":"RLB","name":"Rotterdam Lombardijen","coordinate":{"lat":51.8800010681152,"lng":4.53138875961304},"countryCode":"NL"},{"uicCode":"8400132","stationCode":"BDPB","name":"Breda-Prinsenbeek","coordinate":{"lat":51.606388092041,"lng":4.72083330154419},"countryCode":"NL"},{"uicCode":"8400131","stationCode":"BD","name":"Breda","coordinate":{"lat":51.5955543518066,"lng":4.78000020980835},"countryCode":"NL"},{"uicCode":"8821105","stationCode":"NDKP","name":"Noorderkempen","coordinate":{"lat":51.358088,"lng":4.633977},"countryCode":"B"},{"uicCode":"8821063","stationCode":"ATWLB","name":"Antwerpen-Luchtbal","coordinate":{"lat":51.2449375,"lng":4.4251543},"countryCode":"B"},{"uicCode":"8821006","stationCode":"ATW","name":"Antwerpen-Centraal","coordinate":{"lat":51.21686,"lng":4.421242},"countryCode":"B"},{"uicCode":"8821121","stationCode":"BERCH","name":"Antwerpen-Berchem","coordinate":{"lat":51.198914,"lng":4.4332},"countryCode":"B"},{"uicCode":"8822004","stationCode":"MECH","name":"Mechelen","coordinate":{"lat":51.01758,"lng":4.48313},"countryCode":"B"},{"uicCode":"8812005","stationCode":"BRUSN","name":"Brussel-Noord","coordinate":{"lat":50.859658,"lng":4.360854},"countryCode":"B"},{"uicCode":"8813003","stationCode":"BRUSC","name":"Brussel-Centraal","coordinate":{"lat":50.845175,"lng":4.357131},"countryCode":"B"},{"uicCode":"8814001","stationCode":"BRUSZ","name":"Brussel-Zuid Midi","coordinate":{"lat":50.836782,"lng":4.336922},"countryCode":"B"}],"direction":"ONE_WAY"},"description":"aangepaste internationale dienstregeling","level":"LESS_TRAINS"},"sectionType":"HSL"}],"timespans":[{"start":"2023-10-21T06:00:00+0200","end":"2023-10-22T23:59:00+0200","period":"Zaterdag 21-10-2023 06:00 uur t/m zondag 22-10-2023 23:59 uur.","situation":{"label":"Door werkzaamheden: tussen Amsterdam Centraal en Antwerpen-Centraal is de internationale dienstregeling aangepast en tussen Amsterdam Centraal en Brussel-Zuid Midi is de internationale dienstregeling aangepast."},"cause":{"label":"werkzaamheden"},"additionalTravelTime":{"label":"U heeft geen langere reistijd.","shortLabel":"Geen extra reistijd"},"advices":["Eurostar naar Paris Nord/London St Pancras vertrekt eerder uit Nederland en stopt niet in Antwerpen-C."]}],"alternativeTransportTimespans":[]},{"id":"7004144","type":"MAINTENANCE","registrationTime":"2023-10-21T09:10:23+0200","releaseTime":"2023-10-21T09:10:23+0200","local":false,"title":"Amsterdam - Zaandam - Alkmaar; Haarlem - Alkmaar.","titleSections":[[{"type":"STATION","value":"Amsterdam C."},{"type":"STATION","value":"Uitgeest"},{"type":"ICON","value":"MAINTENANCE"},{"type":"STATION","value":"Alkmaar"}],[{"type":"STATION","value":"Haarlem"},{"type":"STATION","value":"Uitgeest"},{"type":"ICON","value":"MAINTENANCE"},{"type":"STATION","value":"Alkmaar"}]],"isActive":true,"start":"2023-10-21T09:15:00+0200","end":"2023-10-23T02:00:00+0200","period":"Zaterdag 21-10-2023 09:15 uur t/m maandag 23-10-2023 02:00 uur.","impact":{"value":4},"summaryAdditionalTravelTime":{"label":"De extra reistijd is ongeveer 30 minuten.","shortLabel":"extra reistijd 30 min.","minimumDurationInMinutes":30,"maximumDurationInMinutes":30},"publicationSections":[{"section":{"stations":[{"uicCode":"8400058","stationCode":"ASD","name":"Amsterdam Centraal","coordinate":{"lat":52.3788871765137,"lng":4.90027761459351},"countryCode":"NL"},{"uicCode":"8400059","stationCode":"ASS","name":"Amsterdam Sloterdijk","coordinate":{"lat":52.3888893127441,"lng":4.83777761459351},"countryCode":"NL"},{"uicCode":"8400731","stationCode":"ZD","name":"Zaandam","coordinate":{"lat":52.4388885498047,"lng":4.81361103057861},"countryCode":"NL"},{"uicCode":"8400363","stationCode":"KZ","name":"Koog aan de Zaan","coordinate":{"lat":52.458610534668,"lng":4.80555534362793},"countryCode":"NL"},{"uicCode":"8400364","stationCode":"ZZS","name":"Zaandijk Zaanse Schans","coordinate":{"lat":52.469165802002,"lng":4.80499982833862},"countryCode":"NL"},{"uicCode":"8400707","stationCode":"WM","name":"Wormerveer","coordinate":{"lat":52.4891662597656,"lng":4.79222202301025},"countryCode":"NL"},{"uicCode":"8400368","stationCode":"KMA","name":"Krommenie-Assendelft","coordinate":{"lat":52.49511,"lng":4.75417},"countryCode":"NL"},{"uicCode":"8400615","stationCode":"UTG","name":"Uitgeest","coordinate":{"lat":52.5216674804687,"lng":4.70166683197022},"countryCode":"NL"},{"uicCode":"8400151","stationCode":"CAS","name":"Castricum","coordinate":{"lat":52.5458335876465,"lng":4.65861129760742},"countryCode":"NL"},{"uicCode":"8400309","stationCode":"HLO","name":"Heiloo","coordinate":{"lat":52.5994453430176,"lng":4.70055532455444},"countryCode":"NL"},{"uicCode":"8400050","stationCode":"AMR","name":"Alkmaar","coordinate":{"lat":52.6377792358398,"lng":4.73972225189209},"countryCode":"NL"}],"direction":"BOTH"},"consequence":{"section":{"stations":[{"uicCode":"8400615","stationCode":"UTG","name":"Uitgeest","coordinate":{"lat":52.5216674804687,"lng":4.70166683197022},"countryCode":"NL"},{"uicCode":"8400151","stationCode":"CAS","name":"Castricum","coordinate":{"lat":52.5458335876465,"lng":4.65861129760742},"countryCode":"NL"},{"uicCode":"8400309","stationCode":"HLO","name":"Heiloo","coordinate":{"lat":52.5994453430176,"lng":4.70055532455444},"countryCode":"NL"},{"uicCode":"8400050","stationCode":"AMR","name":"Alkmaar","coordinate":{"lat":52.6377792358398,"lng":4.73972225189209},"countryCode":"NL"}],"direction":"ONE_WAY"},"description":"rijden bussen","level":"LESS_TRAINS"},"sectionType":"NL"},{"section":{"stations":[{"uicCode":"8400285","stationCode":"HLM","name":"Haarlem","coordinate":{"lat":52.3877792358398,"lng":4.63833332061768},"countryCode":"NL"},{"uicCode":"8400118","stationCode":"BLL","name":"Bloemendaal","coordinate":{"lat":52.404167175293,"lng":4.62750005722046},"countryCode":"NL"},{"uicCode":"8400544","stationCode":"SPTZ","name":"Santpoort Zuid","coordinate":{"lat":52.4197235107422,"lng":4.63138866424561},"countryCode":"NL"},{"uicCode":"8400543","stationCode":"SPTN","name":"Santpoort Noord","coordinate":{"lat":52.4338874816895,"lng":4.63250017166138},"countryCode":"NL"},{"uicCode":"8400183","stationCode":"DRH","name":"Driehuis","coordinate":{"lat":52.4425010681152,"lng":4.63805532455444},"countryCode":"NL"},{"uicCode":"8400113","stationCode":"BV","name":"Beverwijk","coordinate":{"lat":52.4783325195313,"lng":4.65666675567627},"countryCode":"NL"},{"uicCode":"8400317","stationCode":"HK","name":"Heemskerk","coordinate":{"lat":52.4952774047852,"lng":4.68694448471069},"countryCode":"NL"},{"uicCode":"8400615","stationCode":"UTG","name":"Uitgeest","coordinate":{"lat":52.5216674804687,"lng":4.70166683197022},"countryCode":"NL"},{"uicCode":"8400151","stationCode":"CAS","name":"Castricum","coordinate":{"lat":52.5458335876465,"lng":4.65861129760742},"countryCode":"NL"},{"uicCode":"8400309","stationCode":"HLO","name":"Heiloo","coordinate":{"lat":52.5994453430176,"lng":4.70055532455444},"countryCode":"NL"},{"uicCode":"8400050","stationCode":"AMR","name":"Alkmaar","coordinate":{"lat":52.6377792358398,"lng":4.73972225189209},"countryCode":"NL"}],"direction":"BOTH"},"consequence":{"section":{"stations":[{"uicCode":"8400615","stationCode":"UTG","name":"Uitgeest","coordinate":{"lat":52.5216674804687,"lng":4.70166683197022},"countryCode":"NL"},{"uicCode":"8400151","stationCode":"CAS","name":"Castricum","coordinate":{"lat":52.5458335876465,"lng":4.65861129760742},"countryCode":"NL"},{"uicCode":"8400309","stationCode":"HLO","name":"Heiloo","coordinate":{"lat":52.5994453430176,"lng":4.70055532455444},"countryCode":"NL"},{"uicCode":"8400050","stationCode":"AMR","name":"Alkmaar","coordinate":{"lat":52.6377792358398,"lng":4.73972225189209},"countryCode":"NL"}],"direction":"ONE_WAY"},"description":"rijden bussen","level":"LESS_TRAINS"},"sectionType":"NL"}],"timespans":[{"start":"2023-10-21T09:15:00+0200","end":"2023-10-23T02:00:00+0200","period":"Zaterdag 21-10-2023 09:15 uur t/m maandag 23-10-2023 02:00 uur.","situation":{"label":"Door werkzaamheden: tussen Uitgeest en Alkmaar rijden er bussen."},"cause":{"label":"werkzaamheden"},"additionalTravelTime":{"label":"De extra reistijd is ongeveer 30 minuten.","shortLabel":"extra reistijd 30 min.","minimumDurationInMinutes":30,"maximumDurationInMinutes":30},"alternativeTransport":{"label":"er rijden stopbussen","shortLabel":"er rijden stopbussen"},"advices":["U kunt ook omreizen. Intercity tussen Amsterdam en Alkmaar rijdt via Hoorn. Plan uw reis in de app."]}],"alternativeTransportTimespans":[{"start":"2023-10-21T09:15:00+0200","end":"2023-10-23T02:00:00+0200","alternativeTransport":{"location":[{"station":{"uicCode":"8400615","stationCode":"UTG","name":"Uitgeest","coordinate":{"lat":52.5216674804687,"lng":4.70166683197022},"countryCode":"NL"},"description":"vanaf de achterzijde van het station"},{"station":{"uicCode":"8400151","stationCode":"CAS","name":"Castricum","coordinate":{"lat":52.5458335876465,"lng":4.65861129760742},"countryCode":"NL"},"description":"vanaf de voorzijde van het station"},{"station":{"uicCode":"8400309","stationCode":"HLO","name":"Heiloo","coordinate":{"lat":52.5994453430176,"lng":4.70055532455444},"countryCode":"NL"},"description":"vanaf de voorzijde van het station"},{"station":{"uicCode":"8400050","stationCode":"AMR","name":"Alkmaar","coordinate":{"lat":52.6377792358398,"lng":4.73972225189209},"countryCode":"NL"},"description":"vanaf de achterzijde van het station"}],"label":"Er rijden stopbussen tussen Uitgeest, Castricum, Heiloo en Alkmaar.","shortLabel":"er rijden stopbussen Uitgeest - Castricum - Heiloo - Alkmaar"}}]},{"id":"7004016","type":"MAINTENANCE","registrationTime":"2023-09-28T09:52:44+0200","releaseTime":"2023-09-28T09:52:44+0200","local":false,"title":"Utrecht - Rhenen.","titleSections":[[{"type":"STATION","value":"Utrecht C."},{"type":"ICON","value":"MAINTENANCE"},{"type":"STATION","value":"Rhenen"}]],"isActive":true,"start":"2023-10-21T18:00:00+0200","end":"2023-10-22T02:00:00+0200","period":"Zaterdag 21-10-2023 18:00 uur t/m zondag 22-10-2023 02:00 uur.","impact":{"value":2},"summaryAdditionalTravelTime":{"label":"De extra reistijd kan oplopen tot 30 minuten.","shortLabel":"extra reistijd tot 30 min.","maximumDurationInMinutes":30},"publicationSections":[{"section":{"stations":[{"uicCode":"8400621","stationCode":"UT","name":"Utrecht Centraal","coordinate":{"lat":52.0888900756836,"lng":5.11027765274048},"countryCode":"NL"},{"uicCode":"8400606","stationCode":"UTVR","name":"Utrecht Vaartsche Rijn","coordinate":{"lat":52.078889,"lng":5.121667},"countryCode":"NL"},{"uicCode":"8400141","stationCode":"BNK","name":"Bunnik","coordinate":{"lat":52.0630569458008,"lng":5.19444465637207},"countryCode":"NL"},{"uicCode":"8400182","stationCode":"DB","name":"Driebergen-Zeist","coordinate":{"lat":52.0652770996094,"lng":5.25861120223999},"countryCode":"NL"},{"uicCode":"8400417","stationCode":"MRN","name":"Maarn","coordinate":{"lat":52.0641670227051,"lng":5.36999988555908},"countryCode":"NL"},{"uicCode":"8400628","stationCode":"VNDW","name":"Veenendaal West","coordinate":{"lat":52.0280570983887,"lng":5.53138875961304},"countryCode":"NL"},{"uicCode":"8400627","stationCode":"VNDC","name":"Veenendaal Centrum","coordinate":{"lat":52.0200004577637,"lng":5.54861116409302},"countryCode":"NL"},{"uicCode":"8400517","stationCode":"RHN","name":"Rhenen","coordinate":{"lat":51.958610534668,"lng":5.57833337783814},"countryCode":"NL"}],"direction":"BOTH"},"consequence":{"section":{"stations":[{"uicCode":"8400621","stationCode":"UT","name":"Utrecht Centraal","coordinate":{"lat":52.0888900756836,"lng":5.11027765274048},"countryCode":"NL"},{"uicCode":"8400606","stationCode":"UTVR","name":"Utrecht Vaartsche Rijn","coordinate":{"lat":52.078889,"lng":5.121667},"countryCode":"NL"},{"uicCode":"8400141","stationCode":"BNK","name":"Bunnik","coordinate":{"lat":52.0630569458008,"lng":5.19444465637207},"countryCode":"NL"},{"uicCode":"8400182","stationCode":"DB","name":"Driebergen-Zeist","coordinate":{"lat":52.0652770996094,"lng":5.25861120223999},"countryCode":"NL"},{"uicCode":"8400417","stationCode":"MRN","name":"Maarn","coordinate":{"lat":52.0641670227051,"lng":5.36999988555908},"countryCode":"NL"},{"uicCode":"8400628","stationCode":"VNDW","name":"Veenendaal West","coordinate":{"lat":52.0280570983887,"lng":5.53138875961304},"countryCode":"NL"},{"uicCode":"8400627","stationCode":"VNDC","name":"Veenendaal Centrum","coordinate":{"lat":52.0200004577637,"lng":5.54861116409302},"countryCode":"NL"},{"uicCode":"8400517","stationCode":"RHN","name":"Rhenen","coordinate":{"lat":51.958610534668,"lng":5.57833337783814},"countryCode":"NL"}],"direction":"ONE_WAY"},"description":"rijden bussen","level":"LESS_TRAINS"},"sectionType":"NL"}],"timespans":[{"start":"2023-10-21T18:00:00+0200","end":"2023-10-22T02:00:00+0200","period":"Zaterdag 21-10-2023 18:00 uur t/m zondag 22-10-2023 02:00 uur.","situation":{"label":"Door werkzaamheden: tussen Utrecht Centraal en Rhenen rijden er bussen."},"cause":{"label":"werkzaamheden"},"additionalTravelTime":{"label":"De extra reistijd kan oplopen tot 30 minuten.","shortLabel":"extra reistijd tot 30 min.","maximumDurationInMinutes":30},"alternativeTransport":{"label":"er rijden stopbussen","shortLabel":"er rijden stopbussen"},"advices":[]}],"alternativeTransportTimespans":[{"start":"2023-10-21T18:00:00+0200","end":"2023-10-22T02:00:00+0200","alternativeTransport":{"location":[{"station":{"uicCode":"8400182","stationCode":"DB","name":"Driebergen-Zeist","coordinate":{"lat":52.0652770996094,"lng":5.25861120223999},"countryCode":"NL"},"description":"vanaf het busstation"},{"station":{"uicCode":"8400141","stationCode":"BNK","name":"Bunnik","coordinate":{"lat":52.0630569458008,"lng":5.19444465637207},"countryCode":"NL"},"description":"vanaf de Baan van Fectio aan de uitgang Groeneweg"}],"label":"Er rijden stopbussen tussen Driebergen-Zeist en Bunnik.","shortLabel":"er rijden stopbussen Driebergen-Zeist - Bunnik"}},{"start":"2023-10-21T18:00:00+0200","end":"2023-10-22T02:00:00+0200","alternativeTransport":{"location":[{"station":{"uicCode":"8400182","stationCode":"DB","name":"Driebergen-Zeist","coordinate":{"lat":52.0652770996094,"lng":5.25861120223999},"countryCode":"NL"},"description":"vanaf het busstation"},{"station":{"uicCode":"8400417","stationCode":"MRN","name":"Maarn","coordinate":{"lat":52.0641670227051,"lng":5.36999988555908},