[{"type":"DISRUPTION","id":"6059753","title":"Amsterdam - Schiphol - Hoofddorp.","isActive":true,"topic":"disruption_6059753_nl","local":false,"titleSections":[[{"type":"STATION","value":"Amsterdam C."},{"type":"ICON","value":"DISRUPTION"},{"type":"STATION","value":"Hoofddorp"}]],"registrationTime":"2025-10-15T18:11:15+0200","releaseTime":"2025-10-15T18:11:15+0200","start":"2025-10-15T13:56:37+0200","end":"2025-10-16T21:00:00+0200","phase":{"id":"2","label":"Impact bekend"},"impact":{"value":2},"expectedDuration":{"description":"Dit duurt tot ongeveer donderdag 16 oktober 21:00 uur.","endTime":"2025-10-16T21:00:00+0200"},"publicationSections":[{"section":{"stations":[{"coordinate":{"lat":52.3788871765137,"lng":4.90027761459351},"countryCode":"NL","name":"Amsterdam Centraal","stationCode":"ASD","uicCode":"8400058"},{"coordinate":{"lat":52.3888893127441,"lng":4.83777761459351},"countryCode":"NL","name":"Amsterdam Sloterdijk","stationCode":"ASS","uicCode":"8400059"},{"coordinate":{"lat":52.3577766418457,"lng":4.83388900756836},"countryCode":"NL","name":"Amsterdam Lelylaan","stationCode":"ASDL","uicCode":"8400079"},{"coordinate":{"lat":52.3094444274902,"lng":4.76194429397583},"countryCode":"NL","name":"Schiphol Airport","stationCode":"SHL","uicCode":"8400561"},{"coordinate":{"lat":52.2933349609375,"lng":4.70055532455444},"countryCode":"NL","name":"Hoofddorp","stationCode":"HFD","uicCode":"8400332"}],"direction":"BOTH","operators":["NS"]},"consequence":{"section":{"stations":[{"coordinate":{"lat":52.3788871765137,"lng":4.90027761459351},"countryCode":"NL","name":"Amsterdam Centraal","stationCode":"ASD","uicCode":"8400058"},{"coordinate":{"lat":52.3888893127441,"lng":4.83777761459351},"countryCode":"NL","name":"Amsterdam Sloterdijk","stationCode":"ASS","uicCode":"8400059"},{"coordinate":{"lat":52.3577766418457,"lng":4.83388900756836},"countryCode":"NL","name":"Amsterdam Lelylaan","stationCode":"ASDL","uicCode":"8400079"},{"coordinate":{"lat":52.3094444274902,"lng":4.76194429397583},"countryCode":"NL","name":"Schiphol Airport","stationCode":"SHL","uicCode":"8400561"},{"coordinate":{"lat":52.2933349609375,"lng":4.70055532455444},"countryCode":"NL","name":"Hoofddorp","stationCode":"HFD","uicCode":"8400332"}],"direction":"BOTH","operators":["NS"]},"description":"minder Sprinters","level":"LESS_TRAINS"},"sectionType":"NL"}],"summaryAdditionalTravelTime":{"label":"De extra reistijd kan oplopen tot 15 minuten.","shortLabel":"Extra reistijd tot 15 min.","maximumDurationInMinutes":15},"timespans":[{"start":"2025-10-15T13:56:37+0200","end":"2025-10-16T21:00:00+0200","period":"Woensdag 15 oktober 13:56 uur t/m donderdag 16 oktober 21:00 uur.","situation":{"label":"Door een defect spoor: tussen Hoofddorp en Amsterdam Centraal rijden er minder Sprinters."},"cause":{"label":"defect spoor","type":"OTHER"},"additionalTravelTime":{"label":"De extra reistijd kan oplopen tot 15 minuten.","shortLabel":"Extra reistijd tot 15 min.","maximumDurationInMinutes":15},"advices":[]}],"alternativeTransportTimespans":[]},{"type":"CALAMITY","id":"1079b871-eb4f-491f-94f9-5b8956b7ddc7","title":"Werkzaamheden Haarlem - Amsterdam Sloterdijk 16-23 oktober","isActive":true,"topic":"disruption_1079b871-eb4f-491f-94f9-5b8956b7ddc7_nl","description":"Door werkzaamheden rijden van 16 oktober, vanaf 19:00 uur, tot en met 23 oktober geen treinen tussen Haarlem en Amsterdam Sloterdijk.","url":"https://www.ns.nl/reisinformatie/calamiteiten/werkzaamheden-haarlem---amsterdam-sloterdijk.html","priority":"PRIO_3","lastUpdated":"2025-10-13T16:47:00+0200","bodyItems":[{"type":"TEXT","content":{"text":"<p>Er rijden stopbussen tussen Haarlem en Amsterdam Sloterdijk. Plan je reis vooraf met de reisplanner.</p>"}}],"buttons":{"position":["TOP"],"items":[]}},{"type":"CALAMITY","id":"561d3690-45b4-4c9a-9316-af51c7f02332","title":"Werkzaamheden Driebergen-Zeist - Ede-Wageningen/Rhenen – Arnhem Centraal","isActive":true,"topic":"disruption_561d3690-45b4-4c9a-9316-af51c7f02332_nl","description":"Door werkzaamheden rijden er van zaterdag 18 oktober t/m zondag 26 oktober geen treinen tussen Driebergen-Zeist en Ede-Wageningen/Rhenen. Van zaterdag 18 oktober t/m dinsdag 21 oktober ook geen treinen tussen Ede-Wageningen-Arnhem Centraal.","url":"https://www.ns.nl/reisinformatie/calamiteiten/wahs-driebergen-zeist---ede-wageningen-rhenen---arnhem-centraal.html","priority":"PRIO_3","lastUpdated":"2025-10-15T00:37:00+0200","bodyItems":[{"type":"TEXT","content":{"text":"<p>NS zet snel- en stopbussen in.</p>\n\n<p>Je kunt omreizen tussen Arnhem Centraal/Nijmegen en Utrecht Centraal via ‘s-Hertogenbosch.</p>\n\n<p>Je kunt omreizen tussen Arnhem Centraal en Amersfoort Centraal/Schiphol via Deventer.</p>\n\n<p>Houd rekening met extra overstappen en langere reistijden. Plan je reis vooraf.</p>"}}],"buttons":{"position":["TOP"],"items":[{"label":"Plan je reis","accessibilityLabel":"Plan je reis","url":"https://www.ns.nl/reisplanner/","type":"PLANNER"}]}},{"type":"MAINTENANCE","id":"7004492","title":"Groningen - Leer.","isActive":true,"local":false,"titleSections":[[{"type":"STATION","value":"Groningen"},{"type":"STATION","value":"Bad Nieuweschans"},{"type":"ICON","value":"MAINTENANCE"},{"type":"STATION","value":"Weener"},{"type":"STATION","value":"Leer (Ostfr.)"}]],"registrationTime":"2025-04-03T10:55:48+0200","start":"2024-02-01T04:00:00+0100","releaseTime":"2025-04-03T10:55:48+0200","end":"2025-12-13T23:59:00+0100","period":"Donderdag 1 februari 2024 4:00 uur t/m zaterdag 13 december 23:59 uur.","impact":{"value":3},"publicationSections":[{"section":{"stations":[{"coordinate":{"lat":53.2105560302734,"lng":6.56472206115723},"countryCode":"NL","name":"Groningen","stationCode":"GN","uicCode":"8400263"},{"coordinate":{"lat":53.20480027,"lng":6.5854178},"countryCode":"NL","name":"Groningen Europapark","stationCode":"GERP","uicCode":"8400238"},{"coordinate":{"lat":53.1617362,"lng":6.7220882},"countryCode":"NL","name":"Kropswolde","stationCode":"KW","uicCode":"8400369"},{"coordinate":{"lat":53.1607232,"lng":6.7402989},"countryCode":"NL","name":"Martenshoek","stationCode":"MTH","uicCode":"8400430"},{"coordinate":{"lat":53.1598181316756,"lng":6.77075386047363},"countryCode":"NL","name":"Hoogezand-Sappemeer","stationCode":"HGZ","uicCode":"8400331"},{"coordinate":{"lat":53.1596122800056,"lng":6.8679141998291},"countryCode":"NL","name":"Zuidbroek","stationCode":"ZB","uicCode":"8400742"},{"coordinate":{"lat":53.1655362,"lng":6.9777775},"countryCode":"NL","name":"Scheemda","stationCode":"SDA","uicCode":"8400551"},{"coordinate":{"lat":53.1392377,"lng":7.035101},"countryCode":"NL","name":"Winschoten","stationCode":"WS","uicCode":"8400696"},{"coordinate":{"lat":53.1844,"lng":7.19937},"countryCode":"NL","name":"Bad Nieuweschans","stationCode":"NSCH","uicCode":"8400457"},{"coordinate":{"lat":53.16311,"lng":7.3442},"countryCode":"D","name":"Weener","stationCode":"WR","uicCode":"8021239"},{"coordinate":{"lat":53.23165,"lng":7.465283},"countryCode":"D","name":"Leer (Ostfriesl)","stationCode":"LEER","uicCode":"8021091"}],"direction":"BOTH","operators":["Arriva"]},"consequence":{"section":{"stations":[{"coordinate":{"lat":53.1844,"lng":7.19937},"countryCode":"NL","name":"Bad Nieuweschans","stationCode":"NSCH","uicCode":"8400457"},{"coordinate":{"lat":53.16311,"lng":7.3442},"countryCode":"D","name":"Weener","stationCode":"WR","uicCode":"8021239"}],"direction":"BOTH","operators":["Arriva"]},"description":"er rijden bussen","level":"LESS_TRAINS"},"sectionType":"NEIGHBORING_COUNTRY"}],"summaryAdditionalTravelTime":{"label":"De extra reistijd kan oplopen tot 30 minuten.","shortLabel":"Extra reistijd tot 30 min.","maximumDurationInMinutes":30},"timespans":[{"start":"2024-02-01T04:00:00+0100","end":"2025-12-13T23:59:00+0100","period":"Donderdag 1 februari 2024 4:00 uur t/m zaterdag 13 december 23:59 uur.","situation":{"label":"Door een aangepaste dienstregeling: tussen Bad Nieuweschans en Weener rijden er bussen."},"cause":{"label":"aangepaste dienstregeling","type":"OTHER"},"additionalTravelTime":{"label":"De extra reistijd kan oplopen tot 30 minuten.","shortLabel":"Extra reistijd tot 30 min.","maximumDurationInMinutes":30},"alternativeTransport":{"label":"er rijden stopbussen","shortLabel":"er rijden stopbussen"},"advices":[]}],"alternativeTransportTimespans":[{"start":"2024-02-01T04:00:00+0100","end":"2025-12-13T23:59:00+0100","alternativeTransport":{"location":[{"station":{"coordinate":{"lat":53.1844,"lng":7.19937},"countryCode":"NL","name":"Bad Nieuweschans","stationCode":"NSCH","uicCode":"8400457"},"description":"vanaf de voorzijde van het station"},{"station":{"coordinate":{"lat":53.16311,"lng":7.3442},"countryCode":"D","name":"Weener","stationCode":"WR","uicCode":"8021239"},"description":"vanaf de voorzijde van het station"},{"station":{"coordinate":{"lat":53.23165,"lng":7.465283},"countryCode":"D","name":"Leer (Ostfriesl)","stationCode":"LEER","uicCode":"8021091"},"description":"vanaf het busstation"}],"label":"Er rijden stopbussen tussen Bad Nieuweschans, Weener en Leer (Ostfriesl).","shortLabel":"Er rijden stopbussen Bad Nieuweschans - Weener - Leer (Ostfr.)."}}]},{"type":"MAINTENANCE","id":"7006715","title":"'s-Hertogenbosch.","isActive":true,"local":false,"titleSections":[[{"type":"STATION","value":"'s-Hertogenbosch"},{"type":"ICON","value":"MAINTENANCE"},{"type":"STATION","value":"Boxtel"},{"type":"STATION","value":"Eindhoven C."}],[{"type":"STATION","value":"'s-Hertogenbosch"},{"type":"ICON","value":"MAINTENANCE"},{"type":"STATION","value":"Tilburg"}],[{"type":"STATION","value":"'s-Hertogenbosch"}]],"registrationTime":"2025-10-05T15:42:21+0200","start":"2025-10-04T00:55:54+0200","releaseTime":"2025-10-05T15:42:21+0200","end":"2025-10-20T02:00:34+0200","period":"Zaterdag 4 oktober 0:55 uur t/m maandag 20 oktober 2:00 uur.","impact":{"value":5},"publicationSections":[{"section":{"stations":[{"coordinate":{"lat":51.69048,"lng":5.29362},"countryCode":"NL","name":"'s-Hertogenbosch","stationCode":"HT","uicCode":"8400319"},{"coordinate":{"lat":51.6555557250977,"lng":5.29194450378418},"countryCode":"NL","name":"Vught","stationCode":"VG","uicCode":"8400667"},{"coordinate":{"lat":51.58433,"lng":5.31912},"countryCode":"NL","name":"Boxtel","stationCode":"BTL","uicCode":"8400129"},{"coordinate":{"lat":51.5099983215332,"lng":5.38916683197022},"countryCode":"NL","name":"Best","stationCode":"BET","uicCode":"8400112"},{"coordinate":{"lat":51.4511108398438,"lng":5.45583343505859},"countryCode":"NL","name":"Eindhoven Strijp-S","stationCode":"EHS","uicCode":"8400196"},{"coordinate":{"lat":51.4433326721191,"lng":5.48138904571533},"countryCode":"NL","name":"Eindhoven Centraal","stationCode":"EHV","uicCode":"8400206"}],"direction":"BOTH","operators":["NS"]},"consequence":{"section":{"stations":[{"coordinate":{"lat":51.69048,"lng":5.29362},"countryCode":"NL","name":"'s-Hertogenbosch","stationCode":"HT","uicCode":"8400319"},{"coordinate":{"lat":51.6555557250977,"lng":5.29194450378418},"countryCode":"NL","name":"Vught","stationCode":"VG","uicCode":"8400667"},{"coordinate":{"lat":51.58433,"lng":5.31912},"countryCode":"NL","name":"Boxtel","stationCode":"BTL","uicCode":"8400129"}],"direction":"BOTH","operators":["NS"]},"description":"er rijden bussen","level":"LESS_TRAINS"},"sectionType":"NL"},{"section":{"stations":[{"coordinate":{"lat":51.69048,"lng":5.29362},"countryCode":"NL","name":"'s-Hertogenbosch","stationCode":"HT","uicCode":"8400319"},{"coordinate":{"lat":51.5605545043945,"lng":5.08361101150513},"countryCode":"NL","name":"Tilburg","stationCode":"TB","uicCode":"8400597"}],"direction":"BOTH","operators":["NS"]},"consequence":{"section":{"stations":[{"coordinate":{"lat":51.69048,"lng":5.29362},"countryCode":"NL","name":"'s-Hertogenbosch","stationCode":"HT","uicCode":"8400319"},{"coordinate":{"lat":51.5605545043945,"lng":5.08361101150513},"countryCode":"NL","name":"Tilburg","stationCode":"TB","uicCode":"8400597"}],"direction":"BOTH","operators":["NS"]},"description":"er rijden bussen","level":"LESS_TRAINS"},"sectionType":"NL"},{"section":{"stations":[{"coordinate":{"lat":51.69048,"lng":5.29362},"countryCode":"NL","name":"'s-Hertogenbosch","stationCode":"HT","uicCode":"8400319"},{"coordinate":{"lat":51.5605545043945,"lng":5.08361101150513},"countryCode":"NL","name":"Tilburg","stationCode":"TB","uicCode":"8400597"}],"direction":"BOTH","operators":["NS"]},"consequence":{"section":{"stations":[{"coordinate":{"lat":51.69048,"lng":5.29362},"countryCode":"NL","name":"'s-Hertogenbosch","stationCode":"HT","uicCode":"8400319"}],"direction":"BOTH","operators":["NS"]},"description":"er rijden bussen","level":"LESS_TRAINS"},"sectionType":"NL"},{"section":{"stations":[{"coordinate":{"lat":52.0888900756836,"lng":5.11027765274048},"countryCode":"NL","name":"Utrecht Centraal","stationCode":"UT","uicCode":"8400621"},{"coordinate":{"lat":52.078889,"lng":5.121667},"countryCode":"NL","name":"Utrecht Vaartsche Rijn","stationCode":"UTVR","uicCode":"8400606"},{"coordinate":{"lat":52.0655555725098,"lng":5.14416646957397},"countryCode":"NL","name":"Utrecht Lunetten","stationCode":"UTLN","uicCode":"8400623"},{"coordinate":{"lat":52.03402,"lng":5.16821},"countryCode":"NL","name":"Houten","stationCode":"HTN","uicCode":"8400340"},{"coordinate":{"lat":52.01701,"lng":5.17949},"countryCode":"NL","name":"Houten Castellum","stationCode":"HTNC","uicCode":"8400335"},{"coordinate":{"lat":51.9466667175293,"lng":5.22694444656372},"countryCode":"NL","name":"Culemborg","stationCode":"CL","uicCode":"8400154"},{"coordinate":{"lat":51.88301,"lng":5.27127},"countryCode":"NL","name":"Geldermalsen","stationCode":"GDM","uicCode":"8400244"},{"coordinate":{"lat":51.8088874816895,"lng":5.26333332061768},"countryCode":"NL","name":"Zaltbommel","stationCode":"ZBM","uicCode":"8400732"},{"coordinate":{"lat":51.69048,"lng":5.29362},"countryCode":"NL","name":"'s-Hertogenbosch","stationCode":"HT","uicCode":"8400319"},{"coordinate":{"lat":51.6555557250977,"lng":5.29194450378418},"countryCode":"NL","name":"Vught","stationCode":"VG","uicCode":"8400667"},{"coordinate":{"lat":51.58433,"lng":5.31912},"countryCode":"NL","name":"Boxtel","stationCode":"BTL","uicCode":"8400129"},{"coordinate":{"lat":51.5099983215332,"lng":5.38916683197022},"countryCode":"NL","name":"Best","stationCode":"BET","uicCode":"8400112"},{"coordinate":{"lat":51.4511108398438,"lng":5.45583343505859},"countryCode":"NL","name":"Eindhoven Strijp-S","stationCode":"EHS","uicCode":"8400196"},{"coordinate":{"lat":51.4433326721191,"lng":5.48138904571533},"countryCode":"NL","name":"Eindhoven Centraal","stationCode":"EHV","uicCode":"8400206"}],"direction":"BOTH","operators":["NS"]},"consequence":{"section":{"stations":[{"coordinate":{"lat":51.69048,"lng":5.29362},"countryCode":"NL","name":"'s-Hertogenbosch","stationCode":"HT","uicCode":"8400319"}],"direction":"BOTH","operators":["NS"]},"description":"er rijden bussen","level":"LESS_TRAINS"},"sectionType":"NL"},{"section":{"stations":[{"coordinate":{"lat":51.69048,"lng":5.29362},"countryCode":"NL","name":"'s-Hertogenbosch","stationCode":"HT","uicCode":"8400319"},{"coordinate":{"lat":51.700553894043,"lng":5.3183331489563},"countryCode":"NL","name":"'s-Hertogenbosch Oost","stationCode":"HTO","uicCode":"8400320"},{"coordinate":{"lat":51.7147216796875,"lng":5.36805534362793},"countryCode":"NL","name":"Rosmalen","stationCode":"RS","uicCode":"8400524"},{"coordinate":{"lat":51.758056640625,"lng":5.50555562973022},"countryCode":"NL","name":"Oss West","stationCode":"OW","uicCode":"8400496"},{"coordinate":{"lat":51.7655563354492,"lng":5.53222227096558},"countryCode":"NL","name":"Oss","stationCode":"O","uicCode":"8400495"}],"direction":"BOTH","operators":["NS"]},"consequence":{"section":{"stations":[{"coordinate":{"lat":51.69048,"lng":5.29362},"countryCode":"NL","name":"'s-Hertogenbosch","stationCode":"HT","uicCode":"8400319"}],"direction":"BOTH","operators":["NS"]},"description":"er rijden bussen","level":"LESS_TRAINS"},"sectionType":"NL"}],"summaryAdditionalTravelTime":{"label":"De extra reistijd kan oplopen tot 30 minuten.","shortLabel":"Extra reistijd tot 30 min.","maximumDurationInMinutes":30},"timespans":[{"start":"2025-10-12T04:01:17+0200","end":"2025-10-20T02:00:34+0200","period":"Zondag 12 oktober 4:01 uur t/m maandag 20 oktober 2:00 uur.","situation":{"label":"Door werkzaamheden: tussen 's-Hertogenbosch en Boxtel rijden er bussen en tussen 's-Hertogenbosch en Tilburg rijden er bussen."},"cause":{"label":"werkzaamheden","type":"OTHER"},"additionalTravelTime":{"label":"De extra reistijd is ongeveer 30 minuten.","shortLabel":"Extra reistijd 30 min.","minimumDurationInMinutes":30,"maximumDurationInMinutes":30},"alternativeTransport":{"label":"er rijden stop- en snelbussen","shortLabel":"er rijden stop- en snelbussen"},"advices":["Vermijd drukte tussen 07:30-09:00 uur en 17:00-18:00 uur.","Tussen Utrecht C. en Eindhoven C. reis via Rotterdam C."]}],"alternativeTransportTimespans":[{"start":"2025-10-04T00:55:54+0200","end":"2025-10-10T20:15:00+0200","alternativeTransport":{"location":[{"station":{"coordinate":{"lat":51.69048,"lng":5.29362},"countryCode":"NL","name":"'s-Hertogenbosch","stationCode":"HT","uicCode":"8400319"},"description":"vanaf de Magistratenlaan aan de achterzijde van het station"},{"station":{"coordinate":{"lat":51.5605545043945,"lng":5.08361101150513},"countryCode":"NL","name":"Tilburg","stationCode":"TB","uicCode":"8400597"},"description":"vanaf de achterzijde van het station"}],"label":"Er rijden snelbussen tussen 's-Hertogenbosch en Tilburg.","shortLabel":"Er rijden snelbussen 's-Hertogenbosch - Tilburg."}},{"start":"2025-10-04T00:55:54+0200","end":"2025-10-10T20:15:00+0200","alternativeTransport":{"location":[{"station":{"coordinate":{"lat":51.69048,"lng":5.29362},"countryCode":"NL","name":"'s-Hertogenbosch","stationCode":"HT","uicCode":"8400319"},"description":"vanaf de Magistratenlaan aan de achterzijde van het station"},{"station":{"coordinate":{"lat":51.6555557250977,"lng":5.29194450378418},"countryCode":"NL","name":"Vught","stationCode":"VG","uicCode":"8400667"},"description":"vanaf de OV-halte Secr. Van Rooijstraat"},{"station":{"coordinate":{"lat":51.58433,"lng":5.31912},"countryCode":"NL","name":"Boxtel","stationCode":"BTL","uicCode":"8400129"},"description":"vanaf de NS bushalte aan de van Salmstraat"}],"label":"Er rijden stopbussen tussen 's-Hertogenbosch, Vught en Boxtel.","shortLabel":"Er rijden stopbussen 's-Hertogenbosch - Vught - Boxtel."}},{"start":"2025-10-04T00:55:54+0200","end":"2025-10-10T20:15:00+0200","alternativeTransport":{"location":[{"station":{"coordinate":{"lat":51.69048,"lng":5.29362},"countryCode":"NL","name":"'s-Hertogenbosch","stationCode":"HT","uicCode":"8400319"},"description":"vanaf de Magistratenlaan aan de achterzijde van het station"},{"station":{"coordinate":{"lat":51.58433,"lng":5.31912},"countryCode":"NL","name":"Boxtel","stationCode":"BTL","uicCode":"8400129"},"description":"vanaf de NS bushalte aan de van Salmstraat"}],"label":"Er rijden snelbussen tussen 's-Hertogenbosch en Boxtel.","shortLabel":"Er rijden snelbussen 's-Hertogenbosch - Boxtel."}},{"start":"2025-10-04T00:56:00+0200","end":"2025-10-04T01:35:00+0200","alternativeTransport":{"location":[{"station":{"coordinate":{"lat":51.69048,"lng":5.29362},"countryCode":"NL","name":"'s-Hertogenbosch","stationCode":"HT","uicCode":"8400319"},"description":"vanaf de Magistratenlaan aan de achterzijde van het station"},{"station":{"coordinate":{"lat":51.4433326721191,"lng":5.48138904571533},"countryCode":"NL","name":"Eindhoven Centraal","stationCode":"EHV","uicCode":"8400206"},"description":"vanaf de achterzijde van het station"}],"label":"Er rijden snelbussen tussen 's-Hertogenbosch en Eindhoven Centraal.","shortLabel":"Er rijden snelbussen 's-Hertogenbosch - Eindhoven C."}},{"start":"2025-10-04T00:56:00+0200","end":"2025-10-04T01:35:00+0200","alternativeTransport":{"location":[{"station":{"coordinate":{"lat":51.69048,"lng":5.29362},"countryCode":"NL","name":"'s-Hertogenbosch","stationCode":"HT","uicCode":"8400319"},"description":"vanaf de Magistratenlaan aan de achterzijde van het station"},{"station":{"coordinate":{"lat":51.5605545043945,"lng":5.08361101150513},"countryCode":"NL","name":"Tilburg","stationCode":"TB","uicCode":"8400597"},"description":"vanaf de achterzijde van het station"}],"label":"Er rijden snelbussen tussen 's-Hertogenbosch en Tilburg.","shortLabel":"Er rijden snelbussen 's-Hertogenbosch - Tilburg."}},{"start":"2025-10-05T00:20:00+0200","end":"2025-10-05T01:35:00+0200","alternativeTransport":{"location":[{"station":{"coordinate":{"lat":51.69048,"lng":5.29362},"countryCode":"NL","name":"'s-Hertogenbosch","stationCode":"HT","uicCode":"8400319"},"description":"vanaf de Magistratenlaan aan de achterzijde van het station"},{"station":{"coordinate":{"lat":51.4433326721191,"lng":5.48138904571533},"countryCode":"NL","name":"Eindhoven Centraal","stationCode":"EHV","uicCode":"8400206"},"description":"vanaf de achterzijde van het station"}],"label":"Er rijden snelbussen tussen 's-Hertogenbosch en Eindhoven Centraal.","shortLabel":"Er rijden snelbussen 's-Hertogenbosch - Eindhoven C."}},{"start":"2025-10-05T00:20:00+0200","end":"2025-10-05T01:35:00+0200","alternativeTransport":{"location":[{"station":{"coordinate":{"lat":51.69048,"lng":5.29362},"countryCode":"NL","name":"'s-Hertogenbosch","stationCode":"HT","uicCode":"8400319"},"description":"vanaf de Magistratenlaan aan de achterzijde van het station"},{"station":{"coordinate":{"lat":51.5605545043945,"lng":5.08361101150513},"countryCode":"NL","name":"Tilburg","stationCode":"TB","uicCode":"8400597"},"description":"vanaf de achterzijde van het station"}],"label":"Er rijden snelbussen tussen 's-Hertogenbosch en Tilburg.","shortLabel":"Er rijden snelbussen 's-Hertogenbosch - Tilburg."}},{"start":"2025-10-10T20:16:00+0200","end":"2025-10-12T04:00:53+0200","alternativeTransport":{"location":[{"station":{"coordinate":{"lat":51.88301,"lng":5.27127},"countryCode":"NL","name":"Geldermalsen","stationCode":"GDM","uicCode":"8400244"},"description":"vanaf de bushalte"},{"station":{"coordinate":{"lat":51.69048,"lng":5.29362},"countryCode":"NL","name":"'s-Hertogenbosch","stationCode":"HT","uicCode":"8400319"},"description":"vanaf de Magistratenlaan aan de achterzijde van het station"},{"station":{"coordinate":{"lat":51.58433,"lng":5.31912},"countryCode":"NL","name":"Boxtel","stationCode":"BTL","uicCode":"8400129"},"description":"vanaf de NS bushalte aan de van Salmstraat"}],"label":"Er rijden snelbussen tussen Geldermalsen, 's-Hertogenbosch en Boxtel.","shortLabel":"Er rijden snelbussen Geldermalsen - 's-Hertogenbosch - Boxtel."}},{"start":"2025-10-10T20:16:00+0200","end":"2025-10-12T04:00:53+0200","alternativeTransport":{"location":[{"station":{"coordinate":{"lat":51.7655563354492,"lng":5.53222227096558},"countryCode":"NL","name":"Oss","stationCode":"O","uicCode":"8400495"},"description":"vanaf de voorzijde van het station"},{"station":{"coordinate":{"lat":51.69048,"lng":5.29362},"countryCode":"NL","name":"'s-Hertogenbosch","stationCode":"HT","uicCode":"8400319"},"description":"vanaf de Magistratenlaan aan de achterzijde van het station"},{"station":{"coordinate":{"lat":51.5605545043945,"lng":5.08361101150513},"countryCode":"NL","name":"Tilburg","stationCode":"TB","uicCode":"8400597"},"description":"vanaf de achterzijde van het station"}],"label":"Er rijden snelbussen tussen Oss, 's-Hertogenbosch en Tilburg.","shortLabel":"Er rijden snelbussen Oss - 's-Hertogenbosch - Tilburg."}},{"start":"2025-10-10T20:16:00+0200","end":"2025-10-12T04:00:53+0200","alternativeTransport":{"location":[{"station":{"coordinate":{"lat":51.88301,"lng":5.27127},"countryCode":"NL","name":"Geldermalsen","stationCode":"GDM","uicCode":"8400244"},"description":"vanaf de bushalte"},{"station":{"coordinate":{"lat":51.8088874816895,"lng":5.26333332061768},"countryCode":"NL","name":"Zaltbommel","stationCode":"ZBM","uicCode":"8400732"},"description":"vanaf de voorzijde van het station"},{"station":{"coordinate":{"lat":51.69048,"lng":5.29362},"countryCode":"NL","name":"'s-Hertogenbosch","stationCode":"HT","uicCode":"8400319"},"description":"vanaf de Magistratenlaan aan de achterzijde van het station"},{"station":{"coordinate":{"lat":51.6555557250977,"lng":5.29194450378418},"countryCode":"NL","name":"Vught","stationCode":"VG","uicCode":"8400667"},"description":"vanaf de OV-halte Secr. Van Rooijstraat"},{"station":{"coordinate":{"lat":51.58433,"lng":5.31912},"countryCode":"NL","name":"Boxtel","stationCode":"BTL","uicCode":"8400129"},"description":"vanaf de NS bushalte aan de van Salmstraat"}],"label":"Er rijden stopbussen tussen Geldermalsen, Zaltbommel, 's-Hertogenbosch, Vught en Boxtel.","shortLabel":"Er rijden stopbussen Geldermalsen - Zaltbommel - 's-Hertogenbosch - Vught - Boxtel."}},{"start":"2025-10-10T20:16:00+0200","end":"2025-10-12T04:00:53+0200","alternativeTransport":{"location":[{"station":{"coordinate":{"lat":51.7655563354492,"lng":5.53222227096558},"countryCode":"NL","name":"Oss","stationCode":"O","uicCode":"8400495"},"description":"vanaf de voorzijde van het station"},{"station":{"coordinate":{"lat":51.758056640625,"lng":5.50555562973022},"countryCode":"NL","name":"Oss West","stationCode":"OW","uicCode":"8400496"},"description":"vanaf de voorzijde van het station"},{"station":{"coordinate":{"lat":51.7147216796875,"lng":5.36805534362793},"countryCode":"NL","name":"Rosmalen","stationCode":"RS","uicCode":"8400524"},"description":"vanaf de OV halte aan de Deken van Roestellaan"},{"station":{"coordinate":{"lat":51.700553894043,"lng":5.3183331489563},"countryCode":"NL","name":"'s-Hertogenbosch Oost","stationCode":"HTO","uicCode":"8400320"},"description":"vanaf de bushalte"},{"station":{"coordinate":{"lat":51.69048,"lng":5.29362},"countryCode":"NL","name":"'s-Hertogenbosch","stationCode":"HT","uicCode":"8400319"},"description":"vanaf de Magistratenlaan aan de achterzijde van het station"},{"station":{"coordinate":{"lat":51.5605545043945,"lng":5.08361101150513},"countryCode":"NL","name":"Tilburg","stationCode":"TB","uicCode":"8400597"},"description":"vanaf de achterzijde van het station"}],"label":"Er rijden stopbussen tussen Oss, Oss West, Rosmalen, 's-Hertogenbosch Oost, 's-Hertogenbosch en Tilburg.","shortLabel":"Er rijden stopbussen Oss - Oss West - Rosmalen - 's-Hertogenb. O. - 's-Hertogenbosch - Tilburg."}},{"start":"2025-10-11T00:20:00+0200","end":"2025-10-11T02:10:00+0200","alternativeTransport":{"location":[{"station":{"coordinate":{"lat":52.0888900756836,"lng":5.11027765274048},"countryCode":"NL","name":"Utrecht Centraal","stationCode":"UT","uicCode":"8400621"},"description":"vanaf de Jaarbeursplein, halte G"},{"station":{"coordinate":{"lat":51.69048,"lng":5.29362},"countryCode":"NL","name":"'s-Hertogenbosch","stationCode":"HT","uicCode":"8400319"},"description":"vanaf de Magistratenlaan aan de achterzijde van het station"},{"station":{"coordinate":{"lat":51.4433326721191,"lng":5.48138904571533},"countryCode":"NL","name":"Eindhoven Centraal","stationCode":"EHV","uicCode":"8400206"},"description":"vanaf de achterzijde van het station"}],"label":"Er rijden snelbussen tussen Utrecht Centraal, 's-Hertogenbosch en Eindhoven Centraal.","shortLabel":"Er rijden snelbussen Utrecht C. - 's-Hertogenbosch - Eindhoven C."}},{"start":"2025-10-11T00:20:00+0200","end":"2025-10-11T02:10:00+0200","alternativeTransport":{"location":[{"station":{"coordinate":{"lat":51.69048,"lng":5.29362},"countryCode":"NL","name":"'s-Hertogenbosch","stationCode":"HT","uicCode":"8400319"},"description":"vanaf de Magistratenlaan aan de achterzijde van het station"},{"station":{"coordinate":{"lat":51.5605545043945,"lng":5.08361101150513},"countryCode":"NL","name":"Tilburg","stationCode":"TB","uicCode":"8400597"},"description":"vanaf de achterzijde van het station"}],"label":"Er rijden snelbussen tussen 's-Hertogenbosch en Tilburg.","shortLabel":"Er rijden snelbussen 's-Hertogenbosch - Tilburg."}},{"start":"2025-10-12T00:20:00+0200","end":"2025-10-12T02:10:00+0200","alternativeTransport":{"location":[{"station":{"coordinate":{"lat":52.0888900756836,"lng":5.11027765274048},"countryCode":"NL","name":"Utrecht Centraal","stationCode":"UT","uicCode":"8400621"},"description":"vanaf de Jaarbeursplein, halte G"},{"station":{"coordinate":{"lat":51.69048,"lng":5.29362},"countryCode":"NL","name":"'s-Hertogenbosch","stationCode":"HT","uicCode":"8400319"},"description":"vanaf de Magistratenlaan aan de achterzijde van het station"},{"station":{"coordinate":{"lat":51.4433326721191,"lng":5.48138904571533},"countryCode":"NL","name":"Eindhoven Centraal","stationCode":"EHV","uicCode":"8400206"},"description":"vanaf de achterzijde van het station"}],"label":"Er rijden snelbussen tussen Utrecht Centraal, 's-Hertogenbosch en Eindhoven Centraal.","shortLabel":"Er rijden snelbussen Utrecht C. - 's-Hertogenbosch - Eindhoven C."}},{"start":"2025-10-12T00:20:00+0200","end":"2025-10-12T02:10:00+0200","alternativeTransport":{"location":[{"station":{"coordinate":{"lat":51.69048,"lng":5.29362},"countryCode":"NL","name":"'s-Hertogenbosch","stationCode":"HT","uicCode":"8400319"},"description":"vanaf de Magistratenlaan aan de achterzijde van het station"},{"station":{"coordinate":{"lat":51.5605545043945,"lng":5.08361101150513},"countryCode":"NL","name":"Tilburg","stationCode":"TB","uicCode":"8400597"},"description":"vanaf de achterzijde van het station"}],"label":"Er rijden snelbussen tussen 's-Hertogenbosch en Tilburg.","shortLabel":"Er rijden snelbussen 's-Hertogenbosch - Tilburg."}},{"start":"2025-10-12T04:01:17+0200","end":"2025-10-20T02:00:34+0200","alternativeTransport":{"location":[{"station":{"coordinate":{"lat":51.69048,"lng":5.29362},"countryCode":"NL","name":"'s-Hertogenbosch","stationCode":"HT","uicCode":"8400319"},"description":"vanaf de Magistratenlaan aan de achterzijde van het station"},{"station":{"coordinate":{"lat":51.5605545043945,"lng":5.08361101150513},"countryCode":"NL","name":"Tilburg","stationCode":"TB","uicCode":"8400597"},"description":"vanaf de achterzijde van het station"}],"label":"Er rijden snelbussen tussen 's-Hertogenbosch en Tilburg.","shortLabel":"Er rijden snelbussen 's-Hertogenbosch - Tilburg."}},{"start":"2025-10-12T04:01:17+0200","end":"2025-10-20T02:00:34+0200","alternativeTransport":{"location":[{"station":{"coordinate":{"lat":51.69048,"lng":5.29362},"countryCode":"NL","name":"'s-Hertogenbosch","stationCode":"HT","uicCode":"8400319"},"description":"vanaf de Magistratenlaan aan de achterzijde van het station"},{"station":{"coordinate":{"lat":51.6555557250977,"lng":5.29194450378418},"countryCode":"NL","name":"Vught","stationCode":"VG","uicCode":"8400667"},"description":"vanaf de OV-halte Secr. Van Rooijstraat"},{"station":{"coordinate":{"lat":51.58433,"lng":5.31912},"countryCode":"NL","name":"Boxtel","stationCode":"BTL","uicCode":"8400129"},"description":"vanaf de NS bushalte aan de van Salmstraat"}],"label":"Er rijden stopbussen tussen 's-Hertogenbosch, Vught en Boxtel.","shortLabel":"Er rijden stopbussen 's-Hertogenbosch - Vught - Boxtel."}},{"start":"2025-10-12T04:01:17+0200","end":"2025-10-20T02:00:34+0200","alternativeTransport":{"location":[{"station":{"coordinate":{"lat":51.69048,"lng":5.29362},"countryCode":"NL","name":"'s-Hertogenbosch","stationCode":"HT","uicCode":"8400319"},"description":"vanaf de Magistratenlaan aan de achterzijde van het station"},{"station":{"coordinate":{"lat":51.58433,"lng":5.31912},"countryCode":"NL","name":"Boxtel","stationCode":"BTL","uicCode":"8400129"},"description":"vanaf de NS bushalte aan de van Salmstraat"}],"label":"Er rijden snelbussen tussen 's-Hertogenbosch en Boxtel.","shortLabel":"Er rijden snelbussen 's-Hertogenbosch - Boxtel."}},{"start":"2025-10-18T00:56:00+0200","end":"2025-10-18T01:35:00+0200","alternativeTransport":{"location":[{"station":{"coordinate":{"lat":51.69048,"lng":5.29362},"countryCode":"NL","name":"'s-Hertogenbosch","stationCode":"HT","uicCode":"8400319"},"description":"vanaf de Magistratenlaan aan de achterzijde van het station"},{"station":{"coordinate":{"lat":51.4433326721191,"lng":5.48138904571533},"countryCode":"NL","name":"Eindhoven Centraal","stationCode":"EHV","uicCode":"8400206"},"description":"vanaf de achterzijde van het station"}],"label":"Er rijden snelbussen tussen 's-Hertogenbosch en Eindhoven Centraal.","shortLabel":"Er rijden snelbussen 's-Hertogenbosch - Eindhoven C."}},{"start":"2025-10-19T00:20:00+0200","end":"2025-10-19T01:35:00+0200","alternativeTransport":{"location":[{"station":{"coordinate":{"lat":51.69048,"lng":5.29362},"countryCode":"NL","name":"'s-Hertogenbosch","stationCode":"HT","uicCode":"8400319"},"description":"vanaf de Magistratenlaan aan de achterzijde van het station"},{"station":{"coordinate":{"lat":51.4433326721191,"lng":5.48138904571533},"countryCode":"NL","name":"Eindhoven Centraal","stationCode":"EHV","uicCode":"8400206"},"description":"vanaf de achterzijde van het station"}],"label":"Er rijden snelbussen tussen 's-Hertogenbosch en Eindhoven Centraal.","shortLabel":"Er rijden snelbussen 's-Hertogenbosch - Eindhoven C."}},{"start":"2025-10-19T00:20:00+0200","end":"2025-10-19T01:35:00+0200","alternativeTransport":{"location":[{"station":{"coordinate":{"lat":51.69048,"lng":5.29362},"countryCode":"NL","name":"'s-Hertogenbosch","stationCode":"HT","uicCode":"8400319"},"description":"vanaf de Magistratenlaan aan de achterzijde van het station"},{"station":{"coordinate":{"lat":51.5605545043945,"lng":5.08361101150513},"countryCode":"NL","name":"Tilburg","stationCode":"TB","uicCode":"8400597"},"description":"vanaf de achterzijde van het station"}],"label":"Er rijden snelbussen tussen 's-Hertogenbosch en Tilburg.","shortLabel":"Er rijden snelbussen 's-Hertogenbosch - Tilburg."}}]},{"type":"MAINTENANCE","id":"7006877","title":"Groningen - Bad Nieuweschans; Groningen - Veendam.","isActive":false,"local":false,"titleSections":[[{"type":"STATION","value":"Groningen"},{"type":"ICON","value":"MAINTENANCE"},{"type":"STATION","value":"Bad Nieuweschans"}],[{"type":"STATION","value":"Groningen"},{"type":"ICON","value":"MAINTENANCE"},{"type":"STATION","value":"Veendam"}]],"registrationTime":"2025-09-19T11:07:42+0200","start":"2025-10-16T00:30:00+0200","releaseTime":"2025-09-19T11:07:42+0200","end":"2025-10-16T03:00:00+0200","period":"Donderdag 16 oktober 0:30 uur t/m donderdag 16 oktober 3:00 uur.","impact":{"value":3},"publicationSections":[{"section":{"stations":[{"coordinate":{"lat":53.2105560302734,"lng":6.56472206115723},"countryCode":"NL","name":"Groningen","stationCode":"GN","uicCode":"8400263"},{"coordinate":{"lat":53.20480027,"lng":6.5854178},"countryCode":"NL","name":"Groningen Europapark","stationCode":"GERP","uicCode":"8400238"},{"coordinate":{"lat":53.1617362,"lng":6.7220882},"countryCode":"NL","name":"Kropswolde","stationCode":"KW","uicCode":"8400369"},{"coordinate":{"lat":53.1607232,"lng":6.7402989},"countryCode":"NL","name":"Martenshoek","stationCode":"MTH","uicCode":"8400430"},{"coordinate":{"lat":53.1598181316756,"lng":6.77075386047363},"countryCode":"NL","name":"Hoogezand-Sappemeer","stationCode":"HGZ","uicCode":"8400331"},{"coordinate":{"lat":53.1596122800056,"lng":6.8679141998291},"countryCode":"NL","name":"Zuidbroek","stationCode":"ZB","uicCode":"8400742"},{"coordinate":{"lat":53.1655362,"lng":6.9777775},"countryCode":"NL","name":"Scheemda","stationCode":"SDA","uicCode":"8400551"},{"coordinate":{"lat":53.1392377,"lng":7.035101},"countryCode":"NL","name":"Winschoten","stationCode":"WS","uicCode":"8400696"},{"coordinate":{"lat":53.1844,"lng":7.19937},"countryCode":"NL","name":"Bad Nieuweschans","stationCode":"NSCH","uicCode":"8400457"}],"direction":"BOTH","operators":["Arriva"]},"consequence":{"section":{"stations":[{"coordinate":{"lat":53.2105560302734,"lng":6.56472206115723},"countryCode":"NL","name":"Groningen","stationCode":"GN","uicCode":"8400263"},{"coordinate":{"lat":53.20480027,"lng":6.5854178},"countryCode":"NL","name":"Groningen Europapark","stationCode":"GERP","uicCode":"8400238"},{"coordinate":{"lat":53.1617362,"lng":6.7220882},"countryCode":"NL","name":"Kropswolde","stationCode":"KW","uicCode":"8400369"},{"coordinate":{"lat":53.1607232,"lng":6.7402989},"countryCode":"NL","name":"Martenshoek","stationCode":"MTH","uicCode":"8400430"},{"coordinate":{"lat":53.1598181316756,"lng":6.77075386047363},"countryCode":"NL","name":"Hoogezand-Sappemeer","stationCode":"HGZ","uicCode":"8400331"},{"coordinate":{"lat":53.1596122800056,"lng":6.8679141998291},"countryCode":"NL","name":"Zuidbroek","stationCode":"ZB","uicCode":"8400742"},{"coordinate":{"lat":53.1655362,"lng":6.9777775},"countryCode":"NL","name":"Scheemda","stationCode":"SDA","uicCode":"8400551"},{"coordinate":{"lat":53.1392377,"lng":7.035101},"countryCode":"NL","name":"Winschoten","stationCode":"WS","uicCode":"8400696"},{"coordinate":{"lat":53.1844,"lng":7.19937},"countryCode":"NL","name":"Bad Nieuweschans","stationCode":"NSCH","uicCode":"8400457"}],"direction":"BOTH","operators":["Arriva"]},"description":"er rijden bussen","level":"LESS_TRAINS"},"sectionType":"NL"},{"section":{"stations":[{"coordinate":{"lat":53.2105560302734,"lng":6.56472206115723},"countryCode":"NL","name":"Groningen","stationCode":"GN","uicCode":"8400263"},{"coordinate":{"lat":53.20480027,"lng":6.5854178},"countryCode":"NL","name":"Groningen Europapark","stationCode":"GERP","uicCode":"8400238"},{"coordinate":{"lat":53.1617362,"lng":6.7220882},"countryCode":"NL","name":"Kropswolde","stationCode":"KW","uicCode":"8400369"},{"coordinate":{"lat":53.1607232,"lng":6.7402989},"countryCode":"NL","name":"Martenshoek","stationCode":"MTH","uicCode":"8400430"},{"coordinate":{"lat":53.1598181316756,"lng":6.77075386047363},"countryCode":"NL","name":"Hoogezand-Sappemeer","stationCode":"HGZ","uicCode":"8400331"},{"coordinate":{"lat":53.1596122800056,"lng":6.8679141998291},"countryCode":"NL","name":"Zuidbroek","stationCode":"ZB","uicCode":"8400742"},{"coordinate":{"lat":53.10324,"lng":6.88475},"countryCode":"NL","name":"Veendam","stationCode":"VDM","uicCode":"8400636"}],"direction":"BOTH","operators":["Arriva"]},"consequence":{"section":{"stations":[{"coordinate":{"lat":53.2105560302734,"lng":6.56472206115723},"countryCode":"NL","name":"Groningen","stationCode":"GN","uicCode":"8400263"},{"coordinate":{"lat":53.20480027,"lng":6.5854178},"countryCode":"NL","name":"Groningen Europapark","stationCode":"GERP","uicCode":"8400238"},{"coordinate":{"lat":53.1617362,"lng":6.7220882},"countryCode":"NL","name":"Kropswolde","stationCode":"KW","uicCode":"8400369"},{"coordinate":{"lat":53.1607232,"lng":6.7402989},"countryCode":"NL","name":"Martenshoek","stationCode":"MTH","uicCode":"8400430"},{"coordinate":{"lat":53.1598181316756,"lng":6.77075386047363},"countryCode":"NL","name":"Hoogezand-Sappemeer","stationCode":"HGZ","uicCode":"8400331"},{"coordinate":{"lat":53.1596122800056,"lng":6.8679141998291},"countryCode":"NL","name":"Zuidbroek","stationCode":"ZB","uicCode":"8400742"},{"coordinate":{"lat":53.10324,"lng":6.88475},"countryCode":"NL","name":"Veendam","stationCode":"VDM","uicCode":"8400636"}],"direction":"BOTH","operators":["Arriva"]},"description":"een bus","level":"LESS_TRAINS"},"sectionType":"NL"}],"summaryAdditionalTravelTime":{"label":"De extra reistijd is ongeveer 30 minuten.","shortLabel":"Extra reistijd 30 min.","minimumDurationInMinutes":30,"maximumDurationInMinutes":30},"timespans":[{"start":"2025-10-16T00:30:00+0200","end":"2025-10-16T03:00:00+0200","period":"Donderdag 16 oktober 0:30 uur t/m donderdag 16 oktober 3:00 uur.","situation":{"label":"Door werkzaamheden: tussen Groningen en Bad Nieuweschans rijden er bussen en tussen Groningen en Veendam rijdt een bus."},"cause":{"label":"werkzaamheden","type":"OTHER"},"additionalTravelTime":{"label":"De extra reistijd is ongeveer 30 minuten.","shortLabel":"Extra reistijd 30 min.","minimumDurationInMinutes":30,"maximumDurationInMinutes":30},"alternativeTransport":{"label":"er rijdt een bus","shortLabel":"er rijdt een bus"},"advices":[]}],"alternativeTransportTimespans":[{"start":"2025-10-16T00:30:00+0200","end":"2025-10-16T03:00:00+0200","alternativeTransport":{"location":[{"station":{"coordinate":{"lat":53.1596122800056,"lng":6.8679141998291},"countryCode":"NL","name":"Zuidbroek","stationCode":"ZB","uicCode":"8400742"},"description":"vanaf de bushalte"},{"station":{"coordinate":{"lat":53.1655362,"lng":6.9777775},"countryCode":"NL","name":"Scheemda","stationCode":"SDA","uicCode":"8400551"},"description":"vanaf de bushalte"},{"station":{"coordinate":{"lat":53.1392377,"lng":7.035101},"countryCode":"NL","name":"Winschoten","stationCode":"WS","uicCode":"8400696"},"description":"vanaf het busstation"},{"station":{"coordinate":{"lat":53.1844,"lng":7.19937},"countryCode":"NL","name":"Bad Nieuweschans","stationCode":"NSCH","uicCode":"8400457"},"description":"volg de aanwijzingen op het station"}],"label":"Er rijdt een bus van Zuidbroek, Scheemda, Winschoten naar Bad Nieuweschans.","shortLabel":"Er rijdt een bus Zuidbroek -> Scheemda -> Winschoten -> Bad Nieuweschans."}},{"start":"2025-10-16T00:30:00+0200","end":"2025-10-16T03:00:00+0200","alternativeTransport":{"location":[{"station":{"coordinate":{"lat":53.2105560302734,"lng":6.56472206115723},"countryCode":"NL","name":"Groningen","stationCode":"GN","uicCode":"8400263"},"description":"vanaf de voorzijde van het station"},{"station":{"coordinate":{"lat":53.20480027,"lng":6.5854178},"countryCode":"NL","name":"Groningen Europapark","stationCode":"GERP","uicCode":"8400238"},"description":"vanaf de voorzijde van het station"},{"station":{"coordinate":{"lat":53.1617362,"lng":6.7220882},"countryCode":"NL","name":"Kropswolde","stationCode":"KW","uicCode":"8400369"},"description":"vanaf de provinciale weg"},{"station":{"coordinate":{"lat":53.1607232,"lng":6.7402989},"countryCode":"NL","name":"Martenshoek","stationCode":"MTH","uicCode":"8400430"},"description":"vanaf de bushalte"},{"station":{"coordinate":{"lat":53.1598181316756,"lng":6.77075386047363},"countryCode":"NL","name":"Hoogezand-Sappemeer","stationCode":"HGZ","uicCode":"8400331"},"description":"vanaf de voorzijde van het station"},{"station":{"coordinate":{"lat":53.1596122800056,"lng":6.8679141998291},"countryCode":"NL","name":"Zuidbroek","stationCode":"ZB","uicCode":"8400742"},"description":"vanaf de bushalte"},{"station":{"coordinate":{"lat":53.10324,"lng":6.88475},"countryCode":"NL","name":"Veendam","stationCode":"VDM","uicCode":"8400636"},"description":"vanaf de voorzijde van het station"}],"label":"Er rijdt een bus tussen Groningen, Groningen Europapark, Kropswolde, Martenshoek, Hoogezand-Sappemeer, Zuidbroek en Veendam.","shortLabel":"Er rijdt een bus Groningen - Europapark - Kropswolde - Martenshoek - Hoogezand-Sap. - Zuidbroek - Veendam."}},{"start":"2025-10-16T00:30:00+0200","end":"2025-10-16T03:00:00+0200","alternativeTransport":{"location":[{"station":{"coordinate":{"lat":53.1844,"lng":7.19937},"countryCode":"NL","name":"Bad Nieuweschans","stationCode":"NSCH","uicCode":"8400457"},"description":"vanaf de voorzijde van het station"},{"station":{"coordinate":{"lat":53.1392377,"lng":7.035101},"countryCode":"NL","name":"Winschoten","stationCode":"WS","uicCode":"8400696"},"description":"vanaf het busstation"},{"station":{"coordinate":{"lat":53.1655362,"lng":6.9777775},"countryCode":"NL","name":"Scheemda","stationCode":"SDA","uicCode":"8400551"},"description":"vanaf de bushalte"},{"station":{"coordinate":{"lat":53.1596122800056,"lng":6.8679141998291},"countryCode":"NL","name":"Zuidbroek","stationCode":"ZB","uicCode":"8400742"},"description":"vanaf de bushalte"},{"station":{"coordinate":{"lat":53.1598181316756,"lng":6.77075386047363},"countryCode":"NL","name":"Hoogezand-Sappemeer","stationCode":"HGZ","uicCode":"8400331"},"description":"vanaf de voorzijde van het station"},{"station":{"coordinate":{"lat":53.1607232,"lng":6.7402989},"countryCode":"NL","name":"Martenshoek","stationCode":"MTH","uicCode":"8400430"},"description":"vanaf de bushalte"},{"station":{"coordinate":{"lat":53.1617362,"lng":6.7220882},"countryCode":"NL","name":"Kropswolde","stationCode":"KW","uicCode":"8400369"},"description":"vanaf de provinciale weg"},{"station":{"coordinate":{"lat":53.20480027,"lng":6.5854178},"countryCode":"NL","name":"Groningen Europapark","stationCode":"GERP","uicCode":"8400238"},"description":"vanaf de voorzijde van het station"},{"station":{"coordinate":{"lat":53.2105560302734,"lng":6.56472206115723},"countryCode":"NL","name":"Groningen","stationCode":"GN","uicCode":"8400263"},"description":"volg de aanwijzingen op het station"}],"label":"Er rijdt een bus van Bad Nieuweschans, Winschoten, Scheemda, Zuidbroek, Hoogezand-Sappemeer, Martenshoek, Kropswolde, Groningen Europapark naar Groningen.","shortLabel":"Er rijdt een bus Bad Nieuweschans -> Winschoten -> Scheemda -> Zuidbroek -> Hoogezand-Sap. -> Martenshoek -> Kropswolde -> Europapark -> Groningen."}}]},{"type":"MAINTENANCE","id":"7006755","title":"Amsterdam - Haarlem.","isActive":false,"local":false,"titleSections":[[{"type":"STATION","value":"Amsterdam C."},{"type":"STATION","value":"Sloterdijk"},{"type":"ICON","value":"MAINTENANCE"},{"type":"STATION","value":"Haarlem"}]],"registrationTime":"2025-10-14T13:45:19+0200","start":"2025-10-16T19:00:00+0200","releaseTime":"2025-10-14T13:45:19+0200","end":"2025-10-23T23:00:00+0200","period":"Donderdag 16 oktober 19:00 uur t/m donderdag 23 oktober 23:00 uur.","impact":{"value":5},"publicationSections":[{"section":{"stations":[{"coordinate":{"lat":52.3788871765137,"lng":4.90027761459351},"countryCode":"NL","name":"Amsterdam Centraal","stationCode":"ASD","uicCode":"8400058"},{"coordinate":{"lat":52.3888893127441,"lng":4.83777761459351},"countryCode":"NL","name":"Amsterdam Sloterdijk","stationCode":"ASS","uicCode":"8400059"},{"coordinate":{"lat":52.385935,"lng":4.747165},"countryCode":"NL","name":"Halfweg-Zwanenburg","stationCode":"HWZB","uicCode":"8400400"},{"coordinate":{"lat":52.3827781677246,"lng":4.67305564880371},"countryCode":"NL","name":"Haarlem Spaarnwoude","stationCode":"HLMS","uicCode":"8400270"},{"coordinate":{"lat":52.3877792358398,"lng":4.63833332061768},"countryCode":"NL","name":"Haarlem","stationCode":"HLM","uicCode":"8400285"}],"direction":"BOTH","operators":["NS"]},"consequence":{"section":{"stations":[{"coordinate":{"lat":52.3888893127441,"lng":4.83777761459351},"countryCode":"NL","name":"Amsterdam Sloterdijk","stationCode":"ASS","uicCode":"8400059"},{"coordinate":{"lat":52.385935,"lng":4.747165},"countryCode":"NL","name":"Halfweg-Zwanenburg","stationCode":"HWZB","uicCode":"8400400"},{"coordinate":{"lat":52.3827781677246,"lng":4.67305564880371},"countryCode":"NL","name":"Haarlem Spaarnwoude","stationCode":"HLMS","uicCode":"8400270"},{"coordinate":{"lat":52.3877792358398,"lng":4.63833332061768},"countryCode":"NL","name":"Haarlem","stationCode":"HLM","uicCode":"8400285"}],"direction":"BOTH","operators":["NS"]},"description":"er rijden bussen","level":"LESS_TRAINS"},"sectionType":"NL"}],"summaryAdditionalTravelTime":{"label":"De extra reistijd is ongeveer 30 minuten.","shortLabel":"Extra reistijd 30 min.","minimumDurationInMinutes":30,"maximumDurationInMinutes":30},"timespans":[{"start":"2025-10-16T19:00:00+0200","end":"2025-10-23T23:00:00+0200","period":"Donderdag 16 oktober 19:00 uur t/m donderdag 23 oktober 23:00 uur.","situation":{"label":"Door werkzaamheden: tussen Amsterdam Sloterdijk en Haarlem rijden er bussen."},"cause":{"label":"werkzaamheden","type":"OTHER"},"additionalTravelTime":{"label":"De extra reistijd is ongeveer 30 minuten.","shortLabel":"Extra reistijd 30 min.","minimumDurationInMinutes":30,"maximumDurationInMinutes":30},"alternativeTransport":{"label":"er rijden stop- en snelbussen","shortLabel":"er rijden stop- en snelbussen"},"advices":["Houd rekening met extra drukte tijdens de spits. Reis buiten de spits mits mogelijk.","Tussen Sloterdijk en Haarlem reis via Uitgeest.","Tussen Sloterdijk en Leiden C. reis via Schiphol Airport."]}],"alternativeTransportTimespans":[{"start":"2025-10-16T19:00:00+0200","end":"2025-10-23T23:00:00+0200","alternativeTransport":{"location":[{"station":{"coordinate":{"lat":52.3877792358398,"lng":4.63833332061768},"countryCode":"NL","name":"Haarlem","stationCode":"HLM","uicCode":"8400285"},"description":"vanaf de Jansweg"},{"station":{"coordinate":{"lat":52.3827781677246,"lng":4.67305564880371},"countryCode":"NL","name":"Haarlem Spaarnwoude","stationCode":"HLMS","uicCode":"8400270"},"description":"vanaf de bushalte"},{"station":{"coordinate":{"lat":52.385935,"lng":4.747165},"countryCode":"NL","name":"Halfweg-Zwanenburg","stationCode":"HWZB","uicCode":"8400400"},"description":"vanaf de bushalte"},{"station":{"coordinate":{"lat":52.3888893127441,"lng":4.83777761459351},"countryCode":"NL","name":"Amsterdam Sloterdijk","stationCode":"ASS","uicCode":"8400059"},"description":"vanaf de voorzijde van het station"}],"label":"Er rijden stopbussen tussen Haarlem, Haarlem Spaarnwoude, Halfweg-Zwanenburg en Amsterdam Sloterdijk.","shortLabel":"Er rijden stopbussen Haarlem - Spaarnwoude - Halfweg-Zw. - Sloterdijk."}},{"start":"2025-10-17T00:45:00+0200","end":"2025-10-17T02:00:00+0200","alternativeTransport":{"location":[{"station":{"coordinate":{"lat":52.3788871765137,"lng":4.90027761459351},"countryCode":"NL","name":"Amsterdam Centraal","stationCode":"ASD","uicCode":"8400058"},"description":"vanaf het busstation"},{"station":{"coordinate":{"lat":52.3888893127441,"lng":4.83777761459351},"countryCode":"NL","name":"Amsterdam Sloterdijk","stationCode":"ASS","uicCode":"8400059"},"description":"vanaf de voorzijde van het station"},{"station":{"coordinate":{"lat":52.385935,"lng":4.747165},"countryCode":"NL","name":"Halfweg-Zwanenburg","stationCode":"HWZB","uicCode":"8400400"},"description":"vanaf de bushalte"},{"station":{"coordinate":{"lat":52.3827781677246,"lng":4.67305564880371},"countryCode":"NL","name":"Haarlem Spaarnwoude","stationCode":"HLMS","uicCode":"8400270"},"description":"vanaf de bushalte"},{"station":{"coordinate":{"lat":52.3877792358398,"lng":4.63833332061768},"countryCode":"NL","name":"Haarlem","stationCode":"HLM","uicCode":"8400285"},"description":"vanaf de Jansweg"}],"label":"Er rijden stopbussen van Amsterdam Centraal, Amsterdam Sloterdijk, Halfweg-Zwanenburg, Haarlem Spaarnwoude naar Haarlem.","shortLabel":"Er rijden stopbussen Amsterdam C. -> Sloterdijk -> Halfweg-Zw. -> Spaarnwoude -> Haarlem."}},{"start":"2025-10-18T00:30:00+0200","end":"2025-10-18T04:00:00+0200","alternativeTransport":{"location":[{"station":{"coordinate":{"lat":52.3877792358398,"lng":4.63833332061768},"countryCode":"NL","name":"Haarlem","stationCode":"HLM","uicCode":"8400285"},"description":"vanaf de Jansweg"},{"station":{"coordinate":{"lat":52.3827781677246,"lng":4.67305564880371},"countryCode":"NL","name":"Haarlem Spaarnwoude","stationCode":"HLMS","uicCode":"8400270"},"description":"vanaf de bushalte"},{"station":{"coordinate":{"lat":52.385935,"lng":4.747165},"countryCode":"NL","name":"Halfweg-Zwanenburg","stationCode":"HWZB","uicCode":"8400400"},"description":"vanaf de bushalte"},{"station":{"coordinate":{"lat":52.3888893127441,"lng":4.83777761459351},"countryCode":"NL","name":"Amsterdam Sloterdijk","stationCode":"ASS","uicCode":"8400059"},"description":"vanaf de voorzijde van het station"},{"station":{"coordinate":{"lat":52.3788871765137,"lng":4.90027761459351},"countryCode":"NL","name":"Amsterdam Centraal","stationCode":"ASD","uicCode":"8400058"},"description":"vanaf het busstation"}],"label":"Er rijden bussen tussen Haarlem, Haarlem Spaarnwoude, Halfweg-Zwanenburg, Amsterdam Sloterdijk en Amsterdam Centraal.","shortLabel":"Er rijden bussen Haarlem - Spaarnwoude - Halfweg-Zw. - Sloterdijk - Amsterdam C."}},{"start":"2025-10-19T00:30:00+0200","end":"2025-10-19T04:00:00+0200","alternativeTransport":{"location":[{"station":{"coordinate":{"lat":52.3877792358398,"lng":4.63833332061768},"countryCode":"NL","name":"Haarlem","stationCode":"HLM","uicCode":"8400285"},"description":"vanaf de Jansweg"},{"station":{"coordinate":{"lat":52.3827781677246,"lng":4.67305564880371},"countryCode":"NL","name":"Haarlem Spaarnwoude","stationCode":"HLMS","uicCode":"8400270"},"description":"vanaf de bushalte"},{"station":{"coordinate":{"lat":52.385935,"lng":4.747165},"countryCode":"NL","name":"Halfweg-Zwanenburg","stationCode":"HWZB","uicCode":"8400400"},"description":"vanaf de bushalte"},{"station":{"coordinate":{"lat":52.3888893127441,"lng":4.83777761459351},"countryCode":"NL","name":"Amsterdam Sloterdijk","stationCode":"ASS","uicCode":"8400059"},"description":"vanaf de voorzijde van het station"},{"station":{"coordinate":{"lat":52.3788871765137,"lng":4.90027761459351},"countryCode":"NL","name":"Amsterdam Centraal","stationCode":"ASD","uicCode":"8400058"},"description":"vanaf het busstation"}],"label":"Er rijden bussen tussen Haarlem, Haarlem Spaarnwoude, Halfweg-Zwanenburg, Amsterdam Sloterdijk en Amsterdam Centraal.","shortLabel":"Er rijden bussen Haarlem - Spaarnwoude - Halfweg-Zw. - Sloterdijk - Amsterdam C."}},{"start":"2025-10-20T01:00:00+0200","end":"2025-10-20T02:00:00+0200","alternativeTransport":{"location":[{"station":{"coordinate":{"lat":52.3877792358398,"lng":4.63833332061768},"countryCode":"NL","name":"Haarlem","stationCode":"HLM","uicCode":"8400285"},"description":"vanaf de Jansweg"},{"station":{"coordinate":{"lat":52.3888893127441,"lng":4.83777761459351},"countryCode":"NL","name":"Amsterdam Sloterdijk","stationCode":"ASS","uicCode":"8400059"},"description":"vanaf de voorzijde van het station"},{"station":{"coordinate":{"lat":52.3788871765137,"lng":4.90027761459351},"countryCode":"NL","name":"Amsterdam Centraal","stationCode":"ASD","uicCode":"8400058"},"description":"vanaf het busstation"}],"label":"Er rijden stopbussen van Haarlem, Amsterdam Sloterdijk naar Amsterdam Centraal.","shortLabel":"Er rijden stopbussen Haarlem -> Sloterdijk -> Amsterdam C."}},{"start":"2025-10-21T01:00:00+0200","end":"2025-10-21T02:00:00+0200","alternativeTransport":{"location":[{"station":{"coordinate":{"lat":52.3877792358398,"lng":4.63833332061768},"countryCode":"NL","name":"Haarlem","stationCode":"HLM","uicCode":"8400285"},"description":"vanaf de Jansweg"},{"station":{"coordinate":{"lat":52.3888893127441,"lng":4.83777761459351},"countryCode":"NL","name":"Amsterdam Sloterdijk","stationCode":"ASS","uicCode":"8400059"},"description":"vanaf de voorzijde van het station"},{"station":{"coordinate":{"lat":52.3788871765137,"lng":4.90027761459351},"countryCode":"NL","name":"Amsterdam Centraal","stationCode":"ASD","uicCode":"8400058"},"description":"vanaf het busstation"}],"label":"Er rijden stopbussen van Haarlem, Amsterdam Sloterdijk naar Amsterdam Centraal.","shortLabel":"Er rijden stopbussen Haarlem -> Sloterdijk -> Amsterdam C."}},{"start":"2025-10-22T01:00:00+0200","end":"2025-10-22T02:00:00+0200","alternativeTransport":{"location":[{"station":{"coordinate":{"lat":52.3877792358398,"lng":4.63833332061768},"countryCode":"NL","name":"Haarlem","stationCode":"HLM","uicCode":"8400285"},"description":"vanaf de Jansweg"},{"station":{"coordinate":{"lat":52.3888893127441,"lng":4.83777761459351},"countryCode":"NL","name":"Amsterdam Sloterdijk","stationCode":"ASS","uicCode":"8400059"},"description":"vanaf de voorzijde van het station"},{"station":{"coordinate":{"lat":52.3788871765137,"lng":4.90027761459351},"countryCode":"NL","name":"Amsterdam Centraal","stationCode":"ASD","uicCode":"8400058"},"description":"vanaf het busstation"}],"label":"Er rijden stopbussen van Haarlem, Amsterdam Sloterdijk naar Amsterdam Centraal.","shortLabel":"Er rijden stopbussen Haarlem -> Sloterdijk -> Amsterdam C."}},{"start":"2025-10-23T01:00:00+0200","end":"2025-10-23T02:00:00+0200","alternativeTransport":{"location":[{"station":{"coordinate":{"lat":52.3877792358398,"lng":4.63833332061768},"countryCode":"NL","name":"Haarlem","stationCode":"HLM","uicCode":"8400285"},"description":"vanaf de Jansweg"},{"station":{"coordinate":{"lat":52.3888893127441,"lng":4.83777761459351},"countryCode":"NL","name":"Amsterdam Sloterdijk","stationCode":"ASS","uicCode":"8400059"},"description":"vanaf de voorzijde van het station"},{"station":{"coordinate":{"lat":52.3788871765137,"lng":4.90027761459351},"countryCode":"NL","name":"Amsterdam Centraal","stationCode":"ASD","uicCode":"8400058"},"description":"vanaf het busstation"}],"label":"Er rijden stopbussen van Haarlem, Amsterdam Sloterdijk naar Amsterdam Centraal.","shortLabel":"Er rijden stopbussen Haarlem -> Sloterdijk -> Amsterdam C."}}]},{"type":"MAINTENANCE","id":"7006870","title":"Enschede - Gronau - Dortmund.","isActive":false,"local":false,"titleSections":[[{"type":"STATION","value":"Enschede"},{"type":"STATION","value":"Coesfeld (Westf)"},{"type":"ICON","value":"MAINTENANCE"},{"type":"STATION","value":"Bork (Westf)"},{"type":"STATION","value":"Dortmund Hbf"}]],"registrationTime":"2025-09-15T14:50:14+0200","start":"2025-10-17T21:00:16+0200","releaseTime":"2025-09-15T14:50:14+0200","end":"2025-10-20T01:34:42+0200","period":"Vrijdag 17 oktober 21:00 uur t/m maandag 20 oktober 1:34 uur.","impact":{"value":2},"publicationSections":[{"section":{"stations":[{"coordinate":{"lat":52.2224998474121,"lng":6.8899998664856},"countryCode":"NL","name":"Enschede","stationCode":"ES","uicCode":"8400212"},{"coordinate":{"lat":52.2213897705078,"lng":6.95111131668091},"countryCode":"NL","name":"Enschede De Eschmarke","stationCode":"ESE","uicCode":"8400217"},{"coordinate":{"lat":52.2186126708984,"lng":6.97444438934326},"countryCode":"NL","name":"Glanerbrug","stationCode":"GBR","uicCode":"8400262"},{"coordinate":{"lat":52.21521,"lng":7.022109},"countryCode":"D","name":"Gronau (Westf.)","stationCode":"G","uicCode":"8021128"},{"coordinate":{"lat":52.18346,"lng":7.03009},"countryCode":"D","name":"Epe (Westf)","stationCode":"EEPE","uicCode":"8021126"},{"coordinate":{"lat":52.079796120944,"lng":7.01635837554931},"countryCode":"D","name":"Ahaus","stationCode":"EAHS","uicCode":"8021123"},{"coordinate":{"lat":52.034924,"lng":7.088538},"countryCode":"D","name":"Legden","stationCode":"ELGD","uicCode":"8021122"},{"coordinate":{"lat":51.9994672604096,"lng":7.1215009689331},"countryCode":"D","name":"Rosendahl-Holtwick","stationCode":"EHW","uicCode":"8021121"},{"coordinate":{"lat":51.939,"lng":7.1642},"countryCode":"D","name":"Coesfeld (Westf)","stationCode":"ECMF","uicCode":"8021119"},{"coordinate":{"lat":51.8925,"lng":7.187},"countryCode":"D","name":"Lette (Kr Coesfeld)","stationCode":"ELET","uicCode":"8021117"},{"coordinate":{"lat":51.827927,"lng":7.295756},"countryCode":"D","name":"Dülmen","stationCode":"EDULH","uicCode":"8021005"},{"coordinate":{"lat":51.76184,"lng":7.43165},"countryCode":"D","name":"Lüdinghausen","stationCode":"ELDH","uicCode":"8021113"},{"coordinate":{"lat":51.707885,"lng":7.453396},"countryCode":"D","name":"Selm","stationCode":"ESEM","uicCode":"8021112"},{"coordinate":{"lat":51.692947,"lng":7.454829},"countryCode":"D","name":"Selm-Beifang","stationCode":"ESEB","uicCode":"8021120"},{"coordinate":{"lat":51.66988,"lng":7.45664},"countryCode":"D","name":"Bork (Westf)","stationCode":"EBOK","uicCode":"8021111"},{"coordinate":{"lat":51.61713,"lng":7.52949},"countryCode":"D","name":"Lünen Hbf","stationCode":"ELUE","uicCode":"8010098"},{"coordinate":{"lat":51.58833,"lng":7.53933},"countryCode":"D","name":"Preussen","stationCode":"EPRN","uicCode":"8010100"},{"coordinate":{"lat":51.56754,"lng":7.52855},"countryCode":"D","name":"Dortmund-Derne","stationCode":"EDD","uicCode":"8010101"},{"coordinate":{"lat":51.547076,"lng":7.510099},"countryCode":"D","name":"Dortmund-Kirchderne","stationCode":"EDKD","uicCode":"8010102"},{"coordinate":{"lat":51.517896,"lng":7.45929},"countryCode":"D","name":"Dortmund Hbf","stationCode":"EDO","uicCode":"8010053"}],"direction":"BOTH","operators":["DB"]},"consequence":{"section":{"stations":[{"coordinate":{"lat":51.939,"lng":7.1642},"countryCode":"D","name":"Coesfeld (Westf)","stationCode":"ECMF","uicCode":"8021119"},{"coordinate":{"lat":51.8925,"lng":7.187},"countryCode":"D","name":"Lette (Kr Coesfeld)","stationCode":"ELET","uicCode":"8021117"},{"coordinate":{"lat":51.827927,"lng":7.295756},"countryCode":"D","name":"Dülmen","stationCode":"EDULH","uicCode":"8021005"},{"coordinate":{"lat":51.76184,"lng":7.43165},"countryCode":"D","name":"Lüdinghausen","stationCode":"ELDH","uicCode":"8021113"},{"coordinate":{"lat":51.707885,"lng":7.453396},"countryCode":"D","name":"Selm","stationCode":"ESEM","uicCode":"8021112"},{"coordinate":{"lat":51.692947,"lng":7.454829},"countryCode":"D","name":"Selm-Beifang","stationCode":"ESEB","uicCode":"8021120"},{"coordinate":{"lat":51.66988,"lng":7.45664},"countryCode":"D","name":"Bork (Westf)","stationCode":"EBOK","uicCode":"8021111"}],"direction":"BOTH","operators":["DB"]},"description":"er rijden bussen","level":"LESS_TRAINS"},"sectionType":"NEIGHBORING_COUNTRY"}],"summaryAdditionalTravelTime":{"label":"De extra reistijd kan oplopen tot 45 minuten.","shortLabel":"Extra reistijd tot 45 min.","maximumDurationInMinutes":45},"timespans":[{"start":"2025-10-17T21:00:16+0200","end":"2025-10-20T01:34:42+0200","period":"Vrijdag 17 oktober 21:00 uur t/m maandag 20 oktober 1:34 uur.","situation":{"label":"Door werkzaamheden: tussen Bork (Westf) en Coesfeld (Westf) rijden er bussen."},"cause":{"label":"werkzaamheden","type":"OTHER"},"additionalTravelTime":{"label":"De extra reistijd kan oplopen tot 45 minuten.","shortLabel":"Extra reistijd tot 45 min.","maximumDurationInMinutes":45},"alternativeTransport":{"label":"er rijden stopbussen","shortLabel":"er rijden stopbussen"},"advices":[]}],"alternativeTransportTimespans":[{"start":"2025-10-17T21:00:16+0200","end":"2025-10-20T01:34:42+0200","alternativeTransport":{"location":[{"station":{"coordinate":{"lat":51.66988,"lng":7.45664},"countryCode":"D","name":"Bork (Westf)","stationCode":"EBOK","uicCode":"8021111"},"description":"volg de aanwijzingen op het station"},{"station":{"coordinate":{"lat":51.692947,"lng":7.454829},"countryCode":"D","name":"Selm-Beifang","stationCode":"ESEB","uicCode":"8021120"},"description":"volg de aanwijzingen op het station"},{"station":{"coordinate":{"lat":51.707885,"lng":7.453396},"countryCode":"D","name":"Selm","stationCode":"ESEM","uicCode":"8021112"},"description":"volg de aanwijzingen op het station"},{"station":{"coordinate":{"lat":51.76184,"lng":7.43165},"countryCode":"D","name":"Lüdinghausen","stationCode":"ELDH","uicCode":"8021113"},"description":"volg de aanwijzingen op het station"},{"station":{"coordinate":{"lat":51.827927,"lng":7.295756},"countryCode":"D","name":"Dülmen","stationCode":"EDULH","uicCode":"8021005"},"description":"volg de aanwijzingen op het station"},{"station":{"coordinate":{"lat":51.8925,"lng":7.187},"countryCode":"D","name":"Lette (Kr Coesfeld)","stationCode":"ELET","uicCode":"8021117"},"description":"volg de aanwijzingen op het station"},{"station":{"coordinate":{"lat":51.939,"lng":7.1642},"countryCode":"D","name":"Coesfeld (Westf)","stationCode":"ECMF","uicCode":"8021119"},"description":"volg de aanwijzingen op het station"}],"label":"Er rijden stopbussen tussen Bork (Westf), Selm-Beifang, Selm, Lüdinghausen, Dülmen, Lette (Kr Coesfeld) en Coesfeld (Westf).","shortLabel":"Er rijden stopbussen Bork (Westf) - Selm-Beifang - Selm - Lüdinghausen - Dülmen - Lette (Kr Coes) - Coesfeld (Westf)."}}]},{"type":"MAINTENANCE","id":"7006757","title":"Amersfoort - Zwolle; Lelystad - Zwolle.","isActive":false,"local":false,"titleSections":[[{"type":"STATION","value":"Lelystad C."},{"type":"STATION","value":"Dronten"},{"type":"ICON","value":"MAINTENANCE"},{"type":"STATION","value":"Zwolle"}],[{"type":"STATION","value":"Amersfoort C."},{"type":"STATION","value":"'t Harde"},{"type":"ICON","value":"MAINTENANCE"},{"type":"STATION","value":"Zwolle"}],[{"type":"STATION","value":"Lelystad C."},{"type":"ICON","value":"MAINTENANCE"},{"type":"STATION","value":"Zwolle"}]],"registrationTime":"2025-09-10T11:57:39+0200","start":"2025-10-18T01:30:00+0200","releaseTime":"2025-09-10T12:00:49+0200","end":"2025-10-27T02:32:00+0100","period":"Zaterdag 18 oktober 1:30 uur t/m maandag 27 oktober 2:32 uur.","impact":{"value":5},"publicationSections":[{"section":{"stations":[{"coordinate":{"lat":52.5077781677246,"lng":5.47277784347534},"countryCode":"NL","name":"Lelystad Centrum","stationCode":"LLS","uicCode":"8400394"},{"coordinate":{"lat":52.5344,"lng":5.72089},"countryCode":"NL","name":"Dronten","stationCode":"DRON","uicCode":"8400198"},{"coordinate":{"lat":52.5331,"lng":5.91309},"countryCode":"NL","name":"Kampen Zuid","stationCode":"KPNZ","uicCode":"8400360"},{"coordinate":{"lat":52.5047225952148,"lng":6.09194421768188},"countryCode":"NL","name":"Zwolle","stationCode":"ZL","uicCode":"8400747"}],"direction":"BOTH","operators":["NS"]},"consequence":{"section":{"stations":[{"coordinate":{"lat":52.5344,"lng":5.72089},"countryCode":"NL","name":"Dronten","stationCode":"DRON","uicCode":"8400198"},{"coordinate":{"lat":52.5331,"lng":5.91309},"countryCode":"NL","name":"Kampen Zuid","stationCode":"KPNZ","uicCode":"8400360"},{"coordinate":{"lat":52.5047225952148,"lng":6.09194421768188},"countryCode":"NL","name":"Zwolle","stationCode":"ZL","uicCode":"8400747"}],"direction":"BOTH","operators":["NS"]},"description":"er rijden bussen","level":"LESS_TRAINS"},"sectionType":"NL"},{"section":{"stations":[{"coordinate":{"lat":52.1538887023926,"lng":5.37055540084839},"countryCode":"NL","name":"Amersfoort Centraal","stationCode":"AMF","uicCode":"8400055"},{"coordinate":{"lat":52.1748221374512,"lng":5.40388870239258},"countryCode":"NL","name":"Amersfoort Schothorst","stationCode":"AMFS","uicCode":"8400054"},{"coordinate":{"lat":52.1927795410156,"lng":5.43388891220093},"countryCode":"NL","name":"Amersfoort Vathorst","stationCode":"AVAT","uicCode":"8400228"},{"coordinate":{"lat":52.2222213745117,"lng":5.49388885498047},"countryCode":"NL","name":"Nijkerk","stationCode":"NKK","uicCode":"8400469"},{"coordinate":{"lat":52.2649993896484,"lng":5.57527780532837},"countryCode":"NL","name":"Putten","stationCode":"PT","uicCode":"8400509"},{"coordinate":{"lat":52.3016662597656,"lng":5.61472225189209},"countryCode":"NL","name":"Ermelo","stationCode":"EML","uicCode":"8400216"},{"coordinate":{"lat":52.3375015258789,"lng":5.61972236633301},"countryCode":"NL","name":"Harderwijk","stationCode":"HD","uicCode":"8400294"},{"coordinate":{"lat":52.3708343505859,"lng":5.78527784347534},"countryCode":"NL","name":"Nunspeet","stationCode":"NS","uicCode":"8400466"},{"coordinate":{"lat":52.4091682,"lng":5.893611},"countryCode":"NL","name":"'t Harde","stationCode":"HDE","uicCode":"8400388"},{"coordinate":{"lat":52.4541664123535,"lng":6.00250005722046},"countryCode":"NL","name":"Wezep","stationCode":"WZ","uicCode":"8400690"},{"coordinate":{"lat":52.5047225952148,"lng":6.09194421768188},"countryCode":"NL","name":"Zwolle","stationCode":"ZL","uicCode":"8400747"}],"direction":"BOTH","operators":["NS"]},"consequence":{"section":{"stations":[{"coordinate":{"lat":52.4091682,"lng":5.893611},"countryCode":"NL","name":"'t Harde","stationCode":"HDE","uicCode":"8400388"},{"coordinate":{"lat":52.4541664123535,"lng":6.00250005722046},"countryCode":"NL","name":"Wezep","stationCode":"WZ","uicCode":"8400690"},{"coordinate":{"lat":52.5047225952148,"lng":6.09194421768188},"countryCode":"NL","name":"Zwolle","stationCode":"ZL","uicCode":"8400747"}],"direction":"BOTH","operators":["NS"]},"description":"er rijden bussen","level":"LESS_TRAINS"},"sectionType":"NL"},{"section":{"stations":[{"coordinate":{"lat":52.5077781677246,"lng":5.47277784347534},"countryCode":"NL","name":"Lelystad Centrum","stationCode":"LLS","uicCode":"8400394"},{"coordinate":{"lat":52.5344,"lng":5.72089},"countryCode":"NL","name":"Dronten","stationCode":"DRON","uicCode":"8400198"},{"coordinate":{"lat":52.5331,"lng":5.91309},"countryCode":"NL","name":"Kampen Zuid","stationCode":"KPNZ","uicCode":"8400360"},{"coordinate":{"lat":52.5047225952148,"lng":6.09194421768188},"countryCode":"NL","name":"Zwolle","stationCode":"ZL","uicCode":"8400747"}],"direction":"BOTH","operators":["NS"]},"consequence":{"section":{"stations":[{"coordinate":{"lat":52.5077781677246,"lng":5.47277784347534},"countryCode":"NL","name":"Lelystad Centrum","stationCode":"LLS","uicCode":"8400394"},{"coordinate":{"lat":52.5344,"lng":5.72089},"countryCode":"NL","name":"Dronten","stationCode":"DRON","uicCode":"8400198"},{"coordinate":{"lat":52.5331,"lng":5.91309},"countryCode":"NL","name":"Kampen Zuid","stationCode":"KPNZ","uicCode":"8400360"},{"coordinate":{"lat":52.5047225952148,"lng":6.09194421768188},"countryCode":"NL","name":"Zwolle","stationCode":"ZL","uicCode":"8400747"}],"direction":"BOTH","operators":["NS"]},"description":"er rijden bussen","level":"LESS_TRAINS"},"sectionType":"NL"}],"summaryAdditionalTravelTime":{"label":"De extra reistijd is meer dan 15 minuten.","shortLabel":"Extra reistijd meer dan 15 min.","minimumDurationInMinutes":15},"timespans":[{"start":"2025-10-18T01:30:00+0200","end":"2025-10-19T02:00:00+0200","period":"Zaterdag 18 oktober 1:30 uur t/m zondag 19 oktober 2:00 uur.","situation":{"label":"Door werkzaamheden: tussen Dronten en Zwolle rijden er bussen en tussen 't Harde en Zwolle rijden er bussen."},"cause":{"label":"werkzaamheden","type":"OTHER"},"additionalTravelTime":{"label":"De extra reistijd is ongeveer 30 minuten.","shortLabel":"Extra reistijd 30 min.","minimumDurationInMinutes":30,"maximumDurationInMinutes":30},"alternativeTransport":{"label":"er rijden stop- en snelbussen","shortLabel":"er rijden stop- en snelbussen"},"advices":["Tussen Amersfoort C. en Zwolle reis via Deventer."]},{"start":"2025-10-19T04:30:00+0200","end":"2025-10-20T02:00:00+0200","period":"Zondag 19 oktober 4:30 uur t/m maandag 20 oktober 2:00 uur.","situation":{"label":"Door werkzaamheden: tussen Lelystad Centrum en Zwolle rijden er bussen en tussen 't Harde en Zwolle rijden er bussen."},"cause":{"label":"werkzaamheden","type":"OTHER"},"additionalTravelTime":{"label":"De extra reistijd is meer dan 15 minuten.","shortLabel":"Extra reistijd meer dan 15 min.","minimumDurationInMinutes":15},"alternativeTransport":{"label":"er rijden stop- en snelbussen","shortLabel":"er rijden stop- en snelbussen"},"advices":["Tussen Amsterdam C. en Zwolle reis via Deventer.","Tussen Schiphol Airport en Zwolle reis via Deventer."]},{"start":"2025-10-20T04:32:00+0200","end":"2025-10-27T02:32:00+0100","period":"Maandag 20 oktober 4:32 uur t/m maandag 27 oktober 2:32 uur.","situation":{"label":"Door werkzaamheden: tussen Lelystad Centrum en Zwolle rijden er bussen."},"cause":{"label":"werkzaamheden","type":"OTHER"},"additionalTravelTime":{"label":"De extra reistijd is ongeveer 30 minuten.","shortLabel":"Extra reistijd 30 min.","minimumDurationInMinutes":30,"maximumDurationInMinutes":30},"alternativeTransport":{"label":"er rijden stopbussen","shortLabel":"er rijden stopbussen"},"advices":["Tussen Amsterdam C. en Zwolle reis via Amersfoort C.","Tussen Schiphol Airport en Zwolle reis via Amersfoort C."]}],"alternativeTransportTimespans":[{"start":"2025-10-18T01:30:00+0200","end":"2025-10-19T02:00:00+0200","alternativeTransport":{"location":[{"station":{"coordinate":{"lat":52.5344,"lng":5.72089},"countryCode":"NL","name":"Dronten","stationCode":"DRON","uicCode":"8400198"},"description":"vanaf de voorzijde van het station"},{"station":{"coordinate":{"lat":52.5331,"lng":5.91309},"countryCode":"NL","name":"Kampen Zuid","stationCode":"KPNZ","uicCode":"8400360"},"description":"vanaf de voorzijde van het station"},{"station":{"coordinate":{"lat":52.5047225952148,"lng":6.09194421768188},"countryCode":"NL","name":"Zwolle","stationCode":"ZL","uicCode":"8400747"},"description":"vanaf de Hanzelaan, aan de zuidzijde van het station"}],"label":"Er rijden stopbussen tussen Dronten, Kampen Zuid en Zwolle.","shortLabel":"Er rijden stopbussen Dronten - Kampen Zuid - Zwolle."}},{"start":"2025-10-18T01:30:00+0200","end":"2025-10-19T02:00:00+0200","alternativeTransport":{"location":[{"station":{"coordinate":{"lat":52.5344,"lng":5.72089},"countryCode":"NL","name":"Dronten","stationCode":"DRON","uicCode":"8400198"},"description":"vanaf de voorzijde van het station"},{"station":{"coordinate":{"lat":52.5047225952148,"lng":6.09194421768188},"countryCode":"NL","name":"Zwolle","stationCode":"ZL","uicCode":"8400747"},"description":"vanaf de Hanzelaan, aan de zuidzijde van het station"}],"label":"Er rijden snelbussen tussen Dronten en Zwolle.","shortLabel":"Er rijden snelbussen Dronten - Zwolle."}},{"start":"2025-10-18T01:30:00+0200","end":"2025-10-19T02:00:00+0200","alternativeTransport":{"location":[{"station":{"coordinate":{"lat":52.4091682,"lng":5.893611},"countryCode":"NL","name":"'t Harde","stationCode":"HDE","uicCode":"8400388"},"description":"vanaf de achterzijde van het station"},{"station":{"coordinate":{"lat":52.4541664123535,"lng":6.00250005722046},"countryCode":"NL","name":"Wezep","stationCode":"WZ","uicCode":"8400690"},"description":"vanaf het busstation"},{"station":{"coordinate":{"lat":52.5047225952148,"lng":6.09194421768188},"countryCode":"NL","name":"Zwolle","stationCode":"ZL","uicCode":"8400747"},"description":"vanaf de Hanzelaan, aan de zuidzijde van het station"}],"label":"Er rijden stopbussen tussen 't Harde, Wezep en Zwolle.","shortLabel":"Er rijden stopbussen 't Harde - Wezep - Zwolle."}},{"start":"2025-10-19T04:30:00+0200","end":"2025-10-20T02:00:00+0200","alternativeTransport":{"location":[{"station":{"coordinate":{"lat":52.5077781677246,"lng":5.47277784347534},"countryCode":"NL","name":"Lelystad Centrum","stationCode":"LLS","uicCode":"8400394"},"description":"vanaf de achterzijde van het station"},{"station":{"coordinate":{"lat":52.5344,"lng":5.72089},"countryCode":"NL","name":"Dronten","stationCode":"DRON","uicCode":"8400198"},"description":"vanaf de voorzijde van het station"},{"station":{"coordinate":{"lat":52.5331,"lng":5.91309},"countryCode":"NL","name":"Kampen Zuid","stationCode":"KPNZ","uicCode":"8400360"},"description":"vanaf de voorzijde van het station"},{"station":{"coordinate":{"lat":52.5047225952148,"lng":6.09194421768188},"countryCode":"NL","name":"Zwolle","stationCode":"ZL","uicCode":"8400747"},"description":"vanaf de Hanzelaan, aan de zuidzijde van het station"}],"label":"Er rijden stopbussen tussen Lelystad Centrum, Dronten, Kampen Zuid en Zwolle.","shortLabel":"Er rijden stopbussen Lelystad C. - Dronten - Kampen Zuid - Zwolle."}},{"start":"2025-10-19T04:30:00+0200","end":"2025-10-20T02:00:00+0200","alternativeTransport":{"location":[{"station":{"coordinate":{"lat":52.5077781677246,"lng":5.47277784347534},"countryCode":"NL","name":"Lelystad Centrum","stationCode":"LLS","uicCode":"8400394"},"description":"vanaf de achterzijde van het station"},{"station":{"coordinate":{"lat":52.5047225952148,"lng":6.09194421768188},"countryCode":"NL","name":"Zwolle","stationCode":"ZL","uicCode":"8400747"},"description":"vanaf de Hanzelaan, aan de zuidzijde van het station"}],"label":"Er rijden snelbussen tussen Lelystad Centrum en Zwolle.","shortLabel":"Er rijden snelbussen Lelystad C. - Zwolle."}},{"start":"2025-10-19T04:30:00+0200","end":"2025-10-20T02:00:00+0200","alternativeTransport":{"location":[{"station":{"coordinate":{"lat":52.4091682,"lng":5.893611},"countryCode":"NL","name":"'t Harde","stationCode":"HDE","uicCode":"8400388"},"description":"vanaf de achterzijde van het station"},{"station":{"coordinate":{"lat":52.4541664123535,"lng":6.00250005722046},"countryCode":"NL","name":"Wezep","stationCode":"WZ","uicCode":"8400690"},"description":"vanaf het busstation"},{"station":{"coordinate":{"lat":52.5047225952148,"lng":6.09194421768188},"countryCode":"NL","name":"Zwolle","stationCode":"ZL","uicCode":"8400747"},"description":"vanaf de Hanzelaan, aan de zuidzijde van het station"}],"label":"Er rijden stopbussen tussen 't Harde, Wezep en Zwolle.","shortLabel":"Er rijden stopbussen 't Harde - Wezep - Zwolle."}},{"start":"2025-10-20T04:32:00+0200","end":"2025-10-27T02:32:00+0100","alternativeTransport":{"location":[{"station":{"coordinate":{"lat":52.5077781677246,"lng":5.47277784347534},"countryCode":"NL","name":"Lelystad Centrum","stationCode":"LLS","uicCode":"8400394"},"description":"vanaf de achterzijde van het station"},{"station":{"coordinate":{"lat":52.5344,"lng":5.72089},"countryCode":"NL","name":"Dronten","stationCode":"DRON","uicCode":"8400198"},"description":"vanaf de voorzijde van het station"},{"station":{"coordinate":{"lat":52.5331,"lng":5.91309},"countryCode":"NL","name":"Kampen Zuid","stationCode":"KPNZ","uicCode":"8400360"},"description":"vanaf de voorzijde van het station"},{"station":{"coordinate":{"lat":52.5047225952148,"lng":6.09194421768188},"countryCode":"NL","name":"Zwolle","stationCode":"ZL","uicCode":"8400747"},"description":"vanaf de Hanzelaan, aan de zuidzijde van het station"}],"label":"Er rijden stopbussen tussen Lelystad Centrum, Dronten, Kampen Zuid en Zwolle.","shortLabel":"Er rijden stopbussen Lelystad C. - Dronten - Kampen Zuid - Zwolle."}}]},{"type":"MAINTENANCE","id":"7006756","title":"Utrecht - Rhenen; Utrecht - Nijmegen.; Utrecht - Arnhem; Utrecht - Rhenen.","isActive":false,"local":false,"titleSections":[[{"type":"STATION","value":"Utrecht C."},{"type":"STATION","value":"Driebergen-Zeist"},{"type":"ICON","value":"MAINTENANCE"},{"type":"STATION","value":"Arnhem C."},{"type":"STATION","value":"Nijmegen"}],[{"type":"STATION","value":"Utrecht C."},{"type":"STATION","value":"Driebergen-Zeist"},{"type":"ICON","value":"MAINTENANCE"},{"type":"STATION","value":"Rhenen"}],[{"type":"STATION","value":"Utrecht C."},{"type":"STATION","value":"Driebergen-Zeist"},{"type":"ICON","value":"MAINTENANCE"},{"type":"STATION","value":"Ede-Wageningen"},{"type":"STATION","value":"Arnhem C."}]],"registrationTime":"2025-09-29T15:10:53+0200","start":"2025-10-18T01:40:00+0200","releaseTime":"2025-09-29T15:10:53+0200","end":"2025-10-27T02:00:00+0100","period":"Zaterdag 18 oktober 1:40 uur t/m maandag 27 oktober 2:00 uur.","impact":{"value":5},"publicationSections":[{"section":{"stations":[{"coordinate":{"lat":52.0888900756836,"lng":5.11027765274048},"countryCode":"NL","name":"Utrecht Centraal","stationCode":"UT","uicCode":"8400621"},{"coordinate":{"lat":52.078889,"lng":5.121667},"countryCode":"NL","name":"Utrecht Vaartsche Rijn","stationCode":"UTVR","uicCode":"8400606"},{"coordinate":{"lat":52.0630569458008,"lng":5.19444465637207},"countryCode":"NL","name":"Bunnik","stationCode":"BNK","uicCode":"8400141"},{"coordinate":{"lat":52.0652770996094,"lng":5.25861120223999},"countryCode":"NL","name":"Driebergen-Zeist","stationCode":"DB","uicCode":"8400182"},{"coordinate":{"lat":52.0641670227051,"lng":5.36999988555908},"countryCode":"NL","name":"Maarn","stationCode":"MRN","uicCode":"8400417"},{"coordinate":{"lat":52.0458335876465,"lng":5.57388877868652},"countryCode":"NL","name":"Veenendaal-De Klomp","stationCode":"KLP","uicCode":"8400637"},{"coordinate":{"lat":52.0277786254883,"lng":5.67305564880371},"countryCode":"NL","name":"Ede-Wageningen","stationCode":"ED","uicCode":"8400200"},{"coordinate":{"lat":52.0055541992188,"lng":5.7936110496521},"countryCode":"NL","name":"Wolfheze","stationCode":"WF","uicCode":"8400704"},{"coordinate":{"lat":51.9949989318848,"lng":5.84000015258789},"countryCode":"NL","name":"Oosterbeek","stationCode":"OTB","uicCode":"8400489"},{"coordinate":{"lat":51.9850006103516,"lng":5.89916658401489},"countryCode":"NL","name":"Arnhem Centraal","stationCode":"AH","uicCode":"8400071"},{"coordinate":{"lat":51.9550018310547,"lng":5.85194444656372},"countryCode":"NL","name":"Arnhem Zuid","stationCode":"AHZ","uicCode":"8400227"},{"coordinate":{"lat":51.9169425964355,"lng":5.85500001907349},"countryCode":"NL","name":"Elst","stationCode":"EST","uicCode":"8400207"},{"coordinate":{"lat":51.863154,"lng":5.859625},"countryCode":"NL","name":"Nijmegen Lent","stationCode":"NML","uicCode":"8400451"},{"coordinate":{"lat":51.8436126708984,"lng":5.85222244262695},"countryCode":"NL","name":"Nijmegen","stationCode":"NM","uicCode":"8400470"}],"direction":"BOTH","operators":["NS"]},"consequence":{"section":{"stations":[{"coordinate":{"lat":52.0652770996094,"lng":5.25861120223999},"countryCode":"NL","name":"Driebergen-Zeist","stationCode":"DB","uicCode":"8400182"},{"coordinate":{"lat":52.0641670227051,"lng":5.36999988555908},"countryCode":"NL","name":"Maarn","stationCode":"MRN","uicCode":"8400417"},{"coordinate":{"lat":52.0458335876465,"lng":5.57388877868652},"countryCode":"NL","name":"Veenendaal-De Klomp","stationCode":"KLP","uicCode":"8400637"},{"coordinate":{"lat":52.0277786254883,"lng":5.67305564880371},"countryCode":"NL","name":"Ede-Wageningen","stationCode":"ED","uicCode":"8400200"},{"coordinate":{"lat":52.0055541992188,"lng":5.7936110496521},"countryCode":"NL","name":"Wolfheze","stationCode":"WF","uicCode":"8400704"},{"coordinate":{"lat":51.9949989318848,"lng":5.84000015258789},"countryCode":"NL","name":"Oosterbeek","stationCode":"OTB","uicCode":"8400489"},{"coordinate":{"lat":51.9850006103516,"lng":5.89916658401489},"countryCode":"NL","name":"Arnhem Centraal","stationCode":"AH","uicCode":"8400071"}],"direction":"BOTH","operators":["NS"]},"description":"er rijden bussen","level":"LESS_TRAINS"},"sectionType":"NL"},{"section":{"stations":[{"coordinate":{"lat":52.0888900756836,"lng":5.11027765274048},"countryCode":"NL","name":"Utrecht Centraal","stationCode":"UT","uicCode":"8400621"},{"coordinate":{"lat":52.078889,"lng":5.121667},"countryCode":"NL","name":"Utrecht Vaartsche Rijn","stationCode":"UTVR","uicCode":"8400606"},{"coordinate":{"lat":52.0630569458008,"lng":5.19444465637207},"countryCode":"NL","name":"Bunnik","stationCode":"BNK","uicCode":"8400141"},{"coordinate":{"lat":52.0652770996094,"lng":5.25861120223999},"countryCode":"NL","name":"Driebergen-Zeist","stationCode":"DB","uicCode":"8400182"},{"coordinate":{"lat":52.0641670227051,"lng":5.36999988555908},"countryCode":"NL","name":"Maarn","stationCode":"MRN","uicCode":"8400417"},{"coordinate":{"lat":52.0280570983887,"lng":5.53138875961304},"countryCode":"NL","name":"Veenendaal West","stationCode":"VNDW","uicCode":"8400628"},{"coordinate":{"lat":52.0200004577637,"lng":5.54861116409302},"countryCode":"NL","name":"Veenendaal Centrum","stationCode":"VNDC","uicCode":"8400627"},{"coordinate":{"lat":51.958610534668,"lng":5.57833337783814},"countryCode":"NL","name":"Rhenen","stationCode":"RHN","uicCode":"8400517"}],"direction":"BOTH","operators":["NS"]},"consequence":{"section":{"stations":[{"coordinate":{"lat":52.0652770996094,"lng":5.25861120223999},"countryCode":"NL","name":"Driebergen-Zeist","stationCode":"DB","uicCode":"8400182"},{"coordinate":{"lat":52.0641670227051,"lng":5.36999988555908},"countryCode":"NL","name":"Maarn","stationCode":"MRN","uicCode":"8400417"},{"coordinate":{"lat":52.0280570983887,"lng":5.53138875961304},"countryCode":"NL","name":"Veenendaal West","stationCode":"VNDW","uicCode":"8400628"},{"coordinate":{"lat":52.0200004577637,"lng":5.54861116409302},"countryCode":"NL","name":"Veenendaal Centrum","stationCode":"VNDC","uicCode":"8400627"},{"coordinate":{"lat":51.958610534668,"lng":5.57833337783814},"countryCode":"NL","name":"Rhenen","stationCode":"RHN","uicCode":"8400517"}],"direction":"BOTH","operators":["NS"]},"description":"er rijden bussen","level":"LESS_TRAINS"},"sectionType":"NL"},{"section":{"stations":[{"coordinate":{"lat":52.0888900756836,"lng":5.11027765274048},"countryCode":"NL","name":"Utrecht Centraal","stationCode":"UT","uicCode":"8400621"},{"coordinate":{"lat":52.078889,"lng":5.121667},"countryCode":"NL","name":"Utrecht Vaartsche Rijn","stationCode":"UTVR","uicCode":"8400606"},{"coordinate":{"lat":52.0630569458008,"lng":5.19444465637207},"countryCode":"NL","name":"Bunnik","stationCode":"BNK","uicCode":"8400141"},{"coordinate":{"lat":52.0652770996094,"lng":5.25861120223999},"countryCode":"NL","name":"Driebergen-Zeist","stationCode":"DB","uicCode":"8400182"},{"coordinate":{"lat":52.0641670227051,"lng":5.36999988555908},"countryCode":"NL","name":"Maarn","stationCode":"MRN","uicCode":"8400417"},{"coordinate":{"lat":52.0458335876465,"lng":5.57388877868652},"countryCode":"NL","name":"Veenendaal-De Klomp","stationCode":"KLP","uicCode":"8400637"},{"coordinate":{"lat":52.0277786254883,"lng":5.67305564880371},"countryCode":"NL","name":"Ede-Wageningen","stationCode":"ED","uicCode":"8400200"},{"coordinate":{"lat":52.0055541992188,"lng":5.7936110496521},"countryCode":"NL","name":"Wolfheze","stationCode":"WF","uicCode":"8400704"},{"coordinate":{"lat":51.9949989318848,"lng":5.84000015258789},"countryCode":"NL","name":"Oosterbeek","stationCode":"OTB","uicCode":"8400489"},{"coordinate":{"lat":51.9850006103516,"lng":5.89916658401489},"countryCode":"NL","name":"Arnhem Centraal","stationCode":"AH","uicCode":"8400071"}],"direction":"BOTH","operators":["NS"]},"consequence":{"section":{"stations":[{"coordinate":{"lat":52.0652770996094,"lng":5.25861120223999},"countryCode":"NL","name":"Driebergen-Zeist","stationCode":"DB","uicCode":"8400182"},{"coordinate":{"lat":52.0641670227051,"lng":5.36999988555908},"countryCode":"NL","name":"Maarn","stationCode":"MRN","uicCode":"8400417"},{"coordinate":{"lat":52.0458335876465,"lng":5.57388877868652},"countryCode":"NL","name":"Veenendaal-De Klomp","stationCode":"KLP","uicCode":"8400637"},{"coordinate":{"lat":52.0277786254883,"lng":5.67305564880371},"countryCode":"NL","name":"Ede-Wageningen","stationCode":"ED","uicCode":"8400200"}],"direction":"BOTH","operators":["NS"]},"description":"er rijden bussen","level":"LESS_TRAINS"},"sectionType":"NL"}],"summaryAdditionalTravelTime":{"label":"De extra reistijd kan oplopen tot 30 minuten.","shortLabel":"Extra reistijd tot 30 min.","minimumDurationInMinutes":30,"maximumDurationInMinutes":30},"timespans":[{"start":"2025-10-18T01:40:00+0200","end":"2025-10-22T02:30:00+0200","period":"Zaterdag 18 oktober 1:40 uur t/m woensdag 22 oktober 2:30 uur.","situation":{"label":"Door werkzaamheden: tussen Driebergen-Zeist en Arnhem Centraal rijden er bussen en tussen Driebergen-Zeist en Rhenen rijden er bussen."},"cause":{"label":"werkzaamheden","type":"OTHER"},"additionalTravelTime":{"label":"De extra reistijd is ongeveer 30 minuten.","shortLabel":"Extra reistijd 30 min.","minimumDurationInMinutes":30,"maximumDurationInMinutes":30},"alternativeTransport":{"label":"er rijden stop- en snelbussen","shortLabel":"er rijden stop- en snelbussen"},"advices":["Tussen Utrecht C. en Nijmegen reis via 's-Hertogenbosch."]},{"start":"2025-10-22T05:00:00+0200","end":"2025-10-27T02:00:00+0100","period":"Woensdag 22 oktober 5:00 uur t/m maandag 27 oktober 2:00 uur.","situation":{"label":"Door werkzaamheden: tussen Driebergen-Zeist en Ede-Wageningen rijden er bussen en tussen Driebergen-Zeist en Rhenen rijden er bussen."},"cause":{"label":"werkzaamheden","type":"OTHER"},"additionalTravelTime":{"label":"De extra reistijd is ongeveer 30 minuten.","shortLabel":"Extra reistijd 30 min.","minimumDurationInMinutes":30,"maximumDurationInMinutes":30},"alternativeTransport":{"label":"er rijden stop- en snelbussen","shortLabel":"er rijden stop- en snelbussen"},"advices":["Tussen Utrecht C. en Nijmegen reis via 's-Hertogenbosch."]}],"alternativeTransportTimespans":[{"start":"2025-10-18T01:40:00+0200","end":"2025-10-18T03:00:00+0200","alternativeTransport":{"location":[{"station":{"coordinate":{"lat":52.0888900756836,"lng":5.11027765274048},"countryCode":"NL","name":"Utrecht Centraal","stationCode":"UT","uicCode":"8400621"},"description":"vanaf de Jaarbeursplein, halte G"},{"station":{"coordinate":{"lat":52.0652770996094,"lng":5.25861120223999},"countryCode":"NL","name":"Driebergen-Zeist","stationCode":"DB","uicCode":"8400182"},"description":"vanaf het busstation"},{"station":{"coordinate":{"lat":52.0277786254883,"lng":5.67305564880371},"countryCode":"NL","name":"Ede-Wageningen","stationCode":"ED","uicCode":"8400200"},"description":"vanaf P+R terrein, aan de achterzijde van het station"},{"station":{"coordinate":{"lat":51.9850006103516,"lng":5.89916658401489},"countryCode":"NL","name":"Arnhem Centraal","stationCode":"AH","uicCode":"8400071"},"description":"vanaf bushalte L of H"}],"label":"Er rijden snelbussen tussen Utrecht Centraal, Driebergen-Zeist, Ede-Wageningen en Arnhem Centraal.","shortLabel":"Er rijden snelbussen Utrecht C. - Driebergen-Zeist - Ede-Wageningen - Arnhem C."}},{"start":"2025-10-18T05:00:00+0200","end":"2025-10-20T02:30:00+0200","alternativeTransport":{"location":[{"station":{"coordinate":{"lat":52.0652770996094,"lng":5.25861120223999},"countryCode":"NL","name":"Driebergen-Zeist","stationCode":"DB","uicCode":"8400182"},"description":"vanaf het busstation"},{"station":{"coordinate":{"lat":52.0641670227051,"lng":5.36999988555908},"countryCode":"NL","name":"Maarn","stationCode":"MRN","uicCode":"8400417"},"description":"vanaf de voorzijde van het station"},{"station":{"coordinate":{"lat":52.0280570983887,"lng":5.53138875961304},"countryCode":"NL","name":"Veenendaal West","stationCode":"VNDW","uicCode":"8400628"},"description":"vanaf de bushalte"},{"station":{"coordinate":{"lat":52.0200004577637,"lng":5.54861116409302},"countryCode":"NL","name":"Veenendaal Centrum","stationCode":"VNDC","uicCode":"8400627"},"description":"vanaf de OV halte Kerkewijk, Oostzijde"},{"station":{"coordinate":{"lat":51.958610534668,"lng":5.57833337783814},"countryCode":"NL","name":"Rhenen","stationCode":"RHN","uicCode":"8400517"},"description":"vanaf het P+R-terrein"}],"label":"Er rijden stopbussen tussen Driebergen-Zeist, Maarn, Veenendaal West, Veenendaal Centrum en Rhenen.","shortLabel":"Er rijden stopbussen Driebergen-Zeist - Maarn - Veenendaal West - Veenendaal C. - Rhenen."}},{"start":"2025-10-18T05:00:00+0200","end":"2025-10-20T02:30:00+0200","alternativeTransport":{"location":[{"station":{"coordinate":{"lat":52.0652770996094,"lng":5.25861120223999},"countryCode":"NL","name":"Driebergen-Zeist","stationCode":"DB","uicCode":"8400182"},"description":"vanaf het busstation"},{"station":{"coordinate":{"lat":52.0458335876465,"lng":5.57388877868652},"countryCode":"NL","name":"Veenendaal-De Klomp","stationCode":"KLP","uicCode":"8400637"},"description":"vanaf het P+R-terrein"},{"station":{"coordinate":{"lat":52.0277786254883,"lng":5.67305564880371},"countryCode":"NL","name":"Ede-Wageningen","stationCode":"ED","uicCode":"8400200"},"description":"vanaf P+R terrein, aan de achterzijde van het station"},{"station":{"coordinate":{"lat":52.0055541992188,"lng":5.7936110496521},"countryCode":"NL","name":"Wolfheze","stationCode":"WF","uicCode":"8400704"},"description":"vanaf de voorzijde van het station"},{"station":{"coordinate":{"lat":51.9949989318848,"lng":5.84000015258789},"countryCode":"NL","name":"Oosterbeek","stationCode":"OTB","uicCode":"8400489"},"description":"vanaf de NS Bushalte"},{"station":{"coordinate":{"lat":51.9850006103516,"lng":5.89916658401489},"countryCode":"NL","name":"Arnhem Centraal","stationCode":"AH","uicCode":"8400071"},"description":"vanaf bushalte L of H"}],"label":"Er rijden bussen tussen Driebergen-Zeist, Veenendaal-De Klomp, Ede-Wageningen, Wolfheze, Oosterbeek en Arnhem Centraal.","shortLabel":"Er rijden bussen Driebergen-Zeist - De Klomp - Ede-Wageningen - Wolfheze - Oosterbeek - Arnhem C."}},{"start":"2025-10-20T05:00:00+0200","end":"2025-10-22T02:30:00+0200","alternativeTransport":{"location":[{"station":{"coordinate":{"lat":52.0652770996094,"lng":5.25861120223999},"countryCode":"NL","name":"Driebergen-Zeist","stationCode":"DB","uicCode":"8400182"},"description":"vanaf het busstation"},{"station":{"coordinate":{"lat":52.0641670227051,"lng":5.36999988555908},"countryCode":"NL","name":"Maarn","stationCode":"MRN","uicCode":"8400417"},"description":"vanaf de voorzijde van het station"},{"station":{"coordinate":{"lat":52.0280570983887,"lng":5.53138875961304},"countryCode":"NL","name":"Veenendaal West","stationCode":"VNDW","uicCode":"8400628"},"description":"vanaf de bushalte"},{"station":{"coordinate":{"lat":52.0200004577637,"lng":5.54861116409302},"countryCode":"NL","name":"Veenendaal Centrum","stationCode":"VNDC","uicCode":"8400627"},"description":"vanaf de OV halte Kerkewijk, Oostzijde"},{"station":{"coordinate":{"lat":51.958610534668,"lng":5.57833337783814},"countryCode":"NL","name":"Rhenen","stationCode":"RHN","uicCode":"8400517"},"description":"vanaf het P+R-terrein"}],"label":"Er rijden stopbussen tussen Driebergen-Zeist, Maarn, Veenendaal West, Veenendaal Centrum en Rhenen.","shortLabel":"Er rijden stopbussen Driebergen-Zeist - Maarn - Veenendaal West - Veenendaal C. - Rhenen."}},{"start":"2025-10-20T05:00:00+0200","end":"2025-10-22T02:30:00+0200","alternativeTransport":{"location":[{"station":{"coordinate":{"lat":52.0652770996094,"lng":5.25861120223999},"countryCode":"NL","name":"Driebergen-Zeist","stationCode":"DB","uicCode":"8400182"},"description":"vanaf het busstation"},{"station":{"coordinate":{"lat":52.0458335876465,"lng":5.57388877868652},"countryCode":"NL","name":"Veenendaal-De Klomp","stationCode":"KLP","uicCode":"8400637"},"description":"vanaf het P+R-terrein"},{"station":{"coordinate":{"lat":52.0277786254883,"lng":5.67305564880371},"countryCode":"NL","name":"Ede-Wageningen","stationCode":"ED","uicCode":"8400200"},"description":"vanaf P+R terrein, aan de achterzijde van het station"},{"station":{"coordinate":{"lat":52.0055541992188,"lng":5.7936110496521},"countryCode":"NL","name":"Wolfheze","stationCode":"WF","uicCode":"8400704"},"description":"vanaf de voorzijde van het station"},{"station":{"coordinate":{"lat":51.9949989318848,"lng":5.84000015258789},"countryCode":"NL","name":"Oosterbeek","stationCode":"OTB","uicCode":"8400489"},"description":"vanaf de NS Bushalte"},{"station":{"coordinate":{"lat":51.9850006103516,"lng":5.89916658401489},"countryCode":"NL","name":"Arnhem Centraal","stationCode":"AH","uicCode":"8400071"},"description":"vanaf bushalte L of H"}],"label":"Er rijden bussen tussen Driebergen-Zeist, Veenendaal-De Klomp, Ede-Wageningen, Wolfheze, Oosterbeek en Arnhem Centraal.","shortLabel":"Er rijden bussen Driebergen-Zeist - De Klomp - Ede-Wageningen - Wolfheze - Oosterbeek - Arnhem C."}},{"start":"2025-10-22T05:00:00+0200","end":"2025-10-27T02:00:00+0100","alternativeTransport":{"location":[{"station":{"coordinate":{"lat":52.0652770996094,"lng":5.25861120223999},"countryCode":"NL","name":"Driebergen-Zeist","stationCode":"DB","uicCode":"8400182"},"description":"vanaf het busstation"},{"station":{"coordinate":{"lat":52.0641670227051,"lng":5.36999988555908},"countryCode":"NL","name":"Maarn","stationCode":"MRN","uicCode":"8400417"},"description":"vanaf de voorzijde van het station"},{"station":{"coordinate":{"lat":52.0280570983887,"lng":5.53138875961304},"countryCode":"NL","name":"Veenendaal West","stationCode":"VNDW","uicCode":"8400628"},"description":"vanaf de bushalte"},{"station":{"coordinate":{"lat":52.0200004577637,"lng":5.54861116409302},"countryCode":"NL","name":"Veenendaal Centrum","stationCode":"VNDC","uicCode":"8400627"},"description":"vanaf de OV halte Kerkewijk, Oostzijde"},{"station":{"coordinate":{"lat":51.958610534668,"lng":5.57833337783814},"countryCode":"NL","name":"Rhenen","stationCode":"RHN","uicCode":"8400517"},"description":"vanaf het P+R-terrein"}],"label":"Er rijden stopbussen tussen Driebergen-Zeist, Maarn, Veenendaal West, Veenendaal Centrum en Rhenen.","shortLabel":"Er rijden stopbussen Driebergen-Zeist - Maarn - Veenendaal West - Veenendaal C. - Rhenen."}},{"start":"2025-10-22T05:00:00+0200","end":"2025-10-27T02:00:00+0100","alternativeTransport":{"location":[{"station":{"coordinate":{"lat":52.0652770996094,"lng":5.25861120223999},"countryCode":"NL","name":"Driebergen-Zeist","stationCode":"DB","uicCode":"8400182"},"description":"vanaf het busstation"},{"station":{"coordinate":{"lat":52.0458335876465,"lng":5.57388877868652},"countryCode":"NL","name":"Veenendaal-De Klomp","stationCode":"KLP","uicCode":"8400637"},"description":"vanaf het P+R-terrein"},{"station":{"coordinate":{"lat":52.0277786254883,"lng":5.67305564880371},"countryCode":"NL","name":"Ede-Wageningen","stationCode":"ED","uicCode":"8400200"},"description":"vanaf P+R terrein, aan de achterzijde van het station"}],"label":"Er rijden bussen tussen Driebergen-Zeist, Veenendaal-De Klomp en Ede-Wageningen.","shortLabel":"Er rijden bussen Driebergen-Zeist - De Klomp - Ede-Wageningen."}}]},{"type":"MAINTENANCE","id":"7007011","title":"Hoofddorp - Schiphol - Hilversum.","isActive":false,"local":false,"titleSections":[[{"type":"STATION","value":"Hoofddorp"},{"type":"ICON","value":"MAINTENANCE"},{"type":"STATION","value":"RAI"},{"type":"STATION","value":"Hilversum"}]],"registrationTime":"2025-10-01T16:14:23+0200","start":"2025-10-18T03:00:00+0200","releaseTime":"2025-10-01T16:14:32+0200","end":"2025-10-20T03:00:00+0200","period":"Zaterdag 18 oktober 3:00 uur t/m maandag 20 oktober 3:00 uur.","impact":{"value":2},"publicationSections":[{"section":{"stations":[{"coordinate":{"lat":52.2933349609375,"lng":4.70055532455444},"countryCode":"NL","name":"Hoofddorp","stationCode":"HFD","uicCode":"8400332"},{"coordinate":{"lat":52.3094444274902,"lng":4.76194429397583},"countryCode":"NL","name":"Schiphol Airport","stationCode":"SHL","uicCode":"8400561"},{"coordinate":{"lat":52.338889,"lng":4.872356},"countryCode":"NL","name":"Amsterdam Zuid","stationCode":"ASDZ","uicCode":"8400061"},{"coordinate":{"lat":52.3372230529785,"lng":4.89027786254883},"countryCode":"NL","name":"Amsterdam RAI","stationCode":"RAI","uicCode":"8400056"},{"coordinate":{"lat":52.3233337402344,"lng":4.93638896942139},"countryCode":"NL","name":"Duivendrecht","stationCode":"DVD","uicCode":"8400194"},{"coordinate":{"lat":52.3302764892578,"lng":4.95583343505859},"countryCode":"NL","name":"Diemen Zuid","stationCode":"DMNZ","uicCode":"8400163"},{"coordinate":{"lat":52.3127784729004,"lng":5.04305553436279},"countryCode":"NL","name":"Weesp","stationCode":"WP","uicCode":"8400685"},{"coordinate":{"lat":52.2802772521973,"lng":5.15694427490234},"countryCode":"NL","name":"Naarden-Bussum","stationCode":"NDB","uicCode":"8400452"},{"coordinate":{"lat":52.2658348083496,"lng":5.16305541992188},"countryCode":"NL","name":"Bussum Zuid","stationCode":"BSMZ","uicCode":"8400145"},{"coordinate":{"lat":52.2380561828613,"lng":5.17388868331909},"countryCode":"NL","name":"Hilversum Media Park","stationCode":"HVSM","uicCode":"8400324"},{"coordinate":{"lat":52.2258338928223,"lng":5.18194437026978},"countryCode":"NL","name":"Hilversum","stationCode":"HVS","uicCode":"8400322"}],"direction":"BOTH","operators":["NS"]},"consequence":{"section":{"stations":[{"coordinate":{"lat":52.2933349609375,"lng":4.70055532455444},"countryCode":"NL","name":"Hoofddorp","stationCode":"HFD","uicCode":"8400332"},{"coordinate":{"lat":52.3094444274902,"lng":4.76194429397583},"countryCode":"NL","name":"Schiphol Airport","stationCode":"SHL","uicCode":"8400561"},{"coordinate":{"lat":52.338889,"lng":4.872356},"countryCode":"NL","name":"Amsterdam Zuid","stationCode":"ASDZ","uicCode":"8400061"},{"coordinate":{"lat":52.3372230529785,"lng":4.89027786254883},"countryCode":"NL","name":"Amsterdam RAI","stationCode":"RAI","uicCode":"8400056"}],"direction":"BOTH","operators":["NS"]},"description":"minder Sprinters","level":"LESS_TRAINS"},"sectionType":"NL"}],"summaryAdditionalTravelTime":{"label":"De extra reistijd kan oplopen tot 15 minuten.","shortLabel":"Extra reistijd tot 15 min.","maximumDurationInMinutes":15},"timespans":[{"start":"2025-10-18T03:00:00+0200","end":"2025-10-20T03:00:00+0200","period":"Zaterdag 18 oktober 3:00 uur t/m maandag 20 oktober 3:00 uur.","situation":{"label":"Door werkzaamheden: tussen Hoofddorp en Amsterdam RAI rijden er minder Sprinters."},"cause":{"label":"werkzaamheden","type":"OTHER"},"additionalTravelTime":{"label":"De extra reistijd kan oplopen tot 15 minuten.","shortLabel":"Extra reistijd tot 15 min.","maximumDurationInMinutes":15},"advices":[]}],"alternativeTransportTimespans":[]},