[{"id":"6028779","isActive":true,"topic":"disruption_6028779_nl","title":"Almelo-Hardenberg","type":"DISRUPTION","registrationTime":"2024-02-15T20:05:19+0100","releaseTime":"2024-02-15T20:05:19+0100","local":false,"titleSections":[[{"type":"STATION","value":"Almelo"},{"type":"ICON","value":"DISRUPTION"},{"type":"STATION","value":"Mariënberg"},{"type":"STATION","value":"Hardenberg"}]],"start":"2024-02-04T07:35:46+0100","end":"2024-02-15T22:35:19+0100","phase":{"id":"3","label":"Vervangend vervoer"},"impact":{"value":3},"expectedDuration":{"description":"Dit duurt de rest van de dag."},"publicationSections":[{"section":{"stations":[{"coordinate":{"lat":52.3580551147461,"lng":6.65388870239258},"countryCode":"NL","name":"Almelo","stationCode":"AML","uicCode":"8400051"},{"coordinate":{"lat":52.40203,"lng":6.60041},"countryCode":"NL","name":"Vriezenveen","stationCode":"VZ","uicCode":"8400664"},{"coordinate":{"lat":52.4407702,"lng":6.5759947},"countryCode":"NL","name":"Daarlerveen","stationCode":"DA","uicCode":"8400164"},{"coordinate":{"lat":52.4571921,"lng":6.5696679},"countryCode":"NL","name":"Vroomshoop","stationCode":"VHP","uicCode":"8400666"},{"coordinate":{"lat":52.5094451904297,"lng":6.57527780532837},"countryCode":"NL","name":"Mariënberg","stationCode":"MRB","uicCode":"8400428"},{"coordinate":{"lat":52.5727767944336,"lng":6.62861108779907},"countryCode":"NL","name":"Hardenberg","stationCode":"HDB","uicCode":"8400293"}],"direction":"BOTH"},"consequence":{"section":{"stations":[{"coordinate":{"lat":52.3580551147461,"lng":6.65388870239258},"countryCode":"NL","name":"Almelo","stationCode":"AML","uicCode":"8400051"},{"coordinate":{"lat":52.40203,"lng":6.60041},"countryCode":"NL","name":"Vriezenveen","stationCode":"VZ","uicCode":"8400664"},{"coordinate":{"lat":52.4407702,"lng":6.5759947},"countryCode":"NL","name":"Daarlerveen","stationCode":"DA","uicCode":"8400164"},{"coordinate":{"lat":52.4571921,"lng":6.5696679},"countryCode":"NL","name":"Vroomshoop","stationCode":"VHP","uicCode":"8400666"},{"coordinate":{"lat":52.5094451904297,"lng":6.57527780532837},"countryCode":"NL","name":"Mariënberg","stationCode":"MRB","uicCode":"8400428"}],"direction":"ONE_WAY"},"description":"geen treinen","level":"LESS_TRAINS"},"sectionType":"NL"}],"timespans":[{"start":"2024-02-04T07:35:46+0100","end":"2024-02-15T22:35:19+0100","situation":{"label":"Tussen Almelo en Mariënberg rijden er geen treinen door herstelwerkzaamheden."},"cause":{"label":"Herstelwerkzaamheden"},"alternativeTransport":{"label":"Er rijden stopbussen.","shortLabel":"Er rijden stopbussen"},"advices":[]}],"alternativeTransportTimespans":[{"start":"2024-02-04T07:35:46+0100","end":"2024-02-15T22:35:19+0100","alternativeTransport":{"location":[{"station":{"coordinate":{"lat":52.3580551147461,"lng":6.65388870239258},"countryCode":"NL","name":"Almelo","stationCode":"AML","uicCode":"8400051"},"description":"vanaf de voorzijde van het station"},{"station":{"coordinate":{"lat":52.40203,"lng":6.60041},"countryCode":"NL","name":"Vriezenveen","stationCode":"VZ","uicCode":"8400664"},"description":"vanaf de Hammerweg, nabij de spoorovergang"},{"station":{"coordinate":{"lat":52.4407702,"lng":6.5759947},"countryCode":"NL","name":"Daarlerveen","stationCode":"DA","uicCode":"8400164"},"description":"vanaf de doorgaande weg"},{"station":{"coordinate":{"lat":52.5094451904297,"lng":6.57527780532837},"countryCode":"NL","name":"Mariënberg","stationCode":"MRB","uicCode":"8400428"},"description":"vanaf de voorzijde van het station"}],"label":"Er rijden stopbussen tussen Almelo, Vriezenveen, Daarlerveen, Vroomshoop en Mariënberg.","shortLabel":"Er rijden stopbussen: Almelo, Vriezenveen, Daarlerveen, Vroomshoop, Mariënberg"}}]},{"id":"6029076","isActive":true,"topic":"disruption_6029076_nl","title":"'s-Hertogenbosch-Eindhoven; Tilburg-Eindhoven","type":"DISRUPTION","registrationTime":"2024-02-15T20:55:26+0100","releaseTime":"2024-02-15T20:55:26+0100","local":false,"titleSections":[[{"type":"STATION","value":"Tilburg"},{"type":"STATION","value":"Boxtel"},{"type":"ICON","value":"DISRUPTION"},{"type":"STATION","value":"Eindhoven C."}],[{"type":"STATION","value":"'s-Hertogenbosch"},{"type":"STATION","value":"Boxtel"},{"type":"ICON","value":"DISRUPTION"},{"type":"STATION","value":"Eindhoven C."}]],"start":"2024-02-15T18:38:35+0100","end":"2024-02-15T22:30:00+0100","phase":{"id":"3","label":"Vervangend vervoer"},"impact":{"value":4},"expectedDuration":{"description":"Dit duurt tot ongeveer 22:30 uur.","endTime":"2024-02-15T22:30:00+0100"},"publicationSections":[{"section":{"stations":[{"coordinate":{"lat":51.5605545043945,"lng":5.08361101150513},"countryCode":"NL","name":"Tilburg","stationCode":"TB","uicCode":"8400597"},{"coordinate":{"lat":51.5822219848633,"lng":5.19416666030884},"countryCode":"NL","name":"Oisterwijk","stationCode":"OT","uicCode":"8400482"},{"coordinate":{"lat":51.58433,"lng":5.31912},"countryCode":"NL","name":"Boxtel","stationCode":"BTL","uicCode":"8400129"},{"coordinate":{"lat":51.5099983215332,"lng":5.38916683197022},"countryCode":"NL","name":"Best","stationCode":"BET","uicCode":"8400112"},{"coordinate":{"lat":51.4511108398438,"lng":5.45583343505859},"countryCode":"NL","name":"Eindhoven Strijp-S","stationCode":"EHS","uicCode":"8400196"},{"coordinate":{"lat":51.4433326721191,"lng":5.48138904571533},"countryCode":"NL","name":"Eindhoven Centraal","stationCode":"EHV","uicCode":"8400206"}],"direction":"BOTH"},"consequence":{"section":{"stations":[{"coordinate":{"lat":51.58433,"lng":5.31912},"countryCode":"NL","name":"Boxtel","stationCode":"BTL","uicCode":"8400129"},{"coordinate":{"lat":51.5099983215332,"lng":5.38916683197022},"countryCode":"NL","name":"Best","stationCode":"BET","uicCode":"8400112"},{"coordinate":{"lat":51.4511108398438,"lng":5.45583343505859},"countryCode":"NL","name":"Eindhoven Strijp-S","stationCode":"EHS","uicCode":"8400196"},{"coordinate":{"lat":51.4433326721191,"lng":5.48138904571533},"countryCode":"NL","name":"Eindhoven Centraal","stationCode":"EHV","uicCode":"8400206"}],"direction":"ONE_WAY"},"description":"geen treinen","level":"LESS_TRAINS"},"sectionType":"NL"},{"section":{"stations":[{"coordinate":{"lat":51.69048,"lng":5.29362},"countryCode":"NL","name":"'s-Hertogenbosch","stationCode":"HT","uicCode":"8400319"},{"coordinate":{"lat":51.6555557250977,"lng":5.29194450378418},"countryCode":"NL","name":"Vught","stationCode":"VG","uicCode":"8400667"},{"coordinate":{"lat":51.58433,"lng":5.31912},"countryCode":"NL","name":"Boxtel","stationCode":"BTL","uicCode":"8400129"},{"coordinate":{"lat":51.5099983215332,"lng":5.38916683197022},"countryCode":"NL","name":"Best","stationCode":"BET","uicCode":"8400112"},{"coordinate":{"lat":51.4511108398438,"lng":5.45583343505859},"countryCode":"NL","name":"Eindhoven Strijp-S","stationCode":"EHS","uicCode":"8400196"},{"coordinate":{"lat":51.4433326721191,"lng":5.48138904571533},"countryCode":"NL","name":"Eindhoven Centraal","stationCode":"EHV","uicCode":"8400206"}],"direction":"BOTH"},"consequence":{"section":{"stations":[{"coordinate":{"lat":51.58433,"lng":5.31912},"countryCode":"NL","name":"Boxtel","stationCode":"BTL","uicCode":"8400129"},{"coordinate":{"lat":51.5099983215332,"lng":5.38916683197022},"countryCode":"NL","name":"Best","stationCode":"BET","uicCode":"8400112"},{"coordinate":{"lat":51.4511108398438,"lng":5.45583343505859},"countryCode":"NL","name":"Eindhoven Strijp-S","stationCode":"EHS","uicCode":"8400196"},{"coordinate":{"lat":51.4433326721191,"lng":5.48138904571533},"countryCode":"NL","name":"Eindhoven Centraal","stationCode":"EHV","uicCode":"8400206"}],"direction":"ONE_WAY"},"description":"geen treinen","level":"LESS_TRAINS"},"sectionType":"NL"}],"timespans":[{"start":"2024-02-15T18:38:35+0100","end":"2024-02-15T22:30:00+0100","situation":{"label":"Tussen Boxtel en Eindhoven Centraal rijden er geen treinen door een stroomstoring."},"cause":{"label":"Stroomstoring"},"alternativeTransport":{"label":"Er rijden snelbussen.","shortLabel":"Er rijden snelbussen"},"advices":[]}],"alternativeTransportTimespans":[{"start":"2024-02-15T18:38:35+0100","end":"2024-02-15T22:30:00+0100","alternativeTransport":{"location":[{"station":{"coordinate":{"lat":51.4433326721191,"lng":5.48138904571533},"countryCode":"NL","name":"Eindhoven Centraal","stationCode":"EHV","uicCode":"8400206"},"description":"vanaf de achterzijde van het station"},{"station":{"coordinate":{"lat":51.58433,"lng":5.31912},"countryCode":"NL","name":"Boxtel","stationCode":"BTL","uicCode":"8400129"},"description":"vanaf de NS bushalte aan de Van Salmstraat"}],"label":"Er rijden snelbussen tussen Eindhoven Centraal en Boxtel.","shortLabel":"Er rijden snelbussen: Eindhoven C., Boxtel"}}]},{"id":"846c26b2-cc2e-4a9b-98b9-4ec87d40d70b","isActive":true,"title":"Werkzaamheden Zwolle-Deventer","topic":"disruption_846c26b2-cc2e-4a9b-98b9-4ec87d40d70b_nl","type":"CALAMITY","description":"Door werkzaamheden rijden er van zaterdag 17 t/m zondag 25 februari geen treinen tussen Zwolle en Deventer.","priority":"PRIO_3","lastUpdated":"2024-02-14T01:41:00+0100","bodyItems":[{"type":"TEXT","content":{"text":"<p>Er rijden bussen tussen Zwolle en Deventer. Plan je reis vooraf.</p>"}}],"buttons":{"position":["BOTTOM"],"items":[{"label":"Plan je reis","accessibilityLabel":"Plan je reis","url":"https://www.ns.nl/reisplanner","type":"PLANNER"}]},"url":"https://www.ns.nl/reisinformatie/calamiteiten/werkzaamheden-zwolle-deventer.html"},{"id":"7dc6113c-4159-41b8-8359-57030369c99a","isActive":true,"title":"Staking Frankrijk 15 tot 19 februari","topic":"disruption_7dc6113c-4159-41b8-8359-57030369c99a_nl","type":"CALAMITY","description":"Vanaf donderdag 15 februari 18:00 tot maandag 19 februari 08:00 uur is er een staking van het Franse spoorwegpersoneel. Plan je reis kort voor vertrek in de reisplanner voor het meest actuele advies. \r\n\r\nKijk voor meer informatie op NSInternational.nl.","priority":"PRIO_3","lastUpdated":"2024-02-15T12:35:00+0100","bodyItems":[],"buttons":{"position":["BOTTOM"],"items":[{"label":"Meer informatie","accessibilityLabel":"Meer informatie","url":"https://www.nsinternational.com/nl","type":"EXTERNAL"}]},"url":"https://www.ns.nl/reisinformatie/calamiteiten/staking-frankrijk-15-tot-19-februari.html"},{"id":"7004492","isActive":true,"title":"Groningen - Leer.","type":"MAINTENANCE","registrationTime":"2024-02-09T13:19:19+0100","releaseTime":"2024-02-09T13:19:19+0100","local":false,"titleSections":[[{"type":"STATION","value":"Groningen"},{"type":"STATION","value":"Bad Nieuweschans"},{"type":"ICON","value":"MAINTENANCE"},{"type":"STATION","value":"Weener"},{"type":"STATION","value":"Leer (Ostfr.)"}]],"start":"2024-02-01T04:00:00+0100","end":"2024-12-14T23:59:00+0100","period":"Donderdag 1 februari 4:00 uur t/m zaterdag 14 december 23:59 uur.","impact":{"value":3},"publicationSections":[{"section":{"stations":[{"coordinate":{"lat":53.2105560302734,"lng":6.56472206115723},"countryCode":"NL","name":"Groningen","stationCode":"GN","uicCode":"8400263"},{"coordinate":{"lat":53.20480027,"lng":6.5854178},"countryCode":"NL","name":"Groningen Europapark","stationCode":"GERP","uicCode":"8400238"},{"coordinate":{"lat":53.1617362,"lng":6.7220882},"countryCode":"NL","name":"Kropswolde","stationCode":"KW","uicCode":"8400369"},{"coordinate":{"lat":53.1607232,"lng":6.7402989},"countryCode":"NL","name":"Martenshoek","stationCode":"MTH","uicCode":"8400430"},{"coordinate":{"lat":53.1598181316756,"lng":6.77075386047363},"countryCode":"NL","name":"Hoogezand-Sappemeer","stationCode":"HGZ","uicCode":"8400331"},{"coordinate":{"lat":53.1596122800056,"lng":6.8679141998291},"countryCode":"NL","name":"Zuidbroek","stationCode":"ZB","uicCode":"8400742"},{"coordinate":{"lat":53.1655362,"lng":6.9777775},"countryCode":"NL","name":"Scheemda","stationCode":"SDA","uicCode":"8400551"},{"coordinate":{"lat":53.1392377,"lng":7.035101},"countryCode":"NL","name":"Winschoten","stationCode":"WS","uicCode":"8400696"},{"coordinate":{"lat":53.1844,"lng":7.19937},"countryCode":"NL","name":"Bad Nieuweschans","stationCode":"NSCH","uicCode":"8400457"},{"coordinate":{"lat":53.16311,"lng":7.3442},"countryCode":"D","name":"Weener","stationCode":"WR","uicCode":"8021239"},{"coordinate":{"lat":53.23165,"lng":7.465283},"countryCode":"D","name":"Leer (Ostfriesl)","stationCode":"LEER","uicCode":"8021091"}],"direction":"BOTH"},"consequence":{"section":{"stations":[{"coordinate":{"lat":53.1844,"lng":7.19937},"countryCode":"NL","name":"Bad Nieuweschans","stationCode":"NSCH","uicCode":"8400457"},{"coordinate":{"lat":53.16311,"lng":7.3442},"countryCode":"D","name":"Weener","stationCode":"WR","uicCode":"8021239"}],"direction":"ONE_WAY"},"description":"rijden bussen","level":"LESS_TRAINS"},"sectionType":"NEIGHBORING_COUNTRY"}],"timespans":[{"start":"2024-02-01T04:00:00+0100","end":"2024-12-14T23:59:00+0100","period":"Donderdag 1 februari 4:00 uur t/m zaterdag 14 december 23:59 uur.","situation":{"label":"Door werkzaamheden: tussen Bad Nieuweschans en Weener rijden er bussen."},"cause":{"label":"werkzaamheden"},"additionalTravelTime":{"label":"De extra reistijd kan oplopen tot 30 minuten.","shortLabel":"extra reistijd tot 30 min.","maximumDurationInMinutes":30},"alternativeTransport":{"label":"er rijden stopbussen","shortLabel":"er rijden stopbussen"},"advices":[]}],"alternativeTransportTimespans":[{"start":"2024-02-01T04:00:00+0100","end":"2024-12-14T23:59:00+0100","alternativeTransport":{"location":[{"station":{"coordinate":{"lat":53.1844,"lng":7.19937},"countryCode":"NL","name":"Bad Nieuweschans","stationCode":"NSCH","uicCode":"8400457"},"description":"vanaf de voorzijde van het station"},{"station":{"coordinate":{"lat":53.16311,"lng":7.3442},"countryCode":"D","name":"Weener","stationCode":"WR","uicCode":"8021239"},"description":"vanaf de voorzijde van het station"},{"station":{"coordinate":{"lat":53.23165,"lng":7.465283},"countryCode":"D","name":"Leer (Ostfriesl)","stationCode":"LEER","uicCode":"8021091"},"description":"vanaf het busstation"}],"label":"Er rijden stopbussen tussen Bad Nieuweschans, Weener en Leer (Ostfriesl).","shortLabel":"er rijden stopbussen Bad Nieuweschans - Weener - Leer (Ostfr.)"}}],"summaryAdditionalTravelTime":{"label":"De extra reistijd kan oplopen tot 30 minuten.","shortLabel":"extra reistijd tot 30 min.","maximumDurationInMinutes":30}},{"id":"7004521","isActive":true,"title":"Dordrecht - Gorinchem.","type":"MAINTENANCE","registrationTime":"2024-02-15T14:03:01+0100","releaseTime":"2024-02-15T14:03:01+0100","local":false,"titleSections":[[{"type":"STATION","value":"Dordrecht"},{"type":"ICON","value":"MAINTENANCE"},{"type":"STATION","value":"Gorinchem"}]],"start":"2024-02-08T10:17:00+0100","end":"2024-02-26T02:00:00+0100","period":"Donderdag 8 februari 10:17 uur t/m maandag 26 februari 2:00 uur.","impact":{"value":2},"publicationSections":[{"section":{"stations":[{"coordinate":{"lat":51.8072204589844,"lng":4.66833353042603},"countryCode":"NL","name":"Dordrecht","stationCode":"DDR","uicCode":"8400180"},{"coordinate":{"lat":51.801944732666,"lng":4.71666669845581},"countryCode":"NL","name":"Dordrecht Stadspolders","stationCode":"DDRS","uicCode":"8400186"},{"coordinate":{"lat":51.829722,"lng":4.743333},"countryCode":"NL","name":"Sliedrecht Baanhoek","stationCode":"SDTB","uicCode":"8400497"},{"coordinate":{"lat":51.8297233581543,"lng":4.77833318710327},"countryCode":"NL","name":"Sliedrecht","stationCode":"SDT","uicCode":"8400565"},{"coordinate":{"lat":51.82944,"lng":4.815663},"countryCode":"NL","name":"Hardinxveld Blauwe Zoom","stationCode":"HBZM","uicCode":"8400438"},{"coordinate":{"lat":51.8305549621582,"lng":4.83583354949951},"countryCode":"NL","name":"Hardinxveld-Giessendam","stationCode":"GND","uicCode":"8400295"},{"coordinate":{"lat":51.832222,"lng":4.878056},"countryCode":"NL","name":"Boven-Hardinxveld","stationCode":"BHDV","uicCode":"8400236"},{"coordinate":{"lat":51.8338890075684,"lng":4.96833324432373},"countryCode":"NL","name":"Gorinchem","stationCode":"GR","uicCode":"8400256"}],"direction":"BOTH"},"consequence":{"section":{"stations":[{"coordinate":{"lat":51.8072204589844,"lng":4.66833353042603},"countryCode":"NL","name":"Dordrecht","stationCode":"DDR","uicCode":"8400180"},{"coordinate":{"lat":51.801944732666,"lng":4.71666669845581},"countryCode":"NL","name":"Dordrecht Stadspolders","stationCode":"DDRS","uicCode":"8400186"},{"coordinate":{"lat":51.829722,"lng":4.743333},"countryCode":"NL","name":"Sliedrecht Baanhoek","stationCode":"SDTB","uicCode":"8400497"},{"coordinate":{"lat":51.8297233581543,"lng":4.77833318710327},"countryCode":"NL","name":"Sliedrecht","stationCode":"SDT","uicCode":"8400565"},{"coordinate":{"lat":51.82944,"lng":4.815663},"countryCode":"NL","name":"Hardinxveld Blauwe Zoom","stationCode":"HBZM","uicCode":"8400438"},{"coordinate":{"lat":51.8305549621582,"lng":4.83583354949951},"countryCode":"NL","name":"Hardinxveld-Giessendam","stationCode":"GND","uicCode":"8400295"},{"coordinate":{"lat":51.832222,"lng":4.878056},"countryCode":"NL","name":"Boven-Hardinxveld","stationCode":"BHDV","uicCode":"8400236"},{"coordinate":{"lat":51.8338890075684,"lng":4.96833324432373},"countryCode":"NL","name":"Gorinchem","stationCode":"GR","uicCode":"8400256"}],"direction":"ONE_WAY"},"description":"minder treinen","level":"LESS_TRAINS"},"sectionType":"NL"}],"timespans":[{"start":"2024-02-08T10:17:00+0100","end":"2024-02-26T02:00:00+0100","period":"Donderdag 8 februari 10:17 uur t/m maandag 26 februari 2:00 uur.","situation":{"label":"Door een defect spoor: tussen Dordrecht en Gorinchem rijden er minder treinen."},"cause":{"label":"defect spoor"},"additionalTravelTime":{"label":"De extra reistijd kan oplopen tot 15 minuten.","shortLabel":"extra reistijd tot 15 min.","maximumDurationInMinutes":15},"advices":["Het is helaas nog niet bekend tot wanneer deze werkzaamheden zullen gaan duren."]}],"alternativeTransportTimespans":[],"summaryAdditionalTravelTime":{"label":"De extra reistijd kan oplopen tot 15 minuten.","shortLabel":"extra reistijd tot 15 min.","maximumDurationInMinutes":15}},{"id":"7004528","isActive":true,"title":"Den Haag - Rotterdam - Eindhoven.","type":"MAINTENANCE","registrationTime":"2024-02-09T14:50:25+0100","releaseTime":"2024-02-09T14:50:25+0100","local":false,"titleSections":[[{"type":"STATION","value":"Den Haag C."},{"type":"ICON","value":"MAINTENANCE"},{"type":"STATION","value":"Rotterdam C."},{"type":"STATION","value":"Eindhoven C."}]],"start":"2024-02-09T14:25:00+0100","end":"2024-02-23T23:45:00+0100","period":"Vrijdag 9 februari 14:25 uur t/m vrijdag 23 februari 23:45 uur.","impact":{"value":2},"publicationSections":[{"section":{"stations":[{"coordinate":{"lat":52.0802764892578,"lng":4.32499980926514},"countryCode":"NL","name":"Den Haag Centraal","stationCode":"GVC","uicCode":"8400282"},{"coordinate":{"lat":52.0697212219238,"lng":4.32250022888184},"countryCode":"NL","name":"Den Haag HS","stationCode":"GV","uicCode":"8400280"},{"coordinate":{"lat":52.0538902282715,"lng":4.3086109161377},"countryCode":"NL","name":"Den Haag Moerwijk","stationCode":"GVMW","uicCode":"8400279"},{"coordinate":{"lat":52.039722442627,"lng":4.31916666030884},"countryCode":"NL","name":"Rijswijk","stationCode":"RSW","uicCode":"8400505"},{"coordinate":{"lat":52.0066680908203,"lng":4.35638904571533},"countryCode":"NL","name":"Delft","stationCode":"DT","uicCode":"8400170"},{"coordinate":{"lat":51.9908332824707,"lng":4.36472225189209},"countryCode":"NL","name":"Delft Campus","stationCode":"DTCP","uicCode":"8400166"},{"coordinate":{"lat":51.9212438128032,"lng":4.4089937210083},"countryCode":"NL","name":"Schiedam Centrum","stationCode":"SDM","uicCode":"8400553"},{"coordinate":{"lat":51.9249992370605,"lng":4.46888875961304},"countryCode":"NL","name":"Rotterdam Centraal","stationCode":"RTD","uicCode":"8400530"},{"coordinate":{"lat":51.9202766418457,"lng":4.48888874053955},"countryCode":"NL","name":"Rotterdam Blaak","stationCode":"RTB","uicCode":"8400529"},{"coordinate":{"lat":51.9044456481934,"lng":4.51027774810791},"countryCode":"NL","name":"Rotterdam Zuid","stationCode":"RTZ","uicCode":"8400533"},{"coordinate":{"lat":51.8800010681152,"lng":4.53138875961304},"countryCode":"NL","name":"Rotterdam Lombardijen","stationCode":"RLB","uicCode":"8400542"},{"coordinate":{"lat":51.606388092041,"lng":4.72083330154419},"countryCode":"NL","name":"Breda-Prinsenbeek","stationCode":"BDPB","uicCode":"8400132"},{"coordinate":{"lat":51.5955543518066,"lng":4.78000020980835},"countryCode":"NL","name":"Breda","stationCode":"BD","uicCode":"8400131"},{"coordinate":{"lat":51.583610534668,"lng":4.92611122131348},"countryCode":"NL","name":"Gilze-Rijen","stationCode":"GZ","uicCode":"8400251"},{"coordinate":{"lat":51.5736122131348,"lng":4.99444437026978},"countryCode":"NL","name":"Tilburg Reeshof","stationCode":"TBR","uicCode":"8400598"},{"coordinate":{"lat":51.564985,"lng":5.051778},"countryCode":"NL","name":"Tilburg Universiteit","stationCode":"TBU","uicCode":"8400594"},{"coordinate":{"lat":51.5605545043945,"lng":5.08361101150513},"countryCode":"NL","name":"Tilburg","stationCode":"TB","uicCode":"8400597"},{"coordinate":{"lat":51.5822219848633,"lng":5.19416666030884},"countryCode":"NL","name":"Oisterwijk","stationCode":"OT","uicCode":"8400482"},{"coordinate":{"lat":51.58433,"lng":5.31912},"countryCode":"NL","name":"Boxtel","stationCode":"BTL","uicCode":"8400129"},{"coordinate":{"lat":51.5099983215332,"lng":5.38916683197022},"countryCode":"NL","name":"Best","stationCode":"BET","uicCode":"8400112"},{"coordinate":{"lat":51.4511108398438,"lng":5.45583343505859},"countryCode":"NL","name":"Eindhoven Strijp-S","stationCode":"EHS","uicCode":"8400196"},{"coordinate":{"lat":51.4433326721191,"lng":5.48138904571533},"countryCode":"NL","name":"Eindhoven Centraal","stationCode":"EHV","uicCode":"8400206"}],"direction":"BOTH"},"consequence":{"section":{"stations":[{"coordinate":{"lat":52.0802764892578,"lng":4.32499980926514},"countryCode":"NL","name":"Den Haag Centraal","stationCode":"GVC","uicCode":"8400282"},{"coordinate":{"lat":52.0697212219238,"lng":4.32250022888184},"countryCode":"NL","name":"Den Haag HS","stationCode":"GV","uicCode":"8400280"},{"coordinate":{"lat":52.0538902282715,"lng":4.3086109161377},"countryCode":"NL","name":"Den Haag Moerwijk","stationCode":"GVMW","uicCode":"8400279"},{"coordinate":{"lat":52.039722442627,"lng":4.31916666030884},"countryCode":"NL","name":"Rijswijk","stationCode":"RSW","uicCode":"8400505"},{"coordinate":{"lat":52.0066680908203,"lng":4.35638904571533},"countryCode":"NL","name":"Delft","stationCode":"DT","uicCode":"8400170"},{"coordinate":{"lat":51.9908332824707,"lng":4.36472225189209},"countryCode":"NL","name":"Delft Campus","stationCode":"DTCP","uicCode":"8400166"},{"coordinate":{"lat":51.9212438128032,"lng":4.4089937210083},"countryCode":"NL","name":"Schiedam Centrum","stationCode":"SDM","uicCode":"8400553"},{"coordinate":{"lat":51.9249992370605,"lng":4.46888875961304},"countryCode":"NL","name":"Rotterdam Centraal","stationCode":"RTD","uicCode":"8400530"}],"direction":"ONE_WAY"},"description":"minder treinen","level":"LESS_TRAINS"},"sectionType":"HSL"}],"timespans":[{"start":"2024-02-12T04:00:00+0100","end":"2024-02-16T23:45:00+0100","period":"Maandag 12 februari 4:00 uur t/m vrijdag 16 februari 23:45 uur.","situation":{"label":"Door beperkingen in de materieelinzet: tussen Den Haag Centraal en Rotterdam Centraal rijden er minder treinen."},"cause":{"label":"beperkingen materieel"},"additionalTravelTime":{"label":"De extra reistijd is ongeveer 15 minuten.","shortLabel":"extra reistijd 15 min.","minimumDurationInMinutes":15,"maximumDurationInMinutes":15},"advices":["Plan uw reis in de app."]},{"start":"2024-02-19T04:00:00+0100","end":"2024-02-23T23:45:00+0100","period":"Maandag 19 februari 4:00 uur t/m vrijdag 23 februari 23:45 uur.","situation":{"label":"Door beperkingen in de materieelinzet: tussen Den Haag Centraal en Rotterdam Centraal rijden er minder treinen."},"cause":{"label":"beperkingen materieel"},"additionalTravelTime":{"label":"De extra reistijd is ongeveer 15 minuten.","shortLabel":"extra reistijd 15 min.","minimumDurationInMinutes":15,"maximumDurationInMinutes":15},"advices":["Plan uw reis in de app."]}],"alternativeTransportTimespans":[],"summaryAdditionalTravelTime":{"label":"De extra reistijd kan oplopen tot 15 minuten.","shortLabel":"Extra reistijd tot 15 min.","minimumDurationInMinutes":15,"maximumDurationInMinutes":15}},{"id":"7004500","isActive":true,"title":"Maastricht - Liège / Luik.","type":"MAINTENANCE","registrationTime":"2024-02-05T09:53:25+0100","releaseTime":"2024-02-05T09:53:25+0100","local":false,"titleSections":[[{"type":"STATION","value":"Maastricht"},{"type":"ICON","value":"MAINTENANCE"},{"type":"STATION","value":"Visé"},{"type":"STATION","value":"Liège-Guillemins"}]],"start":"2024-02-12T23:20:00+0100","end":"2024-02-17T01:00:00+0100","period":"Maandag 12 februari 23:20 uur t/m zaterdag 17 februari 1:00 uur.","impact":{"value":2},"publicationSections":[{"section":{"stations":[{"coordinate":{"lat":50.8502769470215,"lng":5.70555543899536},"countryCode":"NL","name":"Maastricht","stationCode":"MT","uicCode":"8400424"},{"coordinate":{"lat":50.8386116027832,"lng":5.71722221374512},"countryCode":"NL","name":"Maastricht Randwyck","stationCode":"MTR","uicCode":"8400426"},{"coordinate":{"lat":50.7719459533691,"lng":5.71000003814697},"countryCode":"NL","name":"Eijsden","stationCode":"EDN","uicCode":"8400219"},{"coordinate":{"lat":50.73781,"lng":5.69232},"countryCode":"B","name":"Visé","stationCode":"FVS","uicCode":"8846201"},{"coordinate":{"lat":50.643829,"lng":5.6112542},"countryCode":"B","name":"Bressoux","stationCode":"BRESSX","uicCode":"8843901"},{"coordinate":{"lat":50.62436,"lng":5.56648},"countryCode":"B","name":"Liège-Guillemins","stationCode":"LUIK","uicCode":"8841004"}],"direction":"BOTH"},"consequence":{"section":{"stations":[{"coordinate":{"lat":50.8502769470215,"lng":5.70555543899536},"countryCode":"NL","name":"Maastricht","stationCode":"MT","uicCode":"8400424"},{"coordinate":{"lat":50.8386116027832,"lng":5.71722221374512},"countryCode":"NL","name":"Maastricht Randwyck","stationCode":"MTR","uicCode":"8400426"},{"coordinate":{"lat":50.7719459533691,"lng":5.71000003814697},"countryCode":"NL","name":"Eijsden","stationCode":"EDN","uicCode":"8400219"},{"coordinate":{"lat":50.73781,"lng":5.69232},"countryCode":"B","name":"Visé","stationCode":"FVS","uicCode":"8846201"}],"direction":"ONE_WAY"},"description":"rijden bussen","level":"LESS_TRAINS"},"sectionType":"NEIGHBORING_COUNTRY"}],"timespans":[{"start":"2024-02-15T23:20:00+0100","end":"2024-02-16T01:00:00+0100","period":"Donderdag 15 februari 23:20 uur t/m vrijdag 16 februari 1:00 uur.","situation":{"label":"Door werkzaamheden: tussen Maastricht en Visé rijden er bussen."},"cause":{"label":"werkzaamheden"},"additionalTravelTime":{"label":"De extra reistijd kan oplopen tot 30 minuten.","shortLabel":"extra reistijd tot 30 min.","maximumDurationInMinutes":30},"alternativeTransport":{"label":"er rijden stopbussen","shortLabel":"er rijden stopbussen"},"advices":["Dit kan gevolgen hebben voor uw reis. Plan uw reis in de (Internationale) app."]},{"start":"2024-02-16T23:20:00+0100","end":"2024-02-17T01:00:00+0100","period":"Vrijdag 16 februari 23:20 uur t/m zaterdag 17 februari 1:00 uur.","situation":{"label":"Door werkzaamheden: tussen Maastricht en Visé rijden er bussen."},"cause":{"label":"werkzaamheden"},"additionalTravelTime":{"label":"De extra reistijd kan oplopen tot 30 minuten.","shortLabel":"extra reistijd tot 30 min.","maximumDurationInMinutes":30},"alternativeTransport":{"label":"er rijden stopbussen","shortLabel":"er rijden stopbussen"},"advices":["Dit kan gevolgen hebben voor uw reis. Plan uw reis in de (Internationale) app."]}],"alternativeTransportTimespans":[{"start":"2024-02-12T23:20:00+0100","end":"2024-02-13T01:00:00+0100","alternativeTransport":{"location":[{"station":{"coordinate":{"lat":50.7719459533691,"lng":5.71000003814697},"countryCode":"NL","name":"Eijsden","stationCode":"EDN","uicCode":"8400219"},"description":"vanaf de voorzijde van het station"},{"station":{"coordinate":{"lat":50.8386116027832,"lng":5.71722221374512},"countryCode":"NL","name":"Maastricht Randwyck","stationCode":"MTR","uicCode":"8400426"},"description":"vanaf de Universiteitssingel"},{"station":{"coordinate":{"lat":50.8502769470215,"lng":5.70555543899536},"countryCode":"NL","name":"Maastricht","stationCode":"MT","uicCode":"8400424"},"description":"vanaf het Stationsplein"}],"label":"Er rijden stopbussen van Visé, Eijsden, Maastricht Randwyck naar Maastricht.","shortLabel":"er rijden stopbussen Visé -> Eijsden -> Randwyck -> Maastricht"}},{"start":"2024-02-12T23:20:00+0100","end":"2024-02-13T01:00:00+0100","alternativeTransport":{"location":[{"station":{"coordinate":{"lat":50.8502769470215,"lng":5.70555543899536},"countryCode":"NL","name":"Maastricht","stationCode":"MT","uicCode":"8400424"},"description":"vanaf het Stationsplein"},{"station":{"coordinate":{"lat":50.8386116027832,"lng":5.71722221374512},"countryCode":"NL","name":"Maastricht Randwyck","stationCode":"MTR","uicCode":"8400426"},"description":"vanaf de Universiteitssingel"},{"station":{"coordinate":{"lat":50.7719459533691,"lng":5.71000003814697},"countryCode":"NL","name":"Eijsden","stationCode":"EDN","uicCode":"8400219"},"description":"vanaf de voorzijde van het station"}],"label":"Er rijden stopbussen van Maastricht, Maastricht Randwyck, Eijsden, Visé, Bressoux naar Liège-Guillemins.","shortLabel":"er rijden stopbussen Maastricht -> Randwyck -> Eijsden -> Visé -> Bressoux -> Liège-Guillemins"}},{"start":"2024-02-13T23:20:00+0100","end":"2024-02-14T01:00:00+0100","alternativeTransport":{"location":[{"station":{"coordinate":{"lat":50.7719459533691,"lng":5.71000003814697},"countryCode":"NL","name":"Eijsden","stationCode":"EDN","uicCode":"8400219"},"description":"vanaf de voorzijde van het station"},{"station":{"coordinate":{"lat":50.8386116027832,"lng":5.71722221374512},"countryCode":"NL","name":"Maastricht Randwyck","stationCode":"MTR","uicCode":"8400426"},"description":"vanaf de Universiteitssingel"},{"station":{"coordinate":{"lat":50.8502769470215,"lng":5.70555543899536},"countryCode":"NL","name":"Maastricht","stationCode":"MT","uicCode":"8400424"},"description":"vanaf het Stationsplein"}],"label":"Er rijden stopbussen van Visé, Eijsden, Maastricht Randwyck naar Maastricht.","shortLabel":"er rijden stopbussen Visé -> Eijsden -> Randwyck -> Maastricht"}},{"start":"2024-02-13T23:20:00+0100","end":"2024-02-14T01:00:00+0100","alternativeTransport":{"location":[{"station":{"coordinate":{"lat":50.8502769470215,"lng":5.70555543899536},"countryCode":"NL","name":"Maastricht","stationCode":"MT","uicCode":"8400424"},"description":"vanaf het Stationsplein"},{"station":{"coordinate":{"lat":50.8386116027832,"lng":5.71722221374512},"countryCode":"NL","name":"Maastricht Randwyck","stationCode":"MTR","uicCode":"8400426"},"description":"vanaf de Universiteitssingel"},{"station":{"coordinate":{"lat":50.7719459533691,"lng":5.71000003814697},"countryCode":"NL","name":"Eijsden","stationCode":"EDN","uicCode":"8400219"},"description":"vanaf de voorzijde van het station"}],"label":"Er rijden stopbussen van Maastricht, Maastricht Randwyck, Eijsden, Visé, Bressoux naar Liège-Guillemins.","shortLabel":"er rijden stopbussen Maastricht -> Randwyck -> Eijsden -> Visé -> Bressoux -> Liège-Guillemins"}},{"start":"2024-02-14T23:20:00+0100","end":"2024-02-15T01:00:00+0100","alternativeTransport":{"location":[{"station":{"coordinate":{"lat":50.7719459533691,"lng":5.71000003814697},"countryCode":"NL","name":"Eijsden","stationCode":"EDN","uicCode":"8400219"},"description":"vanaf de voorzijde van het station"},{"station":{"coordinate":{"lat":50.8386116027832,"lng":5.71722221374512},"countryCode":"NL","name":"Maastricht Randwyck","stationCode":"MTR","uicCode":"8400426"},"description":"vanaf de Universiteitssingel"},{"station":{"coordinate":{"lat":50.8502769470215,"lng":5.70555543899536},"countryCode":"NL","name":"Maastricht","stationCode":"MT","uicCode":"8400424"},"description":"vanaf het Stationsplein"}],"label":"Er rijden stopbussen van Visé, Eijsden, Maastricht Randwyck naar Maastricht.","shortLabel":"er rijden stopbussen Visé -> Eijsden -> Randwyck -> Maastricht"}},{"start":"2024-02-14T23:20:00+0100","end":"2024-02-15T01:00:00+0100","alternativeTransport":{"location":[{"station":{"coordinate":{"lat":50.8502769470215,"lng":5.70555543899536},"countryCode":"NL","name":"Maastricht","stationCode":"MT","uicCode":"8400424"},"description":"vanaf het Stationsplein"},{"station":{"coordinate":{"lat":50.8386116027832,"lng":5.71722221374512},"countryCode":"NL","name":"Maastricht Randwyck","stationCode":"MTR","uicCode":"8400426"},"description":"vanaf de Universiteitssingel"},{"station":{"coordinate":{"lat":50.7719459533691,"lng":5.71000003814697},"countryCode":"NL","name":"Eijsden","stationCode":"EDN","uicCode":"8400219"},"description":"vanaf de voorzijde van het station"}],"label":"Er rijden stopbussen van Maastricht, Maastricht Randwyck, Eijsden, Visé, Bressoux naar Liège-Guillemins.","shortLabel":"er rijden stopbussen Maastricht -> Randwyck -> Eijsden -> Visé -> Bressoux -> Liège-Guillemins"}},{"start":"2024-02-15T23:20:00+0100","end":"2024-02-16T01:00:00+0100","alternativeTransport":{"location":[{"station":{"coordinate":{"lat":50.7719459533691,"lng":5.71000003814697},"countryCode":"NL","name":"Eijsden","stationCode":"EDN","uicCode":"8400219"},"description":"vanaf de voorzijde van het station"},{"station":{"coordinate":{"lat":50.8386116027832,"lng":5.71722221374512},"countryCode":"NL","name":"Maastricht Randwyck","stationCode":"MTR","uicCode":"8400426"},"description":"vanaf de Universiteitssingel"},{"station":{"coordinate":{"lat":50.8502769470215,"lng":5.70555543899536},"countryCode":"NL","name":"Maastricht","stationCode":"MT","uicCode":"8400424"},"description":"vanaf het Stationsplein"}],"label":"Er rijden stopbussen van Visé, Eijsden, Maastricht Randwyck naar Maastricht.","shortLabel":"er rijden stopbussen Visé -> Eijsden -> Randwyck -> Maastricht"}},{"start":"2024-02-15T23:20:00+0100","end":"2024-02-16T01:00:00+0100","alternativeTransport":{"location":[{"station":{"coordinate":{"lat":50.8502769470215,"lng":5.70555543899536},"countryCode":"NL","name":"Maastricht","stationCode":"MT","uicCode":"8400424"},"description":"vanaf het Stationsplein"},{"station":{"coordinate":{"lat":50.8386116027832,"lng":5.71722221374512},"countryCode":"NL","name":"Maastricht Randwyck","stationCode":"MTR","uicCode":"8400426"},"description":"vanaf de Universiteitssingel"},{"station":{"coordinate":{"lat":50.7719459533691,"lng":5.71000003814697},"countryCode":"NL","name":"Eijsden","stationCode":"EDN","uicCode":"8400219"},"description":"vanaf de voorzijde van het station"}],"label":"Er rijden stopbussen van Maastricht, Maastricht Randwyck, Eijsden, Visé, Bressoux naar Liège-Guillemins.","shortLabel":"er rijden stopbussen Maastricht -> Randwyck -> Eijsden -> Visé -> Bressoux -> Liège-Guillemins"}},{"start":"2024-02-16T23:20:00+0100","end":"2024-02-17T01:00:00+0100","alternativeTransport":{"location":[{"station":{"coordinate":{"lat":50.7719459533691,"lng":5.71000003814697},"countryCode":"NL","name":"Eijsden","stationCode":"EDN","uicCode":"8400219"},"description":"vanaf de voorzijde van het station"},{"station":{"coordinate":{"lat":50.8386116027832,"lng":5.71722221374512},"countryCode":"NL","name":"Maastricht Randwyck","stationCode":"MTR","uicCode":"8400426"},"description":"vanaf de Universiteitssingel"},{"station":{"coordinate":{"lat":50.8502769470215,"lng":5.70555543899536},"countryCode":"NL","name":"Maastricht","stationCode":"MT","uicCode":"8400424"},"description":"vanaf het Stationsplein"}],"label":"Er rijden stopbussen van Visé, Eijsden, Maastricht Randwyck naar Maastricht.","shortLabel":"er rijden stopbussen Visé -> Eijsden -> Randwyck -> Maastricht"}},{"start":"2024-02-16T23:20:00+0100","end":"2024-02-17T01:00:00+0100","alternativeTransport":{"location":[{"station":{"coordinate":{"lat":50.8502769470215,"lng":5.70555543899536},"countryCode":"NL","name":"Maastricht","stationCode":"MT","uicCode":"8400424"},"description":"vanaf het Stationsplein"},{"station":{"coordinate":{"lat":50.8386116027832,"lng":5.71722221374512},"countryCode":"NL","name":"Maastricht Randwyck","stationCode":"MTR","uicCode":"8400426"},"description":"vanaf de Universiteitssingel"},{"station":{"coordinate":{"lat":50.7719459533691,"lng":5.71000003814697},"countryCode":"NL","name":"Eijsden","stationCode":"EDN","uicCode":"8400219"},"description":"vanaf de voorzijde van het station"}],"label":"Er rijden stopbussen van Maastricht, Maastricht Randwyck, Eijsden, Visé, Bressoux naar Liège-Guillemins.","shortLabel":"er rijden stopbussen Maastricht -> Randwyck -> Eijsden -> Visé -> Bressoux -> Liège-Guillemins"}}],"summaryAdditionalTravelTime":{"label":"De extra reistijd kan oplopen tot 30 minuten.","shortLabel":"extra reistijd tot 30 min.","maximumDurationInMinutes":30}},{"id":"7004412","isActive":true,"title":"Amsterdam - Utrecht.","type":"MAINTENANCE","registrationTime":"2024-02-15T15:46:28+0100","releaseTime":"2024-02-15T15:46:28+0100","local":false,"titleSections":[[{"type":"STATION","value":"Amsterdam C."},{"type":"ICON","value":"MAINTENANCE"},{"type":"STATION","value":"Utrecht C."}]],"start":"2024-02-14T01:00:00+0100","end":"2024-02-24T02:00:00+0100","period":"Woensdag 14 februari 1:00 uur t/m zaterdag 24 februari 2:00 uur.","impact":{"value":5},"publicationSections":[{"section":{"stations":[{"coordinate":{"lat":52.3788871765137,"lng":4.90027761459351},"countryCode":"NL","name":"Amsterdam Centraal","stationCode":"ASD","uicCode":"8400058"},{"coordinate":{"lat":52.3605537414551,"lng":4.93111133575439},"countryCode":"NL","name":"Amsterdam Muiderpoort","stationCode":"ASDM","uicCode":"8400060"},{"coordinate":{"lat":52.3466682434082,"lng":4.91777801513672},"countryCode":"NL","name":"Amsterdam Amstel","stationCode":"ASA","uicCode":"8400057"},{"coordinate":{"lat":52.3233337402344,"lng":4.93638896942139},"countryCode":"NL","name":"Duivendrecht","stationCode":"DVD","uicCode":"8400194"},{"coordinate":{"lat":52.3122215270996,"lng":4.94694423675537},"countryCode":"NL","name":"Amsterdam Bijlmer ArenA","stationCode":"ASB","uicCode":"8400074"},{"coordinate":{"lat":52.29844,"lng":4.95972},"countryCode":"NL","name":"Amsterdam Holendrecht","stationCode":"ASHD","uicCode":"8400231"},{"coordinate":{"lat":52.2785,"lng":4.977},"countryCode":"NL","name":"Abcoude","stationCode":"AC","uicCode":"8400047"},{"coordinate":{"lat":52.17149,"lng":4.9906},"countryCode":"NL","name":"Breukelen","stationCode":"BKL","uicCode":"8400133"},{"coordinate":{"lat":52.1352767944336,"lng":5.03361129760742},"countryCode":"NL","name":"Maarssen","stationCode":"MAS","uicCode":"8400419"},{"coordinate":{"lat":52.103055,"lng":5.09},"countryCode":"NL","name":"Utrecht Zuilen","stationCode":"UTZL","uicCode":"8400613"},{"coordinate":{"lat":52.0888900756836,"lng":5.11027765274048},"countryCode":"NL","name":"Utrecht Centraal","stationCode":"UT","uicCode":"8400621"}],"direction":"BOTH"},"consequence":{"section":{"stations":[{"coordinate":{"lat":52.3788871765137,"lng":4.90027761459351},"countryCode":"NL","name":"Amsterdam Centraal","stationCode":"ASD","uicCode":"8400058"},{"coordinate":{"lat":52.3605537414551,"lng":4.93111133575439},"countryCode":"NL","name":"Amsterdam Muiderpoort","stationCode":"ASDM","uicCode":"8400060"},{"coordinate":{"lat":52.3466682434082,"lng":4.91777801513672},"countryCode":"NL","name":"Amsterdam Amstel","stationCode":"ASA","uicCode":"8400057"},{"coordinate":{"lat":52.3233337402344,"lng":4.93638896942139},"countryCode":"NL","name":"Duivendrecht","stationCode":"DVD","uicCode":"8400194"},{"coordinate":{"lat":52.3122215270996,"lng":4.94694423675537},"countryCode":"NL","name":"Amsterdam Bijlmer ArenA","stationCode":"ASB","uicCode":"8400074"},{"coordinate":{"lat":52.29844,"lng":4.95972},"countryCode":"NL","name":"Amsterdam Holendrecht","stationCode":"ASHD","uicCode":"8400231"},{"coordinate":{"lat":52.2785,"lng":4.977},"countryCode":"NL","name":"Abcoude","stationCode":"AC","uicCode":"8400047"},{"coordinate":{"lat":52.17149,"lng":4.9906},"countryCode":"NL","name":"Breukelen","stationCode":"BKL","uicCode":"8400133"},{"coordinate":{"lat":52.1352767944336,"lng":5.03361129760742},"countryCode":"NL","name":"Maarssen","stationCode":"MAS","uicCode":"8400419"},{"coordinate":{"lat":52.103055,"lng":5.09},"countryCode":"NL","name":"Utrecht Zuilen","stationCode":"UTZL","uicCode":"8400613"},{"coordinate":{"lat":52.0888900756836,"lng":5.11027765274048},"countryCode":"NL","name":"Utrecht Centraal","stationCode":"UT","uicCode":"8400621"}],"direction":"ONE_WAY"},"description":"veel minder treinen","level":"LESS_TRAINS"},"sectionType":"NL"}],"timespans":[{"start":"2024-02-14T01:00:00+0100","end":"2024-02-17T01:15:00+0100","period":"Woensdag 14 februari 1:00 uur t/m zaterdag 17 februari 1:15 uur.","situation":{"label":"Door werkzaamheden: tussen Amsterdam Centraal en Utrecht Centraal rijden er veel minder treinen."},"cause":{"label":"werkzaamheden"},"additionalTravelTime":{"label":"De extra reistijd kan oplopen tot 30 minuten.","shortLabel":"extra reistijd tot 30 min.","maximumDurationInMinutes":30},"advices":["tussen Utrecht C. en Hoorn/Uitgeest reis via Schiphol Airport"]},{"start":"2024-02-17T01:15:00+0100","end":"2024-02-19T02:00:00+0100","period":"Zaterdag 17 februari 1:15 uur t/m maandag 19 februari 2:00 uur.","situation":{"label":"Door werkzaamheden: tussen Amsterdam Centraal en Utrecht Centraal rijden er veel minder treinen."},"cause":{"label":"werkzaamheden"},"additionalTravelTime":{"label":"De extra reistijd kan oplopen tot 30 minuten.","shortLabel":"extra reistijd tot 30 min.","maximumDurationInMinutes":30},"alternativeTransport":{"label":"maak gebruik van het vervangende vervoer","shortLabel":"gebruik het vervangende vervoer"},"advices":["Uw NS-vervoerbewijs is geldig in metrolijnen 51, 53 en 54 tussen Amsterdam Centraal en Amsterdam Amstel.","tussen Utrecht C. en Hoorn/Uitgeest reis via Schiphol Airport"]},{"start":"2024-02-19T02:00:00+0100","end":"2024-02-24T02:00:00+0100","period":"Maandag 19 februari 2:00 uur t/m zaterdag 24 februari 2:00 uur.","situation":{"label":"Door werkzaamheden: tussen Amsterdam Centraal en Utrecht Centraal rijden er veel minder treinen."},"cause":{"label":"werkzaamheden"},"additionalTravelTime":{"label":"De extra reistijd kan oplopen tot 30 minuten.","shortLabel":"extra reistijd tot 30 min.","maximumDurationInMinutes":30},"advices":["tussen Utrecht C. en Hoorn/Uitgeest reis via Schiphol Airport"]}],"alternativeTransportTimespans":[{"start":"2024-02-17T01:15:00+0100","end":"2024-02-17T01:45:00+0100","alternativeTransport":{"location":[{"station":{"coordinate":{"lat":52.3788871765137,"lng":4.90027761459351},"countryCode":"NL","name":"Amsterdam Centraal","stationCode":"ASD","uicCode":"8400058"},"description":"vanaf het busstation"},{"station":{"coordinate":{"lat":52.3122215270996,"lng":4.94694423675537},"countryCode":"NL","name":"Amsterdam Bijlmer ArenA","stationCode":"ASB","uicCode":"8400074"},"description":"vanaf het busstation"}],"label":"Er rijden stopbussen tussen Amsterdam Centraal en Amsterdam Bijlmer ArenA.","shortLabel":"er rijden stopbussen Amsterdam C. - Bijlmer ArenA"}},{"start":"2024-02-17T04:00:00+0100","end":"2024-02-19T02:00:00+0100","alternativeTransport":{"location":[],"label":"Maak gebruik van de Amsterdamse metro tussen Amsterdam Centraal en Amsterdam Amstel.","shortLabel":"gebruik de Amsterdamse metro Amsterdam C. - Amstel"}},{"start":"2024-02-18T01:15:00+0100","end":"2024-02-18T01:45:00+0100","alternativeTransport":{"location":[{"station":{"coordinate":{"lat":52.3788871765137,"lng":4.90027761459351},"countryCode":"NL","name":"Amsterdam Centraal","stationCode":"ASD","uicCode":"8400058"},"description":"vanaf het busstation"},{"station":{"coordinate":{"lat":52.3122215270996,"lng":4.94694423675537},"countryCode":"NL","name":"Amsterdam Bijlmer ArenA","stationCode":"ASB","uicCode":"8400074"},"description":"vanaf het busstation"}],"label":"Er rijden stopbussen tussen Amsterdam Centraal en Amsterdam Bijlmer ArenA.","shortLabel":"er rijden stopbussen Amsterdam C. - Bijlmer ArenA"}},{"start":"2024-02-19T01:15:00+0100","end":"2024-02-19T01:45:00+0100","alternativeTransport":{"location":[{"station":{"coordinate":{"lat":52.3788871765137,"lng":4.90027761459351},"countryCode":"NL","name":"Amsterdam Centraal","stationCode":"ASD","uicCode":"8400058"},"description":"vanaf het busstation"},{"station":{"coordinate":{"lat":52.3122215270996,"lng":4.94694423675537},"countryCode":"NL","name":"Amsterdam Bijlmer ArenA","stationCode":"ASB","uicCode":"8400074"},"description":"vanaf het busstation"}],"label":"Er rijden stopbussen tussen Amsterdam Centraal en Amsterdam Bijlmer ArenA.","shortLabel":"er rijden stopbussen Amsterdam C. - Bijlmer ArenA"}}],"summaryAdditionalTravelTime":{"label":"De extra reistijd kan oplopen tot 30 minuten.","shortLabel":"extra reistijd tot 30 min.","maximumDurationInMinutes":30}},{"id":"7004549","isActive":true,"title":"Amsterdam - Haarlem.","type":"MAINTENANCE","registrationTime":"2024-02-14T09:05:22+0100","releaseTime":"2024-02-14T09:05:22+0100","local":false,"titleSections":[[{"type":"STATION","value":"Amsterdam C."},{"type":"ICON","value":"MAINTENANCE"},{"type":"STATION","value":"Haarlem"}]],"start":"2024-02-14T04:00:00+0100","end":"2024-02-16T02:00:00+0100","period":"Woensdag 14 februari 4:00 uur t/m vrijdag 16 februari 2:00 uur.","impact":{"value":4},"publicationSections":[{"section":{"stations":[{"coordinate":{"lat":52.3788871765137,"lng":4.90027761459351},"countryCode":"NL","name":"Amsterdam Centraal","stationCode":"ASD","uicCode":"8400058"},{"coordinate":{"lat":52.3888893127441,"lng":4.83777761459351},"countryCode":"NL","name":"Amsterdam Sloterdijk","stationCode":"ASS","uicCode":"8400059"},{"coordinate":{"lat":52.385935,"lng":4.747165},"countryCode":"NL","name":"Halfweg-Zwanenburg","stationCode":"HWZB","uicCode":"8400400"},{"coordinate":{"lat":52.3827781677246,"lng":4.67305564880371},"countryCode":"NL","name":"Haarlem Spaarnwoude","stationCode":"HLMS","uicCode":"8400270"},{"coordinate":{"lat":52.3877792358398,"lng":4.63833332061768},"countryCode":"NL","name":"Haarlem","stationCode":"HLM","uicCode":"8400285"}],"direction":"BOTH"},"consequence":{"section":{"stations":[{"coordinate":{"lat":52.3788871765137,"lng":4.90027761459351},"countryCode":"NL","name":"Amsterdam Centraal","stationCode":"ASD","uicCode":"8400058"},{"coordinate":{"lat":52.3888893127441,"lng":4.83777761459351},"countryCode":"NL","name":"Amsterdam Sloterdijk","stationCode":"ASS","uicCode":"8400059"},{"coordinate":{"lat":52.385935,"lng":4.747165},"countryCode":"NL","name":"Halfweg-Zwanenburg","stationCode":"HWZB","uicCode":"8400400"},{"coordinate":{"lat":52.3827781677246,"lng":4.67305564880371},"countryCode":"NL","name":"Haarlem Spaarnwoude","stationCode":"HLMS","uicCode":"8400270"},{"coordinate":{"lat":52.3877792358398,"lng":4.63833332061768},"countryCode":"NL","name":"Haarlem","stationCode":"HLM","uicCode":"8400285"}],"direction":"ONE_WAY"},"description":"kortere treinen dan gebruikelijk","level":"LESS_TRAINS"},"sectionType":"NL"}],"timespans":[{"start":"2024-02-14T04:00:00+0100","end":"2024-02-16T02:00:00+0100","period":"Woensdag 14 februari 4:00 uur t/m vrijdag 16 februari 2:00 uur.","situation":{"label":"Door werkzaamheden: tussen Amsterdam Centraal en Haarlem rijden er kortere treinen dan gebruikelijk."},"cause":{"label":"werkzaamheden"},"additionalTravelTime":{"label":"De extra reistijd is ongeveer 0 minuten.","shortLabel":"extra reistijd 0 min.","minimumDurationInMinutes":0,"maximumDurationInMinutes":0},"advices":["NS verwacht extra drukte in de treinen. Reis indien mogelijk om.","tussen Utrecht C. en Haarlem reis via Leiden C.","tussen Amsterdam C. en Leiden C./Den Haag C. reis via Schiphol Airport"]}],"alternativeTransportTimespans":[],"summaryAdditionalTravelTime":{"label":"De extra reistijd is ongeveer 0 minuten.","shortLabel":"extra reistijd 0 min.","minimumDurationInMinutes":0,"maximumDurationInMinutes":0}},{"id":"7004569","isActive":true,"title":"Hoofddorp - Schiphol - Hilversum; Utrecht - Almere.","type":"MAINTENANCE","registrationTime":"2024-02-14T11:27:11+0100","releaseTime":"2024-02-14T11:27:11+0100","local":false,"titleSections":[[{"type":"STATION","value":"Hoofddorp"},{"type":"ICON","value":"MAINTENANCE"},{"type":"STATION","value":"Hilversum"}],[{"type":"STATION","value":"Utrecht C."},{"type":"ICON","value":"MAINTENANCE"},{"type":"STATION","value":"Almere C."}]],"start":"2024-02-14T11:20:00+0100","end":"2024-02-16T02:00:00+0100","period":"Woensdag 14 februari 11:20 uur t/m vrijdag 16 februari 2:00 uur.","impact":{"value":2},"publicationSections":[{"section":{"stations":[{"coordinate":{"lat":52.2933349609375,"lng":4.70055532455444},"countryCode":"NL","name":"Hoofddorp","stationCode":"HFD","uicCode":"8400332"},{"coordinate":{"lat":52.3094444274902,"lng":4.76194429397583},"countryCode":"NL","name":"Schiphol Airport","stationCode":"SHL","uicCode":"8400561"},{"coordinate":{"lat":52.338889,"lng":4.872356},"countryCode":"NL","name":"Amsterdam Zuid","stationCode":"ASDZ","uicCode":"8400061"},{"coordinate":{"lat":52.3372230529785,"lng":4.89027786254883},"countryCode":"NL","name":"Amsterdam RAI","stationCode":"RAI","uicCode":"8400056"},{"coordinate":{"lat":52.3233337402344,"lng":4.93638896942139},"countryCode":"NL","name":"Duivendrecht","stationCode":"DVD","uicCode":"8400194"},{"coordinate":{"lat":52.3302764892578,"lng":4.95583343505859},"countryCode":"NL","name":"Diemen Zuid","stationCode":"DMNZ","uicCode":"8400163"},{"coordinate":{"lat":52.3127784729004,"lng":5.04305553436279},"countryCode":"NL","name":"Weesp","stationCode":"WP","uicCode":"8400685"},{"coordinate":{"lat":52.2802772521973,"lng":5.15694427490234},"countryCode":"NL","name":"Naarden-Bussum","stationCode":"NDB","uicCode":"8400452"},{"coordinate":{"lat":52.2658348083496,"lng":5.16305541992188},"countryCode":"NL","name":"Bussum Zuid","stationCode":"BSMZ","uicCode":"8400145"},{"coordinate":{"lat":52.2380561828613,"lng":5.17388868331909},"countryCode":"NL","name":"Hilversum Media Park","stationCode":"HVSM","uicCode":"8400324"},{"coordinate":{"lat":52.2258338928223,"lng":5.18194437026978},"countryCode":"NL","name":"Hilversum","stationCode":"HVS","uicCode":"8400322"}],"direction":"BOTH"},"consequence":{"section":{"stations":[{"coordinate":{"lat":52.2933349609375,"lng":4.70055532455444},"countryCode":"NL","name":"Hoofddorp","stationCode":"HFD","uicCode":"8400332"},{"coordinate":{"lat":52.3094444274902,"lng":4.76194429397583},"countryCode":"NL","name":"Schiphol Airport","stationCode":"SHL","uicCode":"8400561"},{"coordinate":{"lat":52.338889,"lng":4.872356},"countryCode":"NL","name":"Amsterdam Zuid","stationCode":"ASDZ","uicCode":"8400061"},{"coordinate":{"lat":52.3372230529785,"lng":4.89027786254883},"countryCode":"NL","name":"Amsterdam RAI","stationCode":"RAI","uicCode":"8400056"},{"coordinate":{"lat":52.3233337402344,"lng":4.93638896942139},"countryCode":"NL","name":"Duivendrecht","stationCode":"DVD","uicCode":"8400194"},{"coordinate":{"lat":52.3302764892578,"lng":4.95583343505859},"countryCode":"NL","name":"Diemen Zuid","stationCode":"DMNZ","uicCode":"8400163"},{"coordinate":{"lat":52.3127784729004,"lng":5.04305553436279},"countryCode":"NL","name":"Weesp","stationCode":"WP","uicCode":"8400685"},{"coordinate":{"lat":52.2802772521973,"lng":5.15694427490234},"countryCode":"NL","name":"Naarden-Bussum","stationCode":"NDB","uicCode":"8400452"},{"coordinate":{"lat":52.2658348083496,"lng":5.16305541992188},"countryCode":"NL","name":"Bussum Zuid","stationCode":"BSMZ","uicCode":"8400145"},{"coordinate":{"lat":52.2380561828613,"lng":5.17388868331909},"countryCode":"NL","name":"Hilversum Media Park","stationCode":"HVSM","uicCode":"8400324"},{"coordinate":{"lat":52.2258338928223,"lng":5.18194437026978},"countryCode":"NL","name":"Hilversum","stationCode":"HVS","uicCode":"8400322"}],"direction":"ONE_WAY"},"description":"dienstregeling aangepast","level":"LESS_TRAINS"},"sectionType":"NL"},{"section":{"stations":[{"coordinate":{"lat":52.0888900756836,"lng":5.11027765274048},"countryCode":"NL","name":"Utrecht Centraal","stationCode":"UT","uicCode":"8400621"},{"coordinate":{"lat":52.1100006103516,"lng":5.12472200393677},"countryCode":"NL","name":"Utrecht Overvecht","stationCode":"UTO","uicCode":"8400620"},{"coordinate":{"lat":52.1777763366699,"lng":5.17916679382324},"countryCode":"NL","name":"Hollandsche Rading","stationCode":"HOR","uicCode":"8400327"},{"coordinate":{"lat":52.2161102294922,"lng":5.18722200393677},"countryCode":"NL","name":"Hilversum Sportpark","stationCode":"HVSP","uicCode":"8400570"},{"coordinate":{"lat":52.2258338928223,"lng":5.18194437026978},"countryCode":"NL","name":"Hilversum","stationCode":"HVS","uicCode":"8400322"},{"coordinate":{"lat":52.2380561828613,"lng":5.17388868331909},"countryCode":"NL","name":"Hilversum Media Park","stationCode":"HVSM","uicCode":"8400324"},{"coordinate":{"lat":52.2658348083496,"lng":5.16305541992188},"countryCode":"NL","name":"Bussum Zuid","stationCode":"BSMZ","uicCode":"8400145"},{"coordinate":{"lat":52.2802772521973,"lng":5.15694427490234},"countryCode":"NL","name":"Naarden-Bussum","stationCode":"NDB","uicCode":"8400452"},{"coordinate":{"lat":52.342778,"lng":5.151944},"countryCode":"NL","name":"Almere Poort","stationCode":"AMPO","uicCode":"8400450"},{"coordinate":{"lat":52.3675003051758,"lng":5.19027757644653},"countryCode":"NL","name":"Almere Muziekwijk","stationCode":"ALMM","uicCode":"8400082"},{"coordinate":{"lat":52.37503,"lng":5.21764},"countryCode":"NL","name":"Almere Centrum","stationCode":"ALM","uicCode":"8400080"}],"direction":"BOTH"},"consequence":{"section":{"stations":[{"coordinate":{"lat":52.0888900756836,"lng":5.11027765274048},"countryCode":"NL","name":"Utrecht Centraal","stationCode":"UT","uicCode":"8400621"},{"coordinate":{"lat":52.1100006103516,"lng":5.12472200393677},"countryCode":"NL","name":"Utrecht Overvecht","stationCode":"UTO","uicCode":"8400620"},{"coordinate":{"lat":52.1777763366699,"lng":5.17916679382324},"countryCode":"NL","name":"Hollandsche Rading","stationCode":"HOR","uicCode":"8400327"},{"coordinate":{"lat":52.2161102294922,"lng":5.18722200393677},"countryCode":"NL","name":"Hilversum Sportpark","stationCode":"HVSP","uicCode":"8400570"},{"coordinate":{"lat":52.2258338928223,"lng":5.18194437026978},"countryCode":"NL","name":"Hilversum","stationCode":"HVS","uicCode":"8400322"},{"coordinate":{"lat":52.2380561828613,"lng":5.17388868331909},"countryCode":"NL","name":"Hilversum Media Park","stationCode":"HVSM","uicCode":"8400324"},{"coordinate":{"lat":52.2658348083496,"lng":5.16305541992188},"countryCode":"NL","name":"Bussum Zuid","stationCode":"BSMZ","uicCode":"8400145"},{"coordinate":{"lat":52.2802772521973,"lng":5.15694427490234},"countryCode":"NL","name":"Naarden-Bussum","stationCode":"NDB","uicCode":"8400452"},{"coordinate":{"lat":52.342778,"lng":5.151944},"countryCode":"NL","name":"Almere Poort","stationCode":"AMPO","uicCode":"8400450"},{"coordinate":{"lat":52.3675003051758,"lng":5.19027757644653},"countryCode":"NL","name":"Almere Muziekwijk","stationCode":"ALMM","uicCode":"8400082"},{"coordinate":{"lat":52.37503,"lng":5.21764},"countryCode":"NL","name":"Almere Centrum","stationCode":"ALM","uicCode":"8400080"}],"direction":"ONE_WAY"},"description":"dienstregeling aangepast","level":"LESS_TRAINS"},"sectionType":"NL"}],"timespans":[{"start":"2024-02-14T11:20:00+0100","end":"2024-02-16T02:00:00+0100","period":"Woensdag 14 februari 11:20 uur t/m vrijdag 16 februari 2:00 uur.","situation":{"label":"Door werkzaamheden: tussen Hoofddorp en Hilversum is de dienstregeling aangepast en tussen Utrecht Centraal en Almere Centrum is de dienstregeling aangepast."},"cause":{"label":"werkzaamheden"},"additionalTravelTime":{"label":"De extra reistijd kan oplopen tot 15 minuten.","shortLabel":"extra reistijd tot 15 min.","maximumDurationInMinutes":15},"advices":[]}],"alternativeTransportTimespans":[],"summaryAdditionalTravelTime":{"label":"De extra reistijd kan oplopen tot 15 minuten.","shortLabel":"extra reistijd tot 15 min.","maximumDurationInMinutes":15}},{"id":"7004409","isActive":true,"title":"Eindhoven - Roermond.","type":"MAINTENANCE","registrationTime":"2024-01-11T10:42:41+0100","releaseTime":"2024-01-11T10:42:41+0100","local":false,"titleSections":[[{"type":"STATION","value":"Eindhoven C."},{"type":"STATION","value":"Weert"},{"type":"ICON","value":"MAINTENANCE"},{"type":"STATION","value":"Roermond"}]],"start":"2024-02-15T01:00:00+0100","end":"2024-02-19T02:00:00+0100","period":"Donderdag 15 februari 1:00 uur t/m maandag 19 februari 2:00 uur.","impact":{"value":5},"publicationSections":[{"section":{"stations":[{"coordinate":{"lat":51.4433326721191,"lng":5.48138904571533},"countryCode":"NL","name":"Eindhoven Centraal","stationCode":"EHV","uicCode":"8400206"},{"coordinate":{"lat":51.4197235107422,"lng":5.55055570602417},"countryCode":"NL","name":"Geldrop","stationCode":"GP","uicCode":"8400245"},{"coordinate":{"lat":51.3849983215332,"lng":5.56944465637207},"countryCode":"NL","name":"Heeze","stationCode":"HZE","uicCode":"8400308"},{"coordinate":{"lat":51.304986,"lng":5.629796},"countryCode":"NL","name":"Maarheeze","stationCode":"MZ","uicCode":"8400432"},{"coordinate":{"lat":51.2486114501953,"lng":5.70361089706421},"countryCode":"NL","name":"Weert","stationCode":"WT","uicCode":"8400684"},{"coordinate":{"lat":51.1930541992188,"lng":5.9941668510437},"countryCode":"NL","name":"Roermond","stationCode":"RM","uicCode":"8400523"}],"direction":"BOTH"},"consequence":{"section":{"stations":[{"coordinate":{"lat":51.2486114501953,"lng":5.70361089706421},"countryCode":"NL","name":"Weert","stationCode":"WT","uicCode":"8400684"},{"coordinate":{"lat":51.1930541992188,"lng":5.9941668510437},"countryCode":"NL","name":"Roermond","stationCode":"RM","uicCode":"8400523"}],"direction":"ONE_WAY"},"description":"rijden bussen","level":"LESS_TRAINS"},"sectionType":"NL"}],"timespans":[{"start":"2024-02-15T01:00:00+0100","end":"2024-02-19T02:00:00+0100","period":"Donderdag 15 februari 1:00 uur t/m maandag 19 februari 2:00 uur.","situation":{"label":"Door werkzaamheden: tussen Weert en Roermond rijden er bussen."},"cause":{"label":"werkzaamheden"},"additionalTravelTime":{"label":"De extra reistijd kan oplopen tot 30 minuten.","shortLabel":"extra reistijd tot 30 min.","maximumDurationInMinutes":30},"alternativeTransport":{"label":"er rijden snelbussen","shortLabel":"er rijden snelbussen"},"advices":["Op 17/18 feb ook geen treinen Swalmen en Roermond. En za ochtend + zo avond tussen Roermond en Echt."]}],"alternativeTransportTimespans":[{"start":"2024-02-15T01:00:00+0100","end":"2024-02-17T02:00:00+0100","alternativeTransport":{"location":[{"station":{"coordinate":{"lat":51.2486114501953,"lng":5.70361089706421},"countryCode":"NL","name":"Weert","stationCode":"WT","uicCode":"8400684"},"description":"vanaf het Q-park terrein"},{"station":{"coordinate":{"lat":51.0016670227051,"lng":5.85861110687256},"countryCode":"NL","name":"Sittard","stationCode":"STD","uicCode":"8400564"},"description":"vanaf de achterzijde van het station"}],"label":"Er rijden snelbussen tussen Weert en Sittard.","shortLabel":"er rijden snelbussen Weert - Sittard"}},{"start":"2024-02-15T01:00:00+0100","end":"2024-02-17T02:00:00+0100","alternativeTransport":{"location":[{"station":{"coordinate":{"lat":51.2486114501953,"lng":5.70361089706421},"countryCode":"NL","name":"Weert","stationCode":"WT","uicCode":"8400684"},"description":"vanaf het Q-park terrein"},{"station":{"coordinate":{"lat":51.1930541992188,"lng":5.9941668510437},"countryCode":"NL","name":"Roermond","stationCode":"RM","uicCode":"8400523"},"description":"vanaf het busstation"}],"label":"Er rijden snelbussen tussen Weert en Roermond.","shortLabel":"er rijden snelbussen Weert - Roermond"}},{"start":"2024-02-17T02:01:00+0100","end":"2024-02-19T02:00:00+0100","alternativeTransport":{"location":[{"station":{"coordinate":{"lat":51.2486114501953,"lng":5.70361089706421},"countryCode":"NL","name":"Weert","stationCode":"WT","uicCode":"8400684"},"description":"vanaf het Q-park terrein"},{"station":{"coordinate":{"lat":51.0016670227051,"lng":5.85861110687256},"countryCode":"NL","name":"Sittard","stationCode":"STD","uicCode":"8400564"},"description":"vanaf de achterzijde van het station"}],"label":"Er rijden snelbussen tussen Weert en Sittard.","shortLabel":"er rijden snelbussen Weert - Sittard"}},{"start":"2024-02-17T02:01:00+0100","end":"2024-02-19T02:00:00+0100","alternativeTransport":{"location":[{"station":{"coordinate":{"lat":51.2486114501953,"lng":5.70361089706421},"countryCode":"NL","name":"Weert","stationCode":"WT","uicCode":"8400684"},"description":"vanaf het Q-park terrein"},{"station":{"coordinate":{"lat":51.1930541992188,"lng":5.9941668510437},"countryCode":"NL","name":"Roermond","stationCode":"RM","uicCode":"8400523"},"description":"vanaf het busstation"}],"label":"Er rijden snelbussen tussen Weert en Roermond.","shortLabel":"er rijden snelbussen Weert - Roermond"}}],"summaryAdditionalTravelTime":{"label":"De extra reistijd kan oplopen tot 30 minuten.","shortLabel":"extra reistijd tot 30 min.","maximumDurationInMinutes":30}},{"id":"7004577","isActive":true,"title":"Amsterdam - Köln - Frankfurt; Amsterdam - München - Innsbruck.","type":"MAINTENANCE","registrationTime":"2024-02-15T14:43:38+0100","releaseTime":"2024-02-15T14:43:38+0100","local":false,"titleSections":[[{"type":"STATION","value":"Amsterdam C."},{"type":"STATION","value":"Zevenaar"},{"type":"ICON","value":"MAINTENANCE"},{"type":"STATION","value":"Emmerich"},{"type":"STATION","value":"Frankfurt Hbf"}],[{"type":"STATION","value":"Amsterdam C."},{"type":"STATION","value":"Zevenaar"},{"type":"ICON","value":"MAINTENANCE"},{"type":"STATION","value":"Emmerich"},{"type":"STATION","value":"Innsbruck Hbf"}]],"start":"2024-02-15T14:45:00+0100","end":"2024-02-20T02:00:00+0100","period":"Donderdag 15 februari 14:45 uur t/m dinsdag 20 februari 2:00 uur.","impact":{"value":2},"publicationSections":[{"section":{"stations":[{"coordinate":{"lat":52.3788871765137,"lng":4.90027761459351},"countryCode":"NL","name":"Amsterdam Centraal","stationCode":"ASD","uicCode":"8400058"},{"coordinate":{"lat":52.3605537414551,"lng":4.93111133575439},"countryCode":"NL","name":"Amsterdam Muiderpoort","stationCode":"ASDM","uicCode":"8400060"},{"coordinate":{"lat":52.3466682434082,"lng":4.91777801513672},"countryCode":"NL","name":"Amsterdam Amstel","stationCode":"ASA","uicCode":"8400057"},{"coordinate":{"lat":52.3233337402344,"lng":4.93638896942139},"countryCode":"NL","name":"Duivendrecht","stationCode":"DVD","uicCode":"8400194"},{"coordinate":{"lat":52.3122215270996,"lng":4.94694423675537},"countryCode":"NL","name":"Amsterdam Bijlmer ArenA","stationCode":"ASB","uicCode":"8400074"},{"coordinate":{"lat":52.29844,"lng":4.95972},"countryCode":"NL","name":"Amsterdam Holendrecht","stationCode":"ASHD","uicCode":"8400231"},{"coordinate":{"lat":52.2785,"lng":4.977},"countryCode":"NL","name":"Abcoude","stationCode":"AC","uicCode":"8400047"},{"coordinate":{"lat":52.17149,"lng":4.9906},"countryCode":"NL","name":"Breukelen","stationCode":"BKL","uicCode":"8400133"},{"coordinate":{"lat":52.1352767944336,"lng":5.03361129760742},"countryCode":"NL","name":"Maarssen","stationCode":"MAS","uicCode":"8400419"},{"coordinate":{"lat":52.103055,"lng":5.09},"countryCode":"NL","name":"Utrecht Zuilen","stationCode":"UTZL","uicCode":"8400613"},{"coordinate":{"lat":52.0888900756836,"lng":5.11027765274048},"countryCode":"NL","name":"Utrecht Centraal","stationCode":"UT","uicCode":"8400621"},{"coordinate":{"lat":52.078889,"lng":5.121667},"countryCode":"NL","name":"Utrecht Vaartsche Rijn","stationCode":"UTVR","uicCode":"8400606"},{"coordinate":{"lat":52.0630569458008,"lng":5.19444465637207},"countryCode":"NL","name":"Bunnik","stationCode":"BNK","uicCode":"8400141"},{"coordinate":{"lat":52.0652770996094,"lng":5.25861120223999},"countryCode":"NL","name":"Driebergen-Zeist","stationCode":"DB","uicCode":"8400182"},{"coordinate":{"lat":52.0641670227051,"lng":5.36999988555908},"countryCode":"NL","name":"Maarn","stationCode":"MRN","uicCode":"8400417"},{"coordinate":{"lat":52.0458335876465,"lng":5.57388877868652},"countryCode":"NL","name":"Veenendaal-De Klomp","stationCode":"KLP","uicCode":"8400637"},{"coordinate":{"lat":52.0277786254883,"lng":5.67305564880371},"countryCode":"NL","name":"Ede-Wageningen","stationCode":"ED","uicCode":"8400200"},{"coordinate":{"lat":52.0055541992188,"lng":5.7936110496521},"countryCode":"NL","name":"Wolfheze","stationCode":"WF","uicCode":"8400704"},{"coordinate":{"lat":51.9949989318848,"lng":5.84000015258789},"countryCode":"NL","name":"Oosterbeek","stationCode":"OTB","uicCode":"8400489"},{"coordinate":{"lat":51.9850006103516,"lng":5.89916658401489},"countryCode":"NL","name":"Arnhem Centraal","stationCode":"AH","uicCode":"8400071"},{"coordinate":{"lat":51.985279083252,"lng":5.91944456100464},"countryCode":"NL","name":"Arnhem Velperpoort","stationCode":"AHP","uicCode":"8400072"},{"coordinate":{"lat":51.96286,"lng":5.9695},"countryCode":"NL","name":"Westervoort","stationCode":"WTV","uicCode":"8400688"},{"coordinate":{"lat":51.9433326721191,"lng":6.01472234725952},"countryCode":"NL","name":"Duiven","stationCode":"DVN","uicCode":"8400193"},{"coordinate":{"lat":51.9230537414551,"lng":6.07194423675537},"countryCode":"NL","name":"Zevenaar","stationCode":"ZV","uicCode":"8400735"},{"coordinate":{"lat":51.8743,"lng":6.15417},"countryCode":"D","name":"Emmerich-Elten","stationCode":"EL","uicCode":"8033415"},{"coordinate":{"lat":51.834283,"lng":6.255718},"countryCode":"D","name":"Emmerich","stationCode":"EM","uicCode":"8010288"},{"coordinate":{"lat":51.47512,"lng":6.852038},"countryCode":"D","name":"Oberhausen Hbf","stationCode":"OBERH","uicCode":"8010263"},{"coordinate":{"lat":51.4297785713316,"lng":6.77590370178222},"countryCode":"D","name":"Duisburg Hbf","stationCode":"DUISB","uicCode":"8010316"},{"coordinate":{"lat":51.220146,"lng":6.793137},"countryCode":"D","name":"Düsseldorf Hbf","stationCode":"DUSSEL","uicCode":"8008094"},{"coordinate":{"lat":50.940874,"lng":6.975001},"countryCode":"D","name":"Köln Messe/Deutz","stationCode":"KKD","uicCode":"8015561"},{"coordinate":{"lat":50.9432158,"lng":6.9589214},"countryCode":"D","name":"Köln Hbf","stationCode":"KOLN","uicCode":"8015458"},{"coordinate":{"lat":50.7939411,"lng":7.2030017},"countryCode":"D","name":"Siegburg/Bonn","stationCode":"KSB","uicCode":"8015588"},{"coordinate":{"lat":50.444834,"lng":7.825333},"countryCode":"D","name":"Montabaur","stationCode":"KMB","uicCode":"8019585"},{"coordinate":{"lat":50.382498,"lng":8.096112},"countryCode":"D","name":"Limburg Süd","stationCode":"FLB","uicCode":"8032572"},{"coordinate":{"lat":50.0531710299286,"lng":8.570237159729},"countryCode":"D","name":"Frankfurt Flughafen Fernb","stationCode":"FNAF","uicCode":"8061676"},{"coordinate":{"lat":50.1071222,"lng":8.6638338},"countryCode":"D","name":"Frankfurt (M) Hbf","stationCode":"FFFM","uicCode":"8011068"}],"direction":"BOTH"},"consequence":{"section":{"stations":[{"coordinate":{"lat":51.9230537414551,"lng":6.07194423675537},"countryCode":"NL","name":"Zevenaar","stationCode":"ZV","uicCode":"8400735"},{"coordinate":{"lat":51.8743,"lng":6.15417},"countryCode":"D","name":"Emmerich-Elten","stationCode":"EL","uicCode":"8033415"},{"coordinate":{"lat":51.834283,"lng":6.255718},"countryCode":"D","name":"Emmerich","stationCode":"EM","uicCode":"8010288"}],"direction":"ONE_WAY"},"description":"aangepaste internationale dienstregeling","level":"LESS_TRAINS"},"sectionType":"NEIGHBORING_COUNTRY"},{"section":{"stations":[{"coordinate":{"lat":52.3788871765137,"lng":4.90027761459351},"countryCode":"NL","name":"Amsterdam Centraal","stationCode":"ASD","uicCode":"8400058"},{"coordinate":{"lat":52.3605537414551,"lng":4.93111133575439},"countryCode":"NL","name":"Amsterdam Muiderpoort","stationCode":"ASDM","uicCode":"8400060"},{"coordinate":{"lat":52.3466682434082,"lng":4.91777801513672},"countryCode":"NL","name":"Amsterdam Amstel","stationCode":"ASA","uicCode":"8400057"},{"coordinate":{"lat":52.3233337402344,"lng":4.93638896942139},"countryCode":"NL","name":"Duivendrecht","stationCode":"DVD","uicCode":"8400194"},{"coordinate":{"lat":52.3122215270996,"lng":4.94694423675537},"countryCode":"NL","name":"Amsterdam Bijlmer ArenA","stationCode":"ASB","uicCode":"8400074"},{"coordinate":{"lat":52.29844,"lng":4.95972},"countryCode":"NL","name":"Amsterdam Holendrecht","stationCode":"ASHD","uicCode":"8400231"},{"coordinate":{"lat":52.2785,"lng":4.977},"countryCode":"NL","name":"Abcoude","stationCode":"AC","uicCode":"8400047"},{"coordinate":{"lat":52.17149,"lng":4.9906},"countryCode":"NL","name":"Breukelen","stationCode":"BKL","uicCode":"8400133"},{"coordinate":{"lat":52.1352767944336,"lng":5.03361129760742},"countryCode":"NL","name":"Maarssen","stationCode":"MAS","uicCode":"8400419"},{"coordinate":{"lat":52.103055,"lng":5.09},"countryCode":"NL","name":"Utrecht Zuilen","stationCode":"UTZL","uicCode":"8400613"},{"coordinate":{"lat":52.0888900756836,"lng":5.11027765274048},"countryCode":"NL","name":"Utrecht Centraal","stationCode":"UT","uicCode":"8400621"},{"coordinate":{"lat":52.078889,"lng":5.121667},"countryCode":"NL","name":"Utrecht Vaartsche Rijn","stationCode":"UTVR","uicCode":"8400606"},{"coordinate":{"lat":52.0630569458008,"lng":5.19444465637207},"countryCode":"NL","name":"Bunnik","stationCode":"BNK","uicCode":"8400141"},{"coordinate":{"lat":52.0652770996094,"lng":5.25861120223999},"countryCode":"NL","name":"Driebergen-Zeist","stationCode":"DB","uicCode":"8400182"},{"coordinate":{"lat":52.0641670227051,"lng":5.36999988555908},"countryCode":"NL","name":"Maarn","stationCode":"MRN","uicCode":"8400417"},{"coordinate":{"lat":52.0458335876465,"lng":5.57388877868652},"countryCode":"NL","name":"Veenendaal-De Klomp","stationCode":"KLP","uicCode":"8400637"},{"coordinate":{"lat":52.0277786254883,"lng":5.67305564880371},"countryCode":"NL","name":"Ede-Wageningen","stationCode":"ED","uicCode":"8400200"},{"coordinate":{"lat":52.0055541992188,"lng":5.7936110496521},"countryCode":"NL","name":"Wolfheze","stationCode":"WF","uicCode":"8400704"},{"coordinate":{"lat":51.9949989318848,"lng":5.84000015258789},"countryCode":"NL","name":"Oosterbeek","stationCode":"OTB","uicCode":"8400489"},{"coordinate":{"lat":51.9850006103516,"lng":5.89916658401489},"countryCode":"NL","name":"Arnhem Centraal","stationCode":"AH","uicCode":"8400071"},{"coordinate":{"lat":51.985279083252,"lng":5.91944456100464},"countryCode":"NL","name":"Arnhem Velperpoort","stationCode":"AHP","uicCode":"8400072"},{"coordinate":{"lat":51.96286,"lng":5.9695},"countryCode":"NL","name":"Westervoort","stationCode":"WTV","uicCode":"8400688"},{"coordinate":{"lat":51.9433326721191,"lng":6.01472234725952},"countryCode":"NL","name":"Duiven","stationCode":"DVN","uicCode":"8400193"},{"coordinate":{"lat":51.9230537414551,"lng":6.07194423675537},"countryCode":"NL","name":"Zevenaar","stationCode":"ZV","uicCode":"8400735"},{"coordinate":{"lat":51.8743,"lng":6.15417},"countryCode":"D","name":"Emmerich-Elten","stationCode":"EL","uicCode":"8033415"},{"coordinate":{"lat":51.834283,"lng":6.255718},"countryCode":"D","name":"Emmerich","stationCode":"EM","uicCode":"8010288"},{"coordinate":{"lat":51.47512,"lng":6.852038},"countryCode":"D","name":"Oberhausen Hbf","stationCode":"OBERH","uicCode":"8010263"},{"coordinate":{"lat":51.4297785713316,"lng":6.77590370178222},"countryCode":"D","name":"Duisburg Hbf","stationCode":"DUISB","uicCode":"8010316"},{"coordinate":{"lat":51.220146,"lng":6.793137},"countryCode":"D","name":"Düsseldorf Hbf","stationCode":"DUSSEL","uicCode":"8008094"},{"coordinate":{"lat":50.940874,"lng":6.975001},"countryCode":"D","name":"Köln Messe/Deutz","stationCode":"KKD","uicCode":"8015561"},{"coordinate":{"lat":50.9432158,"lng":6.9589214},"countryCode":"D","name":"Köln Hbf","stationCode":"KOLN","uicCode":"8015458"},{"coordinate":{"lat":50.943611,"lng":6.934444},"countryCode":"D","name":"Köln West","stationCode":"KKW","uicCode":"8015468"},{"coordinate":{"lat":50.7320141646745,"lng":7.09712505340576},"countryCode":"D","name":"Bonn Hbf","stationCode":"BONN","uicCode":"8015485"},{"coordinate":{"lat":50.001117,"lng":8.25872},"countryCode":"D","name":"Mainz Hbf","stationCode":"FMZ","uicCode":"8019051"},{"coordinate":{"lat":50.0531710299286,"lng":8.570237159729},"countryCode":"D","name":"Frankfurt Flughafen Fernb","stationCode":"FNAF","uicCode":"8061676"},{"coordinate":{"lat":50.099444,"lng":8.686389},"countryCode":"D","name":"Frankfurt (Main) Süd","stationCode":"FFS","uicCode":"8011065"},{"coordinate":{"lat":49.80179,"lng":9.9358},"countryCode":"D","name":"Würzburg Hbf","stationCode":"WURZB","uicCode":"8022534"},{"coordinate":{"lat":49.4449634,"lng":11.0826087},"countryCode":"D","name":"Nürnberg Hbf","stationCode":"NURNB","uicCode":"8022193"},{"coordinate":{"lat":48.3654307143927,"lng":10.88547706604},"countryCode":"D","name":"Augsburg Hbf","stationCode":"MA","uicCode":"8002140"},{"coordinate":{"lat":48.1402033359505,"lng":11.558346748352},"countryCode":"D","name":"München Hbf","stationCode":"MUNCHH","uicCode":"8020347"},{"coordinate":{"lat":47.85,"lng":12.119167},"countryCode":"D","name":"Rosenheim","stationCode":"ROSENH","uicCode":"8020174"},{"coordinate":{"lat":47.5831,"lng":12.16568},"countryCode":"A","name":"Kufstein","stationCode":"KUFST","uicCode":"8102184"},{"coordinate":{"lat":47.49178,"lng":12.06059},"countryCode":"A","name":"Wörgl Hbf","stationCode":"WORGL","uicCode":"8101170"},{"coordinate":{"lat":47.38844,"lng":11.77841},"countryCode":"A","name":"Jenbach","stationCode":"JENBAC","uicCode":"8101176"},{"coordinate":{"lat":47.26328,"lng":11.401},"countryCode":"A","name":"Innsbruck Hbf","stationCode":"INNSB","uicCode":"8101187"}],"direction":"BOTH"},"consequence":{"section":{"stations":[{"coordinate":{"lat":51.9230537414551,"lng":6.07194423675537},"countryCode":"NL","name":"Zevenaar","stationCode":"ZV","uicCode":"8400735"},{"coordinate":{"lat":51.8743,"lng":6.15417},"countryCode":"D","name":"Emmerich-Elten","stationCode":"EL","uicCode":"8033415"},{"coordinate":{"lat":51.834283,"lng":6.255718},"countryCode":"D","name":"Emmerich","stationCode":"EM","uicCode":"8010288"}],"direction":"ONE_WAY"},"description":"aangepaste internationale dienstregeling","level":"LESS_TRAINS"},"sectionType":"NEIGHBORING_COUNTRY"}],"timespans":[{"start":"2024-02-15T14:45:00+0100","end":"2024-02-20T02:00:00+0100","period":"Donderdag 15 februari 14:45 uur t/m dinsdag 20 februari 2:00 uur.","situation":{"label":"Door werkzaamheden: tussen Zevenaar en Emmerich is de internationale dienstregeling aangepast."},"cause":{"label":"werkzaamheden"},"additionalTravelTime":{"label":"U heeft geen langere reistijd.","shortLabel":"Geen extra reistijd"},"advices":["Dit kan gevolgen hebben voor uw reis. Plan uw reis in de (Internationale) app."]}],"alternativeTransportTimespans":[],"summaryAdditionalTravelTime":{"label":"U heeft geen langere reistijd.","shortLabel":"Geen extra reistijd"}},{"id":"7004419","isActive":false,"title":"Zwolle - Emmen.","type":"MAINTENANCE","registrationTime":"2024-01-22T14:05:41+0100","releaseTime":"2024-01-22T14:05:41+0100","local":false,"titleSections":[[{"type":"STATION","value":"Zwolle"},{"type":"ICON","value":"MAINTENANCE"},{"type":"STATION","value":"Dalfsen"},{"type":"STATION","value":"Emmen"}]],"start":"2024-02-17T01:00:00+0100","end":"2024-02-17T23:55:00+0100","period":"Zaterdag 17 februari 1:00 uur t/m zaterdag 17 februari 23:55 uur.","impact":{"value":3},"publicationSections":[{"section":{"stations":[{"coordinate":{"lat":52.5047225952148,"lng":6.09194421768188},"countryCode":"NL","name":"Zwolle","stationCode":"ZL","uicCode":"8400747"},{"coordinate":{"lat":52.4983329772949,"lng":6.25861120223999},"countryCode":"NL","name":"Dalfsen","stationCode":"DL","uicCode":"8400167"},{"coordinate":{"lat":52.5094451904297,"lng":6.41583347320557},"countryCode":"NL","name":"Ommen","stationCode":"OMN","uicCode":"8400487"},{"coordinate":{"lat":52.5094451904297,"lng":6.57527780532837},"countryCode":"NL","name":"Mariënberg","stationCode":"MRB","uicCode":"8400428"},{"coordinate":{"lat":52.5727767944336,"lng":6.62861108779907},"countryCode":"NL","name":"Hardenberg","stationCode":"HDB","uicCode":"8400293"},{"coordinate":{"lat":52.6091651916504,"lng":6.67583322525024},"countryCode":"NL","name":"Gramsbergen","stationCode":"GBG","uicCode":"8400259"},{"coordinate":{"lat":52.6636123657227,"lng":6.73555564880371},"countryCode":"NL","name":"Coevorden","stationCode":"CO","uicCode":"8400153"},{"coordinate":{"lat":52.6941680908203,"lng":6.75805568695068},"countryCode":"NL","name":"Dalen","stationCode":"DLN","uicCode":"8400161"},{"coordinate":{"lat":52.7186126708984,"lng":6.84861087799072},"countryCode":"NL","name":"Nieuw Amsterdam","stationCode":"NA","uicCode":"8400454"},{"coordinate":{"lat":52.7488663746914,"lng":6.87478065490722},"countryCode":"NL","name":"Emmen Zuid","stationCode":"EMNZ","uicCode":"8400407"},{"coordinate":{"lat":52.7900009155273,"lng":6.89944458007812},"countryCode":"NL","name":"Emmen","stationCode":"EMN","uicCode":"8400208"}],"direction":"BOTH"},"consequence":{"section":{"stations":[{"coordinate":{"lat":52.5047225952148,"lng":6.09194421768188},"countryCode":"NL","name":"Zwolle","stationCode":"ZL","uicCode":"8400747"},{"coordinate":{"lat":52.4983329772949,"lng":6.25861120223999},"countryCode":"NL","name":"Dalfsen","stationCode":"DL","uicCode":"8400167"}],"direction":"ONE_WAY"},"description":"rijden bussen","level":"LESS_TRAINS"},"sectionType":"NL"}],"timespans":[{"start":"2024-02-17T01:00:00+0100","end":"2024-02-17T23:55:00+0100","period":"Zaterdag 17 februari 1:00 uur t/m zaterdag 17 februari 23:55 uur.","situation":{"label":"Door werkzaamheden: tussen Zwolle en Dalfsen rijden er bussen."},"cause":{"label":"werkzaamheden"},"additionalTravelTime":{"label":"De extra reistijd kan oplopen tot 15 minuten.","shortLabel":"extra reistijd tot 15 min.","maximumDurationInMinutes":15},"alternativeTransport":{"label":"er rijden bussen","shortLabel":"er rijden bussen"},"advices":[]}],"alternativeTransportTimespans":[{"start":"2024-02-17T01:00:00+0100","end":"2024-02-17T23:55:00+0100","alternativeTransport":{"location":[{"station":{"coordinate":{"lat":52.5047225952148,"lng":6.09194421768188},"countryCode":"NL","name":"Zwolle","stationCode":"ZL","uicCode":"8400747"},"description":"vanaf de Hanzelaan, aan de zuidzijde van het station"},{"station":{"coordinate":{"lat":52.4983329772949,"lng":6.25861120223999},"countryCode":"NL","name":"Dalfsen","stationCode":"DL","uicCode":"8400167"},"description":"vanaf de bushalte"}],"label":"Er rijden bussen tussen Zwolle en Dalfsen.","shortLabel":"er rijden bussen Zwolle - Dalfsen"}}],"summaryAdditionalTravelTime":{"label":"De extra reistijd kan oplopen tot 15 minuten.","shortLabel":"extra reistijd tot 15 min.","maximumDurationInMinutes":15}},{"id":"7004459","isActive":false,"title":"Zwolle - Kampen.","type":"MAINTENANCE","registrationTime":"2024-01-25T11:09:02+0100","releaseTime":"2024-01-25T11:09:02+0100","local":false,"titleSections":[[{"type":"STATION","value":"Zwolle"},{"type":"ICON","value":"MAINTENANCE"},{"type":"STATION","value":"Kampen"}]],"start":"2024-02-17T01:10:00+0100","end":"2024-02-17T09:05:00+0100","period":"Zaterdag 17 februari 1:10 uur t/m zaterdag 17 februari 9:05 uur.","impact":{"value":3},"publicationSections":[{"section":{"stations":[{"coordinate":{"lat":52.5047225952148,"lng":6.09194421768188},"countryCode":"NL","name":"Zwolle","stationCode":"ZL","uicCode":"8400747"},{"coordinate":{"lat":52.52764,"lng":6.05146},"countryCode":"NL","name":"Zwolle Stadshagen","stationCode":"ZLSH","uicCode":"8400746"},{"coordinate":{"lat":52.5597229003906,"lng":5.92166662216186},"countryCode":"NL","name":"Kampen","stationCode":"KPN","uicCode":"8400353"}],"direction":"BOTH"},"consequence":{"section":{"stations":[{"coordinate":{"lat":52.5047225952148,"lng":6.09194421768188},"countryCode":"NL","name":"Zwolle","stationCode":"ZL","uicCode":"8400747"},{"coordinate":{"lat":52.52764,"lng":6.05146},"countryCode":"NL","name":"Zwolle Stadshagen","stationCode":"ZLSH","uicCode":"8400746"},{"coordinate":{"lat":52.5597229003906,"lng":5.92166662216186},"countryCode":"NL","name":"Kampen","stationCode":"KPN","uicCode":"8400353"}],"direction":"ONE_WAY"},"description":"rijden bussen","level":"LESS_TRAINS"},"sectionType":"NL"}],"timespans":[{"start":"2024-02-17T01:10:00+0100","end":"2024-02-17T09:05:00+0100","period":"Zaterdag 17 februari 1:10 uur t/m zaterdag 17 februari 9:05 uur.","situation":{"label":"Door werkzaamheden: tussen Zwolle en Kampen rijden er bussen."},"cause":{"label":"werkzaamheden"},"additionalTravelTime":{"label":"De extra reistijd kan oplopen tot 15 minuten.","shortLabel":"extra reistijd tot 15 min.","maximumDurationInMinutes":15},"alternativeTransport":{"label":"er rijden stopbussen","shortLabel":"er rijden stopbussen"},"advices":[]}],"alternativeTransportTimespans":[{"start":"2024-02-17T01:10:00+0100","end":"2024-02-17T09:05:00+0100","alternativeTransport":{"location":[{"station":{"coordinate":{"lat":52.5047225952148,"lng":6.09194421768188},"countryCode":"NL","name":"Zwolle","stationCode":"ZL","uicCode":"8400747"},"description":"vanaf de Hanzelaan, aan de zuidzijde van het station"},{"station":{"coordinate":{"lat":52.52764,"lng":6.05146},"countryCode":"NL","name":"Zwolle Stadshagen","stationCode":"ZLSH","uicCode":"8400746"},"description":"vanaf de haltes aan de Hasselterweg"},{"station":{"coordinate":{"lat":52.5597229003906,"lng":5.92166662216186},"countryCode":"NL","name":"Kampen","stationCode":"KPN","uicCode":"8400353"},"description":"vanaf de voorzijde van het station"}],"label":"Er rijden stopbussen tussen Zwolle, Zwolle Stadshagen en Kampen.","shortLabel":"er rijden stopbussen Zwolle - Stadshagen - Kampen"}}],"summaryAdditionalTravelTime":{"label":"De extra reistijd kan oplopen tot 15 minuten.","shortLabel":"extra reistijd tot 15 min.","maximumDurationInMinutes":15}},{"id":"7004448","isActive":false,"title":"Zwolle.","type":"MAINTENANCE","registrationTime":"2024-01-25T14:16:59+0100","releaseTime":"2024-01-25T14:16:59+0100","local":false,"titleSections":[[{"type":"STATION","value":"Zwolle"}]],"start":"2024-02-17T04:00:00+0100","end":"2024-02-18T02:00:00+0100","period":"Zaterdag 17 februari 4:00 uur t/m zondag 18 februari 2:00 uur.","impact":{"value":4},"publicationSections":[{"section":{"stations":[{"coordinate":{"lat":52.1538887023926,"lng":5.37055540084839},"countryCode":"NL","name":"Amersfoort Centraal","stationCode":"AMF","uicCode":"8400055"},{"coordinate":{"lat":52.1748221374512,"lng":5.40388870239258},"countryCode":"NL","name":"Amersfoort Schothorst","stationCode":"AMFS","uicCode":"8400054"},{"coordinate":{"lat":52.1927795410156,"lng":5.43388891220093},"countryCode":"NL","name":"Amersfoort Vathorst","stationCode":"AVAT","uicCode":"8400228"},{"coordinate":{"lat":52.2222213745117,"lng":5.49388885498047},"countryCode":"NL","name":"Nijkerk","stationCode":"NKK","uicCode":"8400469"},{"coordinate":{"lat":52.2649993896484,"lng":5.57527780532837},"countryCode":"NL","name":"Putten","stationCode":"PT","uicCode":"8400509"},{"coordinate":{"lat":52.3016662597656,"lng":5.61472225189209},"countryCode":"NL","name":"Ermelo","stationCode":"EML","uicCode":"8400216"},{"coordinate":{"lat":52.3375015258789,"lng":5.61972236633301},"countryCode":"NL","name":"Harderwijk","stationCode":"HD","uicCode":"8400294"},{"coordinate":{"lat":52.3708343505859,"lng":5.78527784347534},"countryCode":"NL","name":"Nunspeet","stationCode":"NS","uicCode":"8400466"},{"coordinate":{"lat":52.4091682,"lng":5.893611},"countryCode":"NL","name":"'t Harde","stationCode":"HDE","uicCode":"8400388"},{"coordinate":{"lat":52.4541664123535,"lng":6.00250005722046},"countryCode":"NL","name":"Wezep","stationCode":"WZ","uicCode":"8400690"},{"coordinate":{"lat":52.5047225952148,"lng":6.09194421768188},"countryCode":"NL","name":"Zwolle","stationCode":"ZL","uicCode":"8400747"}],"direction":"BOTH"},"consequence":{"section":{"stations":[{"coordinate":{"lat":52.5047225952148,"lng":6.09194421768188},"countryCode":"NL","name":"Zwolle","stationCode":"ZL","uicCode":"8400747"}],"direction":"ONE_WAY"},"description":"aangep. dienstregeling en businzet","level":"LESS_TRAINS"},"sectionType":"NL"},{"section":{"stations":[{"coordinate":{"lat":52.5047225952148,"lng":6.09194421768188},"countryCode":"NL","name":"Zwolle","stationCode":"ZL","uicCode":"8400747"},{"coordinate":{"lat":52.6908340454102,"lng":6.19750022888184},"countryCode":"NL","name":"Meppel","stationCode":"MP","uicCode":"8400435"},{"coordinate":{"lat":52.7338905334473,"lng":6.47361087799072},"countryCode":"NL","name":"Hoogeveen","stationCode":"HGV","uicCode":"8400330"},{"coordinate":{"lat":52.8547210693359,"lng":6.52111101150513},"countryCode":"NL","name":"Beilen","stationCode":"BL","uicCode":"8400100"},{"coordinate":{"lat":52.9916648864746,"lng":6.57083320617676},"countryCode":"NL","name":"Assen","stationCode":"ASN","uicCode":"8400073"},{"coordinate":{"lat":53.1761093139648,"lng":6.61722230911255},"countryCode":"NL","name":"Haren","stationCode":"HRN","uicCode":"8400297"},{"coordinate":{"lat":53.20480027,"lng":6.5854178},"countryCode":"NL","name":"Groningen Europapark","stationCode":"GERP","uicCode":"8400238"},{"coordinate":{"lat":53.2105560302734,"lng":6.56472206115723},"countryCode":"NL","name":"Groningen","stationCode":"GN","uicCode":"8400263"}],"direction":"BOTH"},"consequence":{"section":{"stations":[{"coordinate":{"lat":52.5047225952148,"lng":6.09194421768188},"countryCode":"NL","name":"Zwolle","stationCode":"ZL","uicCode":"8400747"}],"direction":"ONE_WAY"},"description":"aangep. dienstregeling en businzet","level":"LESS_TRAINS"},"sectionType":"NL"},{"section":{"stations":[{"coordinate":{"lat":52.5047225952148,"lng":6.09194421768188},"countryCode":"NL","name":"Zwolle","stationCode":"ZL","uicCode":"8400747"},{"coordinate":{"lat":52.6908340454102,"lng":6.19750022888184},"countryCode":"NL","name":"Meppel","stationCode":"MP","uicCode":"8400435"},{"coordinate":{"lat":52.7915109924316,"lng":6.11455576324463},"countryCode":"NL","name":"Steenwijk","stationCode":"SWK","uicCode":"8400578"},{"coordinate":{"lat":52.8808326721191,"lng":6.00361108779907},"countryCode":"NL","name":"Wolvega","stationCode":"WV","uicCode":"8400705"},{"coordinate":{"lat":52.9613876342773,"lng":5.91416645050049},"countryCode":"NL","name":"Heerenveen","stationCode":"HR","uicCode":"8400305"},{"coordinate":{"lat":53.0463905334473,"lng":5.84361124038696},"countryCode":"NL","name":"Akkrum","stationCode":"AKM","uicCode":"8400049"},{"coordinate":{"lat":53.0888900756836,"lng":5.82250022888184},"countryCode":"NL","name":"Grou-Jirnsum","stationCode":"GW","uicCode":"8400266"},{"coordinate":{"lat":53.1958351135254,"lng":5.79222202301025},"countryCode":"NL","name":"Leeuwarden","stationCode":"LW","uicCode":"8400387"}],"direction":"BOTH"},"consequence":{"section":{"stations":[{"coordinate":{"lat":52.5047225952148,"lng":6.09194421768188},"countryCode":"NL","name":"Zwolle","stationCode":"ZL","uicCode":"8400747"}],"direction":"ONE_WAY"},"description":"aangep. dienstregeling en businzet","level":"LESS_TRAINS"},"sectionType":"NL"},{"section":{"stations":[{"coordinate":{"lat":52.5047225952148,"lng":6.09194421768188},"countryCode":"NL","name":"Zwolle","stationCode":"ZL","uicCode":"8400747"},{"coordinate":{"lat":52.4272232055664,"lng":6.22111129760742},"countryCode":"NL","name":"Heino","stationCode":"HNO","uicCode":"8400310"},{"coordinate":{"lat":52.3916664123535,"lng":6.27750015258789},"countryCode":"NL","name":"Raalte","stationCode":"RAT","uicCode":"8400513"},{"coordinate":{"lat":52.366111,"lng":6.462},"countryCode":"NL","name":"Nijverdal","stationCode":"NVD","uicCode":"8400472"},{"coordinate":{"lat":52.3613891601562,"lng":6.59166669845581},"countryCode":"NL","name":"Wierden","stationCode":"WDN","uicCode":"8400691"},{"coordinate":{"lat":52.3580551147461,"lng":6.65388870239258},"countryCode":"NL","name":"Almelo","stationCode":"AML","uicCode":"8400051"}],"direction":"BOTH"},"consequence":{"section":{"stations":[{"coordinate":{"lat":52.5047225952148,"lng":6.09194421768188},"countryCode":"NL","name":"Zwolle","stationCode":"ZL","uicCode":"8400747"}],"direction":"ONE_WAY"},"description":"aangep. dienstregeling en businzet","level":"LESS_TRAINS"},"sectionType":"NL"}],"timespans":[{"start":"2024-02-17T04:00:00+0100","end":"2024-02-18T02:00:00+0100","period":"Zaterdag 17 februari 4:00 uur t/m zondag 18 februari 2:00 uur.","situation":{"label":"Door werkzaamheden: van, via en naar Zwolle is de dienstregeling aangepast en rijden er bussen."},"cause":{"label":"werkzaamheden"},"additionalTravelTime":{"label":"De extra reistijd kan oplopen tot 30 minuten.","shortLabel":"extra reistijd tot 30 min.","maximumDurationInMinutes":30},"alternativeTransport":{"label":"er rijden stop- en snelbussen","shortLabel":"er rijden stop- en snelbussen"},"advices":["Let op! Tot en met 25 februari zijn er werkzaamheden tussen Zwolle en Deventer."]}],"alternativeTransportTimespans":[{"start":"2024-02-17T04:00:00+0100","end":"2024-02-18T02:00:00+0100","alternativeTransport":{"location":[{"station":{"coordinate":{"lat":52.2574996948242,"lng":6.16055536270142},"countryCode":"NL","name":"Deventer","stationCode":"DV","uicCode":"8400173"},"description":"vanaf de Stationsstraat"},{"station":{"coordinate":{"lat":52.6908340454102,"lng":6.19750022888184},"countryCode":"NL","name":"Meppel","stationCode":"MP","uicCode":"8400435"},"description":"vanaf het P+R-terrein"}],"label":"Er rijden snelbussen tussen Deventer en Meppel.","shortLabel":"er rijden snelbussen Deventer - Meppel"}},{"start":"2024-02-17T04:00:00+0100","end":"2024-02-18T02:00:00+0100","alternativeTransport":{"location":[{"station":{"coordinate":{"lat":52.5047225952148,"lng":6.09194421768188},"countryCode":"NL","name":"Zwolle","stationCode":"ZL","uicCode":"8400747"},"description":"vanaf de Hanzelaan, aan de zuidzijde van het station"},{"station":{"coordinate":{"lat":52.4541664123535,"lng":6.00250005722046},"countryCode":"NL","name":"Wezep","stationCode":"WZ","uicCode":"8400690"},"description":"vanaf het busstation"},{"station":{"coordinate":{"lat":52.4091682,"lng":5.893611},"countryCode":"NL","name":"'t Harde","stationCode":"HDE","uicCode":"8400388"},"description":"vanaf de achterzijde van het station"},{"station":{"coordinate":{"lat":52.3708343505859,"lng":5.78527784347534},"countryCode":"NL","name":"Nunspeet","stationCode":"NS","uicCode":"8400466"},"description":"vanaf het P+R-terrein Nunspeet Natuurtransferium"}],"label":"Er rijden snelbussen tussen Zwolle, Wezep, 't Harde en Nunspeet.","shortLabel":"er rijden snelbussen Zwolle - Wezep - 't Harde - Nunspeet"}},{"start":"2024-02-17T04:00:00+0100","end":"2024-02-18T02:00:00+0100","alternativeTransport":{"location":[{"station":{"coordinate":{"lat":52.5047225952148,"lng":6.09194421768188},"countryCode":"NL","name":"Zwolle","stationCode":"ZL","uicCode":"8400747"},"description":"vanaf de Hanzelaan, aan de zuidzijde van het station"},{"station":{"coordinate":{"lat":52.6908340454102,"lng":6.19750022888184},"countryCode":"NL","name":"Meppel","stationCode":"MP","uicCode":"8400435"},"description":"vanaf het P+R-terrein"}],"label":"Er rijden snelbussen tussen Zwolle en Meppel.","shortLabel":"er rijden snelbussen Zwolle - Meppel"}},{"start":"2024-02-17T04:00:00+0100","end":"2024-02-18T02:00:00+0100","alternativeTransport":{"location":[{"station":{"coordinate":{"lat":52.5047225952148,"lng":6.09194421768188},"countryCode":"NL","name":"Zwolle","stationCode":"ZL","uicCode":"8400747"},"description":"vanaf de Hanzelaan, aan de zuidzijde van het station"},{"station":{"coordinate":{"lat":52.5331,"lng":5.91309},"countryCode":"NL","name":"Kampen Zuid","stationCode":"KPNZ","uicCode":"8400360"},"description":"vanaf de voorzijde van het station"}],"label":"Er rijden snelbussen tussen Zwolle en Kampen Zuid.","shortLabel":"er rijden snelbussen Zwolle - Kampen Zuid"}},{"start":"2024-02-17T04:00:00+0100","end":"2024-02-18T02:00:00+0100","alternativeTransport":{"location":[{"station":{"coordinate":{"lat":52.5047225952148,"lng":6.09194421768188},"countryCode":"NL","name":"Zwolle","stationCode":"ZL","uicCode":"8400747"},"description":"vanaf de Hanzelaan, aan de zuidzijde van het station"},{"station":{"coordinate":{"lat":52.4272232055664,"lng":6.22111129760742},"countryCode":"NL","name":"Heino","stationCode":"HNO","uicCode":"8400310"},"description":"vanaf het Marktplein"},{"station":{"coordinate":{"lat":52.3916664123535,"lng":6.27750015258789},"countryCode":"NL","name":"Raalte","stationCode":"RAT","uicCode":"8400513"},"description":"vanaf de voorzijde van het station"}],"label":"Er rijden stopbussen tussen Zwolle, Heino en Raalte.","shortLabel":"er rijden stopbussen Zwolle - Heino - Raalte"}}],"summaryAdditionalTravelTime":{"label":"De extra reistijd kan oplopen tot 30 minuten.","shortLabel":"extra reistijd tot 30 min.","maximumDurationInMinutes":30}},{"id":"7004402","isActive":false,"title":"Roermond - Sittard.","type":"MAINTENANCE","registrationTime":"2024-01-22T11:23:05+0100","releaseTime":"2024-01-22T11:23:05+0100","local":false,"titleSections":[[{"type":"STATION","value":"Roermond"},{"type":"ICON","value":"MAINTENANCE"},{"type":"STATION","value":"Echt"},{"type":"STATION","value":"Sittard"}]],"start":"2024-02-17T04:00:00+0100","end":"2024-02-19T02:00:00+0100","period":"Zaterdag 17 februari 4:00 uur t/m maandag 19 februari 2:00 uur.","impact":{"value":3},"publicationSections":[{"section":{"stations":[{"coordinate":{"lat":51.1930541992188,"lng":5.9941668510437},"countryCode":"NL","name":"Roermond","stationCode":"RM","uicCode":"8400523"},{"coordinate":{"lat":51.1005554199219,"lng":5.87888908386231},"countryCode":"NL","name":"Echt","stationCode":"EC","uicCode":"8400195"},{"coordinate":{"lat":51.0613899230957,"lng":5.86305570602417},"countryCode":"NL","name":"Susteren","stationCode":"SRN","uicCode":"8400582"},{"coordinate":{"lat":51.0016670227051,"lng":5.85861110687256},"countryCode":"NL","name":"Sittard","stationCode":"STD","uicCode":"8400564"}],"direction":"BOTH"},"consequence":{"section":{"stations":[{"coordinate":{"lat":51.1930541992188,"lng":5.9941668510437},"countryCode":"NL","name":"Roermond","stationCode":"RM","uicCode":"8400523"},{"coordinate":{"lat":51.1005554199219,"lng":5.87888908386231},"countryCode":"NL","name":"Echt","stationCode":"EC","uicCode":"8400195"}],"direction":"ONE_WAY"},"description":"rijden bussen","level":"LESS_TRAINS"},"sectionType":"NL"}],"timespans":[{"start":"2024-02-17T04:00:00+0100","end":"2024-02-17T13:30:00+0100","period":"Zaterdag 17 februari 4:00 uur t/m zaterdag 17 februari 13:30 uur.","situation":{"label":"Door werkzaamheden: tussen Roermond en Echt rijden er bussen."},"cause":{"label":"werkzaamheden"},"additionalTravelTime":{"label":"De extra reistijd kan oplopen tot 30 minuten.","shortLabel":"extra reistijd tot 30 min.","maximumDurationInMinutes":30},"alternativeTransport":{"label":"er rijden bussen","shortLabel":"er rijden bussen"},"advices":[]},{"start":"2024-02-18T20:30:00+0100","end":"2024-02-19T02:00:00+0100","period":"Zondag 18 februari 20:30 uur t/m maandag 19 februari 2:00 uur.","situation":{"label":"Door werkzaamheden: tussen Roermond en Echt rijden er bussen."},"cause":{"label":"werkzaamheden"},"additionalTravelTime":{"label":"De extra reistijd kan oplopen tot 30 minuten.","shortLabel":"extra reistijd tot 30 min.","maximumDurationInMinutes":30},"alternativeTransport":{"label":"er rijden bussen","shortLabel":"er rijden bussen"},"advices":[]}],"alternativeTransportTimespans":[{"start":"2024-02-17T04:00:00+0100","end":"2024-02-17T13:30:00+0100","alternativeTransport":{"location":[{"station":{"coordinate":{"lat":51.1930541992188,"lng":5.9941668510437},"countryCode":"NL","name":"Roermond","stationCode":"RM","uicCode":"8400523"},"description":"vanaf de OV-halte"},{"station":{"coordinate":{"lat":51.1005554199219,"lng":5.87888908386231},"countryCode":"NL","name":"Echt","stationCode":"EC","uicCode":"8400195"},"description":"vanaf de voorzijde van het station"}],"label":"Er rijden bussen tussen Roermond en Echt.","shortLabel":"er rijden bussen Roermond - Echt"}},{"start":"2024-02-18T20:30:00+0100","end":"2024-02-19T02:00:00+0100","alternativeTransport":{"location":[{"station":{"coordinate":{"lat":51.1930541992188,"lng":5.9941668510437},"countryCode":"NL","name":"Roermond","stationCode":"RM","uicCode":"8400523"},"description":"vanaf de OV-halte"},{"station":{"coordinate":{"lat":51.1005554199219,"lng":5.87888908386231},"countryCode":"NL","name":"Echt","stationCode":"EC","uicCode":"8400195"},"description":"vanaf de voorzijde van het station"}],"label":"Er rijden bussen tussen Roermond en Echt.","shortLabel":"er rijden bussen Roermond - Echt"}}],"summaryAdditionalTravelTime":{"label":"De extra reistijd kan oplopen tot 30 minuten.","shortLabel":"extra reistijd tot 30 min.","maximumDurationInMinutes":30}},{"id":"7004401","isActive":false,"title":"Venlo - Roermond.","type":"MAINTENANCE","registrationTime":"2024-01-22T11:22:27+0100","releaseTime":"2024-01-22T11:22:27+0100","local":false,"titleSections":[[{"type":"STATION","value":"Venlo"},{"type":"STATION","value":"Swalmen"},{"type":"ICON","value":"MAINTENANCE"},{"type":"STATION","value":"Roermond"}]],"start":"2024-02-17T04:00:00+0100","end":"2024-02-19T02:00:00+0100","period":"Zaterdag 17 februari 4:00 uur t/m maandag 19 februari 2:00 uur.","impact":{"value":4},"publicationSections":[{"section":{"stations":[{"coordinate":{"lat":51.3636093139648,"lng":6.17277765274048},"countryCode":"NL","name":"Venlo","stationCode":"VL","uicCode":"8400644"},{"coordinate":{"lat":51.33894,"lng":6.14253},"countryCode":"NL","name":"Tegelen","stationCode":"TG","uicCode":"8400591"},{"coordinate":{"lat":51.2832191665301,"lng":6.07895851135253},"countryCode":"NL","name":"Reuver","stationCode":"RV","uicCode":"8400518"},{"coordinate":{"lat":51.23582,"lng":6.03228},"countryCode":"NL","name":"Swalmen","stationCode":"SM","uicCode":"8400583"},{"coordinate":{"lat":51.1930541992188,"lng":5.9941668510437},"countryCode":"NL","name":"Roermond","stationCode":"RM","uicCode":"8400523"}],"direction":"BOTH"},"consequence":{"section":{"stations":[{"coordinate":{"lat":51.23582,"lng":6.03228},"countryCode":"NL","name":"Swalmen","stationCode":"SM","uicCode":"8400583"},{"coordinate":{"lat":51.1930541992188,"lng":5.9941668510437},"countryCode":"NL","name":"Roermond","stationCode":"RM","uicCode":"8400523"}],"direction":"ONE_WAY"},"description":"rijden bussen","level":"LESS_TRAINS"},"sectionType":"NL"}],"timespans":[{"start":"2024-02-17T04:00:00+0100","end":"2024-02-19T02:00:00+0100","period":"Zaterdag 17 februari 4:00 uur t/m maandag 19 februari 2:00 uur.","situation":{"label":"Door werkzaamheden: tussen Swalmen en Roermond rijden er bussen."},"cause":{"label":"werkzaamheden"},"additionalTravelTime":{"label":"De extra reistijd kan oplopen tot 30 minuten.","shortLabel":"extra reistijd tot 30 min.","maximumDurationInMinutes":30},"alternativeTransport":{"label":"er rijden bussen","shortLabel":"er rijden bussen"},"advices":[]}],"alternativeTransportTimespans":[{"start":"2024-02-17T04:00:00+0100","end":"2024-02-19T02:00:00+0100","alternativeTransport":{"location":[{"station":{"coordinate":{"lat":51.23582,"lng":6.03228},"countryCode":"NL","name":"Swalmen","stationCode":"SM","uicCode":"8400583"},"description":"vanaf de voorzijde van het station"},{"station":{"coordinate":{"lat":51.1930541992188,"lng":5.9941668510437},"countryCode":"NL","name":"Roermond","stationCode":"RM","uicCode":"8400523"},"description":"vanaf de OV-halte"}],"label":"Er rijden bussen tussen Swalmen en Roermond.","shortLabel":"er rijden bussen Swalmen - Roermond"}}],"summaryAdditionalTravelTime":{"label":"De extra reistijd kan oplopen tot 30 minuten.","shortLabel":"extra reistijd tot 30 min.","maximumDurationInMinutes":30}},