[{"id":"6019768","type":"DISRUPTION","registrationTime":"2022-11-12T12:35:32+0100","releaseTime":"2022-11-12T12:35:32+0100","local":false,"title":"Eindhoven-Venlo","titleSections":[[{"type":"STATION","value":"Eindhoven C."},{"type":"STATION","value":"Helmond"},{"type":"ICON","value":"DISRUPTION"},{"type":"STATION","value":"Venlo"}]],"topic":"disruption_6019768_nl","isActive":true,"start":"2022-11-12T08:07:29+0100","end":"2022-11-12T15:05:32+0100","phase":{"id":"2","label":"Impact bekend"},"impact":{"value":2},"expectedDuration":{"description":"Dit duurt de rest van de dag."},"summaryAdditionalTravelTime":{"label":"De extra reistijd kan oplopen tot 30 minuten.","shortLabel":"Extra reistijd tot 30 min.","maximumDurationInMinutes":30},"publicationSections":[{"section":{"stations":[{"uicCode":"8400206","stationCode":"EHV","name":"Eindhoven Centraal","coordinate":{"lat":51.4433326721191,"lng":5.48138904571533},"countryCode":"NL"},{"uicCode":"8400242","stationCode":"HMBV","name":"Helmond Brandevoort","coordinate":{"lat":51.4622230529785,"lng":5.60722208023071},"countryCode":"NL"},{"uicCode":"8400300","stationCode":"HMH","name":"Helmond 't Hout","coordinate":{"lat":51.46794,"lng":5.63085},"countryCode":"NL"},{"uicCode":"8400313","stationCode":"HM","name":"Helmond","coordinate":{"lat":51.4755554199219,"lng":5.66194438934326},"countryCode":"NL"},{"uicCode":"8400299","stationCode":"HMBH","name":"Helmond Brouwhuis","coordinate":{"lat":51.47068,"lng":5.70177},"countryCode":"NL"},{"uicCode":"8400172","stationCode":"DN","name":"Deurne","coordinate":{"lat":51.4558334350586,"lng":5.78888893127441},"countryCode":"NL"},{"uicCode":"8400339","stationCode":"HRT","name":"Horst-Sevenum","coordinate":{"lat":51.4263877868652,"lng":6.04222202301025},"countryCode":"NL"},{"uicCode":"8400117","stationCode":"BR","name":"Blerick","coordinate":{"lat":51.372501373291,"lng":6.15500020980835},"countryCode":"NL"},{"uicCode":"8400644","stationCode":"VL","name":"Venlo","coordinate":{"lat":51.3636093139648,"lng":6.17277765274048},"countryCode":"NL"}],"direction":"BOTH"},"consequence":{"section":{"stations":[{"uicCode":"8400313","stationCode":"HM","name":"Helmond","coordinate":{"lat":51.4755554199219,"lng":5.66194438934326},"countryCode":"NL"},{"uicCode":"8400299","stationCode":"HMBH","name":"Helmond Brouwhuis","coordinate":{"lat":51.47068,"lng":5.70177},"countryCode":"NL"},{"uicCode":"8400172","stationCode":"DN","name":"Deurne","coordinate":{"lat":51.4558334350586,"lng":5.78888893127441},"countryCode":"NL"},{"uicCode":"8400339","stationCode":"HRT","name":"Horst-Sevenum","coordinate":{"lat":51.4263877868652,"lng":6.04222202301025},"countryCode":"NL"},{"uicCode":"8400117","stationCode":"BR","name":"Blerick","coordinate":{"lat":51.372501373291,"lng":6.15500020980835},"countryCode":"NL"},{"uicCode":"8400644","stationCode":"VL","name":"Venlo","coordinate":{"lat":51.3636093139648,"lng":6.17277765274048},"countryCode":"NL"}],"direction":"ONE_WAY"},"description":"minder Intercity's","level":"LESS_TRAINS"},"sectionType":"NL"}],"timespans":[{"start":"2022-11-12T08:07:29+0100","end":"2022-11-12T15:05:32+0100","situation":{"label":"Tussen Helmond en Venlo rijden er minder Intercity's door een seinstoring."},"cause":{"label":"Seinstoring"},"additionalTravelTime":{"label":"De extra reistijd kan oplopen tot 30 minuten.","shortLabel":"Extra reistijd tot 30 min.","maximumDurationInMinutes":30},"advices":[]}],"alternativeTransportTimespans":[]},{"id":"9331e8bd-9212-4735-b5ce-fc1e33760cce","title":"van/naar/via Amsterdam Zuid, zondag 13 t/m zaterdag 26 november 08.00 uur","topic":"disruption_9331e8bd-9212-4735-b5ce-fc1e33760cce_nl","description":"Door werkzaamheden is van zondag 13 t/m zaterdag 26 november 08.00 uur de dienstregeling aangepast van/naar/via Amsterdam Zuid. Plan je reis vooraf met de reisplanner.","priority":"PRIO_3","lastUpdated":"2022-07-06T11:52:00+0200","bodyItems":[],"buttons":{"position":["BOTTOM"],"items":[{"label":"Plan je reis","type":"PLANNER","accessibilityLabel":"Plan je reis","url":"https://www.ns.nl/reisplanner"},{"label":"Werk aan het spoor","type":"MAINTENANCE","accessibilityLabel":"Werk aan het spoor","url":"https://www.ns.nl/reisinformatie/werk-aan-het-spoor"}]},"url":"https://www.ns.nl/reisinformatie/calamiteiten/van-naar-via-amsterdam-zuid-zondag-13-t-m-zaterdag-26-november-08.00-uur.html","type":"CALAMITY","isActive":true}]