[{"type":"CALAMITY","id":"1c645f21-2d06-4b27-a9ad-619a38a38530","title":"Werkzaamheden Schiphol Airport – Amsterdam Amsterdam-Bijlmer Arena","isActive":true,"topic":"disruption_1c645f21-2d06-4b27-a9ad-619a38a38530_nl","description":"Vrijdag 8 november t/m zondag 10 november zijn er werkzaamheden tussen Schiphol Airport en Amsterdam Zuid, waardoor daar geen treinen kunnen rijden. Door een bijkomende wisselstoring kunnen helaas ook de treinen tussen Amsterdam Zuid en Amsterdam Bijlmer Arena niet rijden. Je kunt reizen met metrolijnen 50 en 51. De reisplanner wordt één dag vooruit bijgewerkt.","url":"https://www.ns.nl/reisinformatie/calamiteiten/schiphol-airport---adam-bijlmer-arena.html","priority":"PRIO_3","lastUpdated":"2024-11-07T14:30:00+0100","bodyItems":[{"type":"TEXT","content":{"text":"<p>Reis tussen Schiphol Airport en Amsterdam Zuid via Amsterdam Lelylaan. Jouw NS-vervoerbewijs is geldig in metrolijnen 50 en 51 tussen Amsterdam Amstel, Amsterdam Bijlmer Arena, Amsterdam Zuid en Amsterdam Lelylaan.&nbsp;</p>"}}],"buttons":{"position":["BOTTOM"],"items":[{"label":"Plan je reis 1 dag van tevoren","accessibilityLabel":"Plan je reis 1 dag van tevoren","url":"https://www.ns.nl/reisplanner","type":"PLANNER"}]}},{"type":"CALAMITY","id":"6d47ebd0-efaf-4a0c-b8c5-f5bb7bdced7c","title":"Werkzaamheden: Heerlen-Aachen Hbf","isActive":true,"topic":"disruption_6d47ebd0-efaf-4a0c-b8c5-f5bb7bdced7c_nl","description":"Door werkzaamheden rijden van maandag 11 t/m vrijdag 15 november geen treinen tussen Heerlen en Aachen Hbf.\r\nEr rijden in die periode bussen in plaats van treinen. Plan je reis vooraf.","url":"https://www.ns.nl/reisinformatie/calamiteiten/werkzaamheden-heerlen-aachen-hbf.html","priority":"PRIO_3","lastUpdated":"2024-11-08T02:00:00+0100","bodyItems":[],"buttons":{"position":["BOTTOM"],"items":[{"label":"Plan je reis","accessibilityLabel":"Plan je reis","url":"https://www.ns.nl/reisplanner","type":"PLANNER"}]}},{"type":"MAINTENANCE","id":"7004492","title":"Groningen - Leer.","isActive":true,"local":false,"titleSections":[[{"type":"STATION","value":"Groningen"},{"type":"STATION","value":"Bad Nieuweschans"},{"type":"ICON","value":"MAINTENANCE"},{"type":"STATION","value":"Weener"},{"type":"STATION","value":"Leer (Ostfr.)"}]],"registrationTime":"2024-10-15T09:08:18+0200","start":"2024-02-01T04:00:00+0100","releaseTime":"2024-10-15T09:08:18+0200","end":"2025-08-24T23:59:00+0200","period":"Donderdag 1 februari 4:00 uur t/m zondag 24 augustus 23:59 uur.","impact":{"value":3},"publicationSections":[{"section":{"stations":[{"coordinate":{"lat":53.2105560302734,"lng":6.56472206115723},"countryCode":"NL","name":"Groningen","stationCode":"GN","uicCode":"8400263"},{"coordinate":{"lat":53.20480027,"lng":6.5854178},"countryCode":"NL","name":"Groningen Europapark","stationCode":"GERP","uicCode":"8400238"},{"coordinate":{"lat":53.1617362,"lng":6.7220882},"countryCode":"NL","name":"Kropswolde","stationCode":"KW","uicCode":"8400369"},{"coordinate":{"lat":53.1607232,"lng":6.7402989},"countryCode":"NL","name":"Martenshoek","stationCode":"MTH","uicCode":"8400430"},{"coordinate":{"lat":53.1598181316756,"lng":6.77075386047363},"countryCode":"NL","name":"Hoogezand-Sappemeer","stationCode":"HGZ","uicCode":"8400331"},{"coordinate":{"lat":53.1596122800056,"lng":6.8679141998291},"countryCode":"NL","name":"Zuidbroek","stationCode":"ZB","uicCode":"8400742"},{"coordinate":{"lat":53.1655362,"lng":6.9777775},"countryCode":"NL","name":"Scheemda","stationCode":"SDA","uicCode":"8400551"},{"coordinate":{"lat":53.1392377,"lng":7.035101},"countryCode":"NL","name":"Winschoten","stationCode":"WS","uicCode":"8400696"},{"coordinate":{"lat":53.1844,"lng":7.19937},"countryCode":"NL","name":"Bad Nieuweschans","stationCode":"NSCH","uicCode":"8400457"},{"coordinate":{"lat":53.16311,"lng":7.3442},"countryCode":"D","name":"Weener","stationCode":"WR","uicCode":"8021239"},{"coordinate":{"lat":53.23165,"lng":7.465283},"countryCode":"D","name":"Leer (Ostfriesl)","stationCode":"LEER","uicCode":"8021091"}],"direction":"BOTH"},"consequence":{"section":{"stations":[{"coordinate":{"lat":53.1844,"lng":7.19937},"countryCode":"NL","name":"Bad Nieuweschans","stationCode":"NSCH","uicCode":"8400457"},{"coordinate":{"lat":53.16311,"lng":7.3442},"countryCode":"D","name":"Weener","stationCode":"WR","uicCode":"8021239"}],"direction":"ONE_WAY"},"description":"rijden bussen","level":"LESS_TRAINS"},"sectionType":"NEIGHBORING_COUNTRY"}],"summaryAdditionalTravelTime":{"label":"De extra reistijd kan oplopen tot 30 minuten.","shortLabel":"Extra reistijd tot 30 min.","maximumDurationInMinutes":30},"timespans":[{"start":"2024-02-01T04:00:00+0100","end":"2025-08-24T23:59:00+0200","period":"Donderdag 1 februari 4:00 uur t/m zondag 24 augustus 23:59 uur.","situation":{"label":"Door een aangepaste dienstregeling: tussen Bad Nieuweschans en Weener rijden er bussen."},"cause":{"label":"aangepaste dienstregeling"},"additionalTravelTime":{"label":"De extra reistijd kan oplopen tot 30 minuten.","shortLabel":"Extra reistijd tot 30 min.","maximumDurationInMinutes":30},"alternativeTransport":{"label":"er rijden stopbussen","shortLabel":"er rijden stopbussen"},"advices":["Op dit moment is er nog geen exacte einddatum bekend."]}],"alternativeTransportTimespans":[{"start":"2024-02-01T04:00:00+0100","end":"2025-08-24T23:59:00+0200","alternativeTransport":{"location":[{"station":{"coordinate":{"lat":53.1844,"lng":7.19937},"countryCode":"NL","name":"Bad Nieuweschans","stationCode":"NSCH","uicCode":"8400457"},"description":"vanaf de voorzijde van het station"},{"station":{"coordinate":{"lat":53.16311,"lng":7.3442},"countryCode":"D","name":"Weener","stationCode":"WR","uicCode":"8021239"},"description":"vanaf de voorzijde van het station"},{"station":{"coordinate":{"lat":53.23165,"lng":7.465283},"countryCode":"D","name":"Leer (Ostfriesl)","stationCode":"LEER","uicCode":"8021091"},"description":"vanaf het busstation"}],"label":"Er rijden stopbussen tussen Bad Nieuweschans, Weener en Leer (Ostfriesl).","shortLabel":"Er rijden stopbussen Bad Nieuweschans - Weener - Leer (Ostfr.)."}}]},{"type":"MAINTENANCE","id":"7005536","title":"Venlo - Mönchengladbach - Düsseldorf.","isActive":true,"local":false,"titleSections":[[{"type":"STATION","value":"Venlo"},{"type":"ICON","value":"MAINTENANCE"},{"type":"STATION","value":"Mönchengladbach"},{"type":"STATION","value":"Düsseldorf Hbf"}]],"registrationTime":"2024-11-01T13:07:11+0100","start":"2024-11-01T20:45:00+0100","releaseTime":"2024-11-01T13:07:11+0100","end":"2024-11-24T23:00:00+0100","period":"Vrijdag 1 november 20:45 uur t/m zondag 24 november 23:00 uur.","impact":{"value":2},"publicationSections":[{"section":{"stations":[{"coordinate":{"lat":51.3636093139648,"lng":6.17277765274048},"countryCode":"NL","name":"Venlo","stationCode":"VL","uicCode":"8400644"},{"coordinate":{"lat":51.327184,"lng":6.203225},"countryCode":"D","name":"Kaldenkirchen","stationCode":"KN","uicCode":"8015130"},{"coordinate":{"lat":51.294615,"lng":6.241174},"countryCode":"D","name":"Breyell","stationCode":"KBRY","uicCode":"8015129"},{"coordinate":{"lat":51.274323,"lng":6.274591},"countryCode":"D","name":"Boisheim","stationCode":"KBOI","uicCode":"8015128"},{"coordinate":{"lat":51.257149,"lng":6.33793},"countryCode":"D","name":"Dülken","stationCode":"KDUL","uicCode":"8015125"},{"coordinate":{"lat":51.25516,"lng":6.40388},"countryCode":"D","name":"Viersen","stationCode":"VIERS","uicCode":"8015122"},{"coordinate":{"lat":51.196583,"lng":6.446111},"countryCode":"D","name":"Mönchengladbach Hbf","stationCode":"MCGB","uicCode":"8015165"},{"coordinate":{"lat":51.20444,"lng":6.68468},"countryCode":"D","name":"Neuss Hbf","stationCode":"NEUSS","uicCode":"8015149"},{"coordinate":{"lat":51.220146,"lng":6.793137},"countryCode":"D","name":"Düsseldorf Hbf","stationCode":"DUSSEL","uicCode":"8008094"}],"direction":"BOTH"},"consequence":{"section":{"stations":[{"coordinate":{"lat":51.3636093139648,"lng":6.17277765274048},"countryCode":"NL","name":"Venlo","stationCode":"VL","uicCode":"8400644"},{"coordinate":{"lat":51.327184,"lng":6.203225},"countryCode":"D","name":"Kaldenkirchen","stationCode":"KN","uicCode":"8015130"},{"coordinate":{"lat":51.294615,"lng":6.241174},"countryCode":"D","name":"Breyell","stationCode":"KBRY","uicCode":"8015129"},{"coordinate":{"lat":51.274323,"lng":6.274591},"countryCode":"D","name":"Boisheim","stationCode":"KBOI","uicCode":"8015128"},{"coordinate":{"lat":51.257149,"lng":6.33793},"countryCode":"D","name":"Dülken","stationCode":"KDUL","uicCode":"8015125"},{"coordinate":{"lat":51.25516,"lng":6.40388},"countryCode":"D","name":"Viersen","stationCode":"VIERS","uicCode":"8015122"},{"coordinate":{"lat":51.196583,"lng":6.446111},"countryCode":"D","name":"Mönchengladbach Hbf","stationCode":"MCGB","uicCode":"8015165"}],"direction":"ONE_WAY"},"description":"rijden bussen","level":"LESS_TRAINS"},"sectionType":"NEIGHBORING_COUNTRY"}],"summaryAdditionalTravelTime":{"label":"De extra reistijd kan oplopen tot 30 minuten.","shortLabel":"Extra reistijd tot 30 min.","maximumDurationInMinutes":30},"timespans":[{"start":"2024-11-01T20:45:00+0100","end":"2024-11-24T23:00:00+0100","period":"Vrijdag 1 november 20:45 uur t/m zondag 24 november 23:00 uur.","situation":{"label":"Door werkzaamheden: tussen Venlo en Mönchengladbach Hbf rijden er bussen."},"cause":{"label":"werkzaamheden"},"additionalTravelTime":{"label":"De extra reistijd kan oplopen tot 30 minuten.","shortLabel":"Extra reistijd tot 30 min.","maximumDurationInMinutes":30},"alternativeTransport":{"label":"er rijden stopbussen","shortLabel":"er rijden stopbussen"},"advices":["In weekenden rijden wel treinen tussen Venlo en Mönchengladbach van 09.00 tot 20.30 uur."]}],"alternativeTransportTimespans":[{"start":"2024-11-01T20:45:00+0100","end":"2024-11-24T23:00:00+0100","alternativeTransport":{"location":[{"station":{"coordinate":{"lat":51.3636093139648,"lng":6.17277765274048},"countryCode":"NL","name":"Venlo","stationCode":"VL","uicCode":"8400644"},"description":"vanaf het busstation"},{"station":{"coordinate":{"lat":51.327184,"lng":6.203225},"countryCode":"D","name":"Kaldenkirchen","stationCode":"KN","uicCode":"8015130"},"description":"volg de aanwijzingen op het station"},{"station":{"coordinate":{"lat":51.294615,"lng":6.241174},"countryCode":"D","name":"Breyell","stationCode":"KBRY","uicCode":"8015129"},"description":"volg de aanwijzingen op het station"},{"station":{"coordinate":{"lat":51.274323,"lng":6.274591},"countryCode":"D","name":"Boisheim","stationCode":"KBOI","uicCode":"8015128"},"description":"volg de aanwijzingen op het station"},{"station":{"coordinate":{"lat":51.257149,"lng":6.33793},"countryCode":"D","name":"Dülken","stationCode":"KDUL","uicCode":"8015125"},"description":"volg de aanwijzingen op het station"},{"station":{"coordinate":{"lat":51.25516,"lng":6.40388},"countryCode":"D","name":"Viersen","stationCode":"VIERS","uicCode":"8015122"},"description":"volg de aanwijzingen op het station"},{"station":{"coordinate":{"lat":51.196583,"lng":6.446111},"countryCode":"D","name":"Mönchengladbach Hbf","stationCode":"MCGB","uicCode":"8015165"},"description":"volg de aanwijzingen op het station"}],"label":"Er rijden stopbussen tussen Venlo, Kaldenkirchen, Breyell, Boisheim, Dülken, Viersen en Mönchengladbach Hbf.","shortLabel":"Er rijden stopbussen Venlo - Kaldenkirchen - Breyell - Boisheim - Dülken - Viersen - Mönchengladbach."}}]},{"type":"MAINTENANCE","id":"7005529","title":"Almelo - Hardenberg.","isActive":true,"local":false,"titleSections":[[{"type":"STATION","value":"Almelo"},{"type":"ICON","value":"MAINTENANCE"},{"type":"STATION","value":"Mariënberg"},{"type":"STATION","value":"Hardenberg"}]],"registrationTime":"2024-11-01T13:06:39+0100","start":"2024-11-02T07:20:00+0100","releaseTime":"2024-11-01T13:06:39+0100","end":"2024-11-11T00:45:00+0100","period":"Zaterdag 2 november 7:20 uur t/m maandag 11 november 0:45 uur.","impact":{"value":3},"publicationSections":[{"section":{"stations":[{"coordinate":{"lat":52.3580551147461,"lng":6.65388870239258},"countryCode":"NL","name":"Almelo","stationCode":"AML","uicCode":"8400051"},{"coordinate":{"lat":52.40203,"lng":6.60041},"countryCode":"NL","name":"Vriezenveen","stationCode":"VZ","uicCode":"8400664"},{"coordinate":{"lat":52.4407702,"lng":6.5759947},"countryCode":"NL","name":"Daarlerveen","stationCode":"DA","uicCode":"8400164"},{"coordinate":{"lat":52.4571921,"lng":6.5696679},"countryCode":"NL","name":"Vroomshoop","stationCode":"VHP","uicCode":"8400666"},{"coordinate":{"lat":52.5094451904297,"lng":6.57527780532837},"countryCode":"NL","name":"Mariënberg","stationCode":"MRB","uicCode":"8400428"},{"coordinate":{"lat":52.5727767944336,"lng":6.62861108779907},"countryCode":"NL","name":"Hardenberg","stationCode":"HDB","uicCode":"8400293"}],"direction":"BOTH"},"consequence":{"section":{"stations":[{"coordinate":{"lat":52.3580551147461,"lng":6.65388870239258},"countryCode":"NL","name":"Almelo","stationCode":"AML","uicCode":"8400051"},{"coordinate":{"lat":52.40203,"lng":6.60041},"countryCode":"NL","name":"Vriezenveen","stationCode":"VZ","uicCode":"8400664"},{"coordinate":{"lat":52.4407702,"lng":6.5759947},"countryCode":"NL","name":"Daarlerveen","stationCode":"DA","uicCode":"8400164"},{"coordinate":{"lat":52.4571921,"lng":6.5696679},"countryCode":"NL","name":"Vroomshoop","stationCode":"VHP","uicCode":"8400666"},{"coordinate":{"lat":52.5094451904297,"lng":6.57527780532837},"countryCode":"NL","name":"Mariënberg","stationCode":"MRB","uicCode":"8400428"}],"direction":"ONE_WAY"},"description":"rijden bussen","level":"LESS_TRAINS"},"sectionType":"NL"}],"summaryAdditionalTravelTime":{"label":"De extra reistijd kan oplopen tot 30 minuten.","shortLabel":"Extra reistijd tot 30 min.","maximumDurationInMinutes":30},"timespans":[{"start":"2024-11-02T07:20:00+0100","end":"2024-11-11T00:45:00+0100","period":"Zaterdag 2 november 7:20 uur t/m maandag 11 november 0:45 uur.","situation":{"label":"Door werkzaamheden: tussen Almelo en Mariënberg rijden er bussen."},"cause":{"label":"werkzaamheden"},"additionalTravelTime":{"label":"De extra reistijd kan oplopen tot 30 minuten.","shortLabel":"Extra reistijd tot 30 min.","maximumDurationInMinutes":30},"alternativeTransport":{"label":"er rijden stopbussen","shortLabel":"er rijden stopbussen"},"advices":[]}],"alternativeTransportTimespans":[{"start":"2024-11-02T07:20:00+0100","end":"2024-11-11T00:45:00+0100","alternativeTransport":{"location":[{"station":{"coordinate":{"lat":52.3580551147461,"lng":6.65388870239258},"countryCode":"NL","name":"Almelo","stationCode":"AML","uicCode":"8400051"},"description":"vanaf het busstation"},{"station":{"coordinate":{"lat":52.40203,"lng":6.60041},"countryCode":"NL","name":"Vriezenveen","stationCode":"VZ","uicCode":"8400664"},"description":"vanaf de Hammerweg, nabij de spoorovergang"},{"station":{"coordinate":{"lat":52.4407702,"lng":6.5759947},"countryCode":"NL","name":"Daarlerveen","stationCode":"DA","uicCode":"8400164"},"description":"vanaf de doorgaande weg"},{"station":{"coordinate":{"lat":52.4571921,"lng":6.5696679},"countryCode":"NL","name":"Vroomshoop","stationCode":"VHP","uicCode":"8400666"},"description":"vanaf de achterzijde van 't station, t.h.v. Hoek Stobbelaan en Burg. Koetjeslaan"},{"station":{"coordinate":{"lat":52.5094451904297,"lng":6.57527780532837},"countryCode":"NL","name":"Mariënberg","stationCode":"MRB","uicCode":"8400428"},"description":"vanaf de voorzijde van het station"}],"label":"Er rijden stopbussen tussen Almelo, Vriezenveen, Daarlerveen, Vroomshoop en Mariënberg.","shortLabel":"Er rijden stopbussen Almelo - Vriezenveen - Daarlerveen - Vroomshoop - Mariënberg."}}]},{"type":"MAINTENANCE","id":"7005584","title":"Heerlen - Maastricht.","isActive":true,"local":false,"titleSections":[[{"type":"STATION","value":"Heerlen"},{"type":"ICON","value":"MAINTENANCE"},{"type":"STATION","value":"Maastricht"}]],"registrationTime":"2024-11-05T15:51:21+0100","start":"2024-11-04T14:15:00+0100","releaseTime":"2024-11-05T15:51:21+0100","end":"2024-11-30T19:30:00+0100","period":"Maandag 4 november 14:15 uur t/m zaterdag 30 november 19:30 uur.","impact":{"value":2},"publicationSections":[{"section":{"stations":[{"coordinate":{"lat":50.8908348083496,"lng":5.97499990463257},"countryCode":"NL","name":"Heerlen","stationCode":"HRL","uicCode":"8400307"},{"coordinate":{"lat":50.896667,"lng":5.952222},"countryCode":"NL","name":"Heerlen Woonboulevard","stationCode":"HRLW","uicCode":"8400404"},{"coordinate":{"lat":50.8872222900391,"lng":5.93027782440186},"countryCode":"NL","name":"Voerendaal","stationCode":"VDL","uicCode":"8400656"},{"coordinate":{"lat":50.8663902282715,"lng":5.8905553817749},"countryCode":"NL","name":"Klimmen-Ransdaal","stationCode":"KMR","uicCode":"8400362"},{"coordinate":{"lat":50.856388092041,"lng":5.87222242355347},"countryCode":"NL","name":"Schin op Geul","stationCode":"SOG","uicCode":"8400555"},{"coordinate":{"lat":50.8697204589844,"lng":5.83222198486328},"countryCode":"NL","name":"Valkenburg","stationCode":"VK","uicCode":"8400632"},{"coordinate":{"lat":50.8733329772949,"lng":5.79722213745117},"countryCode":"NL","name":"Houthem-St. Gerlach","stationCode":"SGL","uicCode":"8400341"},{"coordinate":{"lat":50.882879392551,"lng":5.75099945068359},"countryCode":"NL","name":"Meerssen","stationCode":"MES","uicCode":"8400434"},{"coordinate":{"lat":50.87087,"lng":5.71774},"countryCode":"NL","name":"Maastricht Noord","stationCode":"MTN","uicCode":"8400449"},{"coordinate":{"lat":50.8502769470215,"lng":5.70555543899536},"countryCode":"NL","name":"Maastricht","stationCode":"MT","uicCode":"8400424"}],"direction":"BOTH"},"consequence":{"section":{"stations":[{"coordinate":{"lat":50.8908348083496,"lng":5.97499990463257},"countryCode":"NL","name":"Heerlen","stationCode":"HRL","uicCode":"8400307"},{"coordinate":{"lat":50.896667,"lng":5.952222},"countryCode":"NL","name":"Heerlen Woonboulevard","stationCode":"HRLW","uicCode":"8400404"},{"coordinate":{"lat":50.8872222900391,"lng":5.93027782440186},"countryCode":"NL","name":"Voerendaal","stationCode":"VDL","uicCode":"8400656"},{"coordinate":{"lat":50.8663902282715,"lng":5.8905553817749},"countryCode":"NL","name":"Klimmen-Ransdaal","stationCode":"KMR","uicCode":"8400362"},{"coordinate":{"lat":50.856388092041,"lng":5.87222242355347},"countryCode":"NL","name":"Schin op Geul","stationCode":"SOG","uicCode":"8400555"},{"coordinate":{"lat":50.8697204589844,"lng":5.83222198486328},"countryCode":"NL","name":"Valkenburg","stationCode":"VK","uicCode":"8400632"},{"coordinate":{"lat":50.8733329772949,"lng":5.79722213745117},"countryCode":"NL","name":"Houthem-St. Gerlach","stationCode":"SGL","uicCode":"8400341"},{"coordinate":{"lat":50.882879392551,"lng":5.75099945068359},"countryCode":"NL","name":"Meerssen","stationCode":"MES","uicCode":"8400434"},{"coordinate":{"lat":50.87087,"lng":5.71774},"countryCode":"NL","name":"Maastricht Noord","stationCode":"MTN","uicCode":"8400449"},{"coordinate":{"lat":50.8502769470215,"lng":5.70555543899536},"countryCode":"NL","name":"Maastricht","stationCode":"MT","uicCode":"8400424"}],"direction":"ONE_WAY"},"description":"minder treinen","level":"LESS_TRAINS"},"sectionType":"NL"}],"summaryAdditionalTravelTime":{"label":"De extra reistijd is ongeveer 15 minuten.","shortLabel":"Extra reistijd 15 min.","minimumDurationInMinutes":15,"maximumDurationInMinutes":15},"timespans":[{"start":"2024-11-04T14:15:00+0100","end":"2024-11-30T19:30:00+0100","period":"Maandag 4 november 14:15 uur t/m zaterdag 30 november 19:30 uur.","situation":{"label":"Door een tekort aan personeel: tussen Heerlen en Maastricht rijden er minder treinen."},"cause":{"label":"tekort personeel"},"additionalTravelTime":{"label":"De extra reistijd is ongeveer 15 minuten.","shortLabel":"Extra reistijd 15 min.","minimumDurationInMinutes":15,"maximumDurationInMinutes":15},"alternativeTransport":{"label":"er rijden snelbussen","shortLabel":"er rijden snelbussen"},"advices":["Sneltreinen zijn (ma t/m za: 07.00-19.30u) en (zo: 13.00-19.30u) deels vervangen door Snelbussen. U kunt ook met een stoptrein eerder of later reizen."]}],"alternativeTransportTimespans":[{"start":"2024-11-04T14:15:00+0100","end":"2024-11-30T19:30:00+0100","alternativeTransport":{"location":[{"station":{"coordinate":{"lat":50.8908348083496,"lng":5.97499990463257},"countryCode":"NL","name":"Heerlen","stationCode":"HRL","uicCode":"8400307"},"description":"vanaf het busstation Perron A"},{"station":{"coordinate":{"lat":50.8502769470215,"lng":5.70555543899536},"countryCode":"NL","name":"Maastricht","stationCode":"MT","uicCode":"8400424"},"description":"vanaf de taxi-standplaats, centrumzijde"}],"label":"Er rijden snelbussen tussen Heerlen en Maastricht.","shortLabel":"Er rijden snelbussen Heerlen - Maastricht."}}]},{"type":"MAINTENANCE","id":"7005415","title":"Amsterdam - Hannover - Berlin.","isActive":true,"local":false,"titleSections":[[{"type":"STATION","value":"Amsterdam C."},{"type":"STATION","value":"Bad Bentheim"},{"type":"ICON","value":"MAINTENANCE"},{"type":"STATION","value":"Berlin Hbf"}]],"registrationTime":"2024-10-09T12:25:06+0200","start":"2024-11-07T15:49:00+0100","releaseTime":"2024-10-09T12:25:06+0200","end":"2024-11-08T17:04:00+0100","period":"Donderdag 7 november 15:49 uur t/m vrijdag 8 november 17:04 uur.","impact":{"value":2},"publicationSections":[{"section":{"stations":[{"coordinate":{"lat":52.3788871765137,"lng":4.90027761459351},"countryCode":"NL","name":"Amsterdam Centraal","stationCode":"ASD","uicCode":"8400058"},{"coordinate":{"lat":52.3605537414551,"lng":4.93111133575439},"countryCode":"NL","name":"Amsterdam Muiderpoort","stationCode":"ASDM","uicCode":"8400060"},{"coordinate":{"lat":52.35274,"lng":4.94855},"countryCode":"NL","name":"Amsterdam Science Park","stationCode":"ASSP","uicCode":"8400235"},{"coordinate":{"lat":52.34515,"lng":4.967566},"countryCode":"NL","name":"Diemen","stationCode":"DMN","uicCode":"8400165"},{"coordinate":{"lat":52.3127784729004,"lng":5.04305553436279},"countryCode":"NL","name":"Weesp","stationCode":"WP","uicCode":"8400685"},{"coordinate":{"lat":52.2802772521973,"lng":5.15694427490234},"countryCode":"NL","name":"Naarden-Bussum","stationCode":"NDB","uicCode":"8400452"},{"coordinate":{"lat":52.2658348083496,"lng":5.16305541992188},"countryCode":"NL","name":"Bussum Zuid","stationCode":"BSMZ","uicCode":"8400145"},{"coordinate":{"lat":52.2380561828613,"lng":5.17388868331909},"countryCode":"NL","name":"Hilversum Media Park","stationCode":"HVSM","uicCode":"8400324"},{"coordinate":{"lat":52.2258338928223,"lng":5.18194437026978},"countryCode":"NL","name":"Hilversum","stationCode":"HVS","uicCode":"8400322"},{"coordinate":{"lat":52.2083320617676,"lng":5.28083324432373},"countryCode":"NL","name":"Baarn","stationCode":"BRN","uicCode":"8400086"},{"coordinate":{"lat":52.1538887023926,"lng":5.37055540084839},"countryCode":"NL","name":"Amersfoort Centraal","stationCode":"AMF","uicCode":"8400055"},{"coordinate":{"lat":52.16652,"lng":5.45718},"countryCode":"NL","name":"Hoevelaken","stationCode":"HVL","uicCode":"8400490"},{"coordinate":{"lat":52.2091674804687,"lng":5.97027778625488},"countryCode":"NL","name":"Apeldoorn","stationCode":"APD","uicCode":"8400066"},{"coordinate":{"lat":52.2152786254883,"lng":6.00444459915161},"countryCode":"NL","name":"Apeldoorn Osseveld","stationCode":"APDO","uicCode":"8400229"},{"coordinate":{"lat":52.2377777099609,"lng":6.09861087799072},"countryCode":"NL","name":"Twello","stationCode":"TWL","uicCode":"8400599"},{"coordinate":{"lat":52.2574996948242,"lng":6.16055536270142},"countryCode":"NL","name":"Deventer","stationCode":"DV","uicCode":"8400173"},{"coordinate":{"lat":52.2502784729004,"lng":6.21444463729858},"countryCode":"NL","name":"Deventer Colmschate","stationCode":"DVC","uicCode":"8400185"},{"coordinate":{"lat":52.2838897705078,"lng":6.42027759552002},"countryCode":"NL","name":"Holten","stationCode":"HON","uicCode":"8400328"},{"coordinate":{"lat":52.3122215270996,"lng":6.52027797698975},"countryCode":"NL","name":"Rijssen","stationCode":"RSN","uicCode":"8400538"},{"coordinate":{"lat":52.3613891601562,"lng":6.59166669845581},"countryCode":"NL","name":"Wierden","stationCode":"WDN","uicCode":"8400691"},{"coordinate":{"lat":52.3580551147461,"lng":6.65388870239258},"countryCode":"NL","name":"Almelo","stationCode":"AML","uicCode":"8400051"},{"coordinate":{"lat":52.3419456481934,"lng":6.66666650772095},"countryCode":"NL","name":"Almelo de Riet","stationCode":"AMRI","uicCode":"8400520"},{"coordinate":{"lat":52.2988891601562,"lng":6.74805545806885},"countryCode":"NL","name":"Borne","stationCode":"BN","uicCode":"8400124"},{"coordinate":{"lat":52.2616653442383,"lng":6.79388904571533},"countryCode":"NL","name":"Hengelo","stationCode":"HGL","uicCode":"8400316"},{"coordinate":{"lat":52.2688903808594,"lng":6.81944465637207},"countryCode":"NL","name":"Hengelo Oost","stationCode":"HGLO","uicCode":"8400312"},{"coordinate":{"lat":52.3063888549805,"lng":6.93472242355347},"countryCode":"NL","name":"Oldenzaal","stationCode":"ODZ","uicCode":"8400483"},{"coordinate":{"lat":52.309685595156,"lng":7.15853691101074},"countryCode":"D","name":"Bad Bentheim","stationCode":"BH","uicCode":"8021156"},{"coordinate":{"lat":52.276299,"lng":7.434255},"countryCode":"D","name":"Rheine","stationCode":"RHEINE","uicCode":"8021067"},{"coordinate":{"lat":52.272851,"lng":8.061781},"countryCode":"D","name":"Osnabrück Hbf","stationCode":"OSNH","uicCode":"8021025"},{"coordinate":{"lat":52.3770401,"lng":9.7416759},"countryCode":"D","name":"Hannover Hbf","stationCode":"HANN","uicCode":"8013552"},{"coordinate":{"lat":52.52503,"lng":13.36946},"countryCode":"D","name":"Berlin Hbf","stationCode":"BERHBL","uicCode":"8065969"}],"direction":"BOTH"},"consequence":{"section":{"stations":[{"coordinate":{"lat":52.309685595156,"lng":7.15853691101074},"countryCode":"D","name":"Bad Bentheim","stationCode":"BH","uicCode":"8021156"},{"coordinate":{"lat":52.276299,"lng":7.434255},"countryCode":"D","name":"Rheine","stationCode":"RHEINE","uicCode":"8021067"},{"coordinate":{"lat":52.272851,"lng":8.061781},"countryCode":"D","name":"Osnabrück Hbf","stationCode":"OSNH","uicCode":"8021025"},{"coordinate":{"lat":52.3770401,"lng":9.7416759},"countryCode":"D","name":"Hannover Hbf","stationCode":"HANN","uicCode":"8013552"},{"coordinate":{"lat":52.52503,"lng":13.36946},"countryCode":"D","name":"Berlin Hbf","stationCode":"BERHBL","uicCode":"8065969"}],"direction":"ONE_WAY"},"description":"aangepaste internationale dienstregeling","level":"LESS_TRAINS"},"sectionType":"NEIGHBORING_COUNTRY"}],"summaryAdditionalTravelTime":{"label":"U heeft geen langere reistijd.","shortLabel":"Geen extra reistijd."},"timespans":[{"start":"2024-11-07T15:49:00+0100","end":"2024-11-08T17:04:00+0100","period":"Donderdag 7 november 15:49 uur t/m vrijdag 8 november 17:04 uur.","situation":{"label":"Door werkzaamheden: tussen Bad Bentheim en Berlin Hbf is de internationale dienstregeling aangepast."},"cause":{"label":"werkzaamheden"},"additionalTravelTime":{"label":"U heeft geen langere reistijd.","shortLabel":"Geen extra reistijd."},"advices":["IC Berlijn 241 rijdt tot Berlin Hbf en niet tot Ostbahnhof."]}],"alternativeTransportTimespans":[]},{"type":"MAINTENANCE","id":"7005478","title":"Schiphol - Lelystad; Schiphol - Amersfoort; Schiphol - Utrecht.","isActive":true,"local":false,"titleSections":[[{"type":"STATION","value":"Schiphol Airport"},{"type":"ICON","value":"MAINTENANCE"},{"type":"STATION","value":"Amsterdam Zuid"},{"type":"STATION","value":"Amersfoort C."}],[{"type":"STATION","value":"Schiphol Airport"},{"type":"ICON","value":"MAINTENANCE"},{"type":"STATION","value":"Amsterdam Zuid"},{"type":"STATION","value":"Lelystad C."}],[{"type":"STATION","value":"Schiphol Airport"},{"type":"ICON","value":"MAINTENANCE"},{"type":"STATION","value":"Amsterdam Zuid"},{"type":"STATION","value":"Utrecht C."}],[{"type":"STATION","value":"Schiphol Airport"},{"type":"STATION","value":"Amsterdam Zuid"},{"type":"ICON","value":"MAINTENANCE"},{"type":"STATION","value":"Bijlmer ArenA"},{"type":"STATION","value":"Utrecht C."}]],"registrationTime":"2024-11-07T14:41:57+0100","start":"2024-11-08T04:30:00+0100","releaseTime":"2024-11-07T14:41:57+0100","end":"2024-11-11T01:15:00+0100","period":"Vrijdag 8 november 4:30 uur t/m maandag 11 november 1:15 uur.","impact":{"value":4},"publicationSections":[{"section":{"stations":[{"coordinate":{"lat":52.3094444274902,"lng":4.76194429397583},"countryCode":"NL","name":"Schiphol Airport","stationCode":"SHL","uicCode":"8400561"},{"coordinate":{"lat":52.338889,"lng":4.872356},"countryCode":"NL","name":"Amsterdam Zuid","stationCode":"ASDZ","uicCode":"8400061"},{"coordinate":{"lat":52.3372230529785,"lng":4.89027786254883},"countryCode":"NL","name":"Amsterdam RAI","stationCode":"RAI","uicCode":"8400056"},{"coordinate":{"lat":52.3233337402344,"lng":4.93638896942139},"countryCode":"NL","name":"Duivendrecht","stationCode":"DVD","uicCode":"8400194"},{"coordinate":{"lat":52.3302764892578,"lng":4.95583343505859},"countryCode":"NL","name":"Diemen Zuid","stationCode":"DMNZ","uicCode":"8400163"},{"coordinate":{"lat":52.3127784729004,"lng":5.04305553436279},"countryCode":"NL","name":"Weesp","stationCode":"WP","uicCode":"8400685"},{"coordinate":{"lat":52.2802772521973,"lng":5.15694427490234},"countryCode":"NL","name":"Naarden-Bussum","stationCode":"NDB","uicCode":"8400452"},{"coordinate":{"lat":52.2658348083496,"lng":5.16305541992188},"countryCode":"NL","name":"Bussum Zuid","stationCode":"BSMZ","uicCode":"8400145"},{"coordinate":{"lat":52.2380561828613,"lng":5.17388868331909},"countryCode":"NL","name":"Hilversum Media Park","stationCode":"HVSM","uicCode":"8400324"},{"coordinate":{"lat":52.2258338928223,"lng":5.18194437026978},"countryCode":"NL","name":"Hilversum","stationCode":"HVS","uicCode":"8400322"},{"coordinate":{"lat":52.2083320617676,"lng":5.28083324432373},"countryCode":"NL","name":"Baarn","stationCode":"BRN","uicCode":"8400086"},{"coordinate":{"lat":52.1538887023926,"lng":5.37055540084839},"countryCode":"NL","name":"Amersfoort Centraal","stationCode":"AMF","uicCode":"8400055"}],"direction":"BOTH"},"consequence":{"section":{"stations":[{"coordinate":{"lat":52.3094444274902,"lng":4.76194429397583},"countryCode":"NL","name":"Schiphol Airport","stationCode":"SHL","uicCode":"8400561"},{"coordinate":{"lat":52.338889,"lng":4.872356},"countryCode":"NL","name":"Amsterdam Zuid","stationCode":"ASDZ","uicCode":"8400061"}],"direction":"ONE_WAY"},"description":"geen treinen","level":"LESS_TRAINS"},"sectionType":"NL"},{"section":{"stations":[{"coordinate":{"lat":52.3094444274902,"lng":4.76194429397583},"countryCode":"NL","name":"Schiphol Airport","stationCode":"SHL","uicCode":"8400561"},{"coordinate":{"lat":52.338889,"lng":4.872356},"countryCode":"NL","name":"Amsterdam Zuid","stationCode":"ASDZ","uicCode":"8400061"},{"coordinate":{"lat":52.3372230529785,"lng":4.89027786254883},"countryCode":"NL","name":"Amsterdam RAI","stationCode":"RAI","uicCode":"8400056"},{"coordinate":{"lat":52.3233337402344,"lng":4.93638896942139},"countryCode":"NL","name":"Duivendrecht","stationCode":"DVD","uicCode":"8400194"},{"coordinate":{"lat":52.3302764892578,"lng":4.95583343505859},"countryCode":"NL","name":"Diemen Zuid","stationCode":"DMNZ","uicCode":"8400163"},{"coordinate":{"lat":52.3127784729004,"lng":5.04305553436279},"countryCode":"NL","name":"Weesp","stationCode":"WP","uicCode":"8400685"},{"coordinate":{"lat":52.342778,"lng":5.151944},"countryCode":"NL","name":"Almere Poort","stationCode":"AMPO","uicCode":"8400450"},{"coordinate":{"lat":52.3675003051758,"lng":5.19027757644653},"countryCode":"NL","name":"Almere Muziekwijk","stationCode":"ALMM","uicCode":"8400082"},{"coordinate":{"lat":52.37503,"lng":5.21764},"countryCode":"NL","name":"Almere Centrum","stationCode":"ALM","uicCode":"8400080"},{"coordinate":{"lat":52.3766670227051,"lng":5.24472236633301},"countryCode":"NL","name":"Almere Parkwijk","stationCode":"ALMP","uicCode":"8400104"},{"coordinate":{"lat":52.3941650390625,"lng":5.2780556678772},"countryCode":"NL","name":"Almere Buiten","stationCode":"ALMB","uicCode":"8400081"},{"coordinate":{"lat":52.4033317565918,"lng":5.30055570602417},"countryCode":"NL","name":"Almere Oostvaarders","stationCode":"ALMO","uicCode":"8400226"},{"coordinate":{"lat":52.5077781677246,"lng":5.47277784347534},"countryCode":"NL","name":"Lelystad Centrum","stationCode":"LLS","uicCode":"8400394"}],"direction":"BOTH"},"consequence":{"section":{"stations":[{"coordinate":{"lat":52.3094444274902,"lng":4.76194429397583},"countryCode":"NL","name":"Schiphol Airport","stationCode":"SHL","uicCode":"8400561"},{"coordinate":{"lat":52.338889,"lng":4.872356},"countryCode":"NL","name":"Amsterdam Zuid","stationCode":"ASDZ","uicCode":"8400061"}],"direction":"ONE_WAY"},"description":"geen treinen","level":"LESS_TRAINS"},"sectionType":"NL"},{"section":{"stations":[{"coordinate":{"lat":52.3094444274902,"lng":4.76194429397583},"countryCode":"NL","name":"Schiphol Airport","stationCode":"SHL","uicCode":"8400561"},{"coordinate":{"lat":52.338889,"lng":4.872356},"countryCode":"NL","name":"Amsterdam Zuid","stationCode":"ASDZ","uicCode":"8400061"},{"coordinate":{"lat":52.3372230529785,"lng":4.89027786254883},"countryCode":"NL","name":"Amsterdam RAI","stationCode":"RAI","uicCode":"8400056"},{"coordinate":{"lat":52.3122215270996,"lng":4.94694423675537},"countryCode":"NL","name":"Amsterdam Bijlmer ArenA","stationCode":"ASB","uicCode":"8400074"},{"coordinate":{"lat":52.29844,"lng":4.95972},"countryCode":"NL","name":"Amsterdam Holendrecht","stationCode":"ASHD","uicCode":"8400231"},{"coordinate":{"lat":52.2785,"lng":4.977},"countryCode":"NL","name":"Abcoude","stationCode":"AC","uicCode":"8400047"},{"coordinate":{"lat":52.17149,"lng":4.9906},"countryCode":"NL","name":"Breukelen","stationCode":"BKL","uicCode":"8400133"},{"coordinate":{"lat":52.1352767944336,"lng":5.03361129760742},"countryCode":"NL","name":"Maarssen","stationCode":"MAS","uicCode":"8400419"},{"coordinate":{"lat":52.103055,"lng":5.09},"countryCode":"NL","name":"Utrecht Zuilen","stationCode":"UTZL","uicCode":"8400613"},{"coordinate":{"lat":52.0888900756836,"lng":5.11027765274048},"countryCode":"NL","name":"Utrecht Centraal","stationCode":"UT","uicCode":"8400621"}],"direction":"BOTH"},"consequence":{"section":{"stations":[{"coordinate":{"lat":52.3094444274902,"lng":4.76194429397583},"countryCode":"NL","name":"Schiphol Airport","stationCode":"SHL","uicCode":"8400561"},{"coordinate":{"lat":52.338889,"lng":4.872356},"countryCode":"NL","name":"Amsterdam Zuid","stationCode":"ASDZ","uicCode":"8400061"}],"direction":"ONE_WAY"},"description":"geen treinen","level":"LESS_TRAINS"},"sectionType":"NL"},{"section":{"stations":[{"coordinate":{"lat":52.3094444274902,"lng":4.76194429397583},"countryCode":"NL","name":"Schiphol Airport","stationCode":"SHL","uicCode":"8400561"},{"coordinate":{"lat":52.338889,"lng":4.872356},"countryCode":"NL","name":"Amsterdam Zuid","stationCode":"ASDZ","uicCode":"8400061"},{"coordinate":{"lat":52.3372230529785,"lng":4.89027786254883},"countryCode":"NL","name":"Amsterdam RAI","stationCode":"RAI","uicCode":"8400056"},{"coordinate":{"lat":52.3122215270996,"lng":4.94694423675537},"countryCode":"NL","name":"Amsterdam Bijlmer ArenA","stationCode":"ASB","uicCode":"8400074"},{"coordinate":{"lat":52.29844,"lng":4.95972},"countryCode":"NL","name":"Amsterdam Holendrecht","stationCode":"ASHD","uicCode":"8400231"},{"coordinate":{"lat":52.2785,"lng":4.977},"countryCode":"NL","name":"Abcoude","stationCode":"AC","uicCode":"8400047"},{"coordinate":{"lat":52.17149,"lng":4.9906},"countryCode":"NL","name":"Breukelen","stationCode":"BKL","uicCode":"8400133"},{"coordinate":{"lat":52.1352767944336,"lng":5.03361129760742},"countryCode":"NL","name":"Maarssen","stationCode":"MAS","uicCode":"8400419"},{"coordinate":{"lat":52.103055,"lng":5.09},"countryCode":"NL","name":"Utrecht Zuilen","stationCode":"UTZL","uicCode":"8400613"},{"coordinate":{"lat":52.0888900756836,"lng":5.11027765274048},"countryCode":"NL","name":"Utrecht Centraal","stationCode":"UT","uicCode":"8400621"}],"direction":"BOTH"},"consequence":{"section":{"stations":[{"coordinate":{"lat":52.338889,"lng":4.872356},"countryCode":"NL","name":"Amsterdam Zuid","stationCode":"ASDZ","uicCode":"8400061"},{"coordinate":{"lat":52.3372230529785,"lng":4.89027786254883},"countryCode":"NL","name":"Amsterdam RAI","stationCode":"RAI","uicCode":"8400056"},{"coordinate":{"lat":52.3122215270996,"lng":4.94694423675537},"countryCode":"NL","name":"Amsterdam Bijlmer ArenA","stationCode":"ASB","uicCode":"8400074"}],"direction":"ONE_WAY"},"description":"geen treinen","level":"LESS_TRAINS"},"sectionType":"NL"}],"summaryAdditionalTravelTime":{"label":"De extra reistijd ligt tussen 15 en 30 minuten.","shortLabel":"Extra reistijd: 15 - 30 min.","minimumDurationInMinutes":15,"maximumDurationInMinutes":30},"timespans":[{"start":"2024-11-08T04:30:00+0100","end":"2024-11-11T01:15:00+0100","period":"Vrijdag 8 november 4:30 uur t/m maandag 11 november 1:15 uur.","situation":{"label":"Door werkzaamheden: tussen Schiphol Airport en Amsterdam Zuid rijden er geen treinen en tussen Amsterdam Zuid en Amsterdam Bijlmer ArenA rijden er geen treinen."},"cause":{"label":"werkzaamheden"},"additionalTravelTime":{"label":"De extra reistijd ligt tussen 15 en 30 minuten.","shortLabel":"Extra reistijd: 15 - 30 min.","minimumDurationInMinutes":15,"maximumDurationInMinutes":30},"alternativeTransport":{"label":"maak gebruik van het vervangende vervoer","shortLabel":"gebruik het vervangende vervoer"},"advices":["Uw NS-vervoerbewijs is geldig in metro 50 tussen Amsterdam Lelylaan en Amsterdam Bijlmer en metro 51 tussen Amsterdam Lelylaan en Amsterdam Amstel.","Tussen Schiphol Airport en Amsterdam Zuid reis via Lelylaan.","Tussen Schiphol Airport en Utrecht C./Weesp reis via Amsterdam C."]}],"alternativeTransportTimespans":[{"start":"2024-11-08T04:30:00+0100","end":"2024-11-11T01:15:00+0100","alternativeTransport":{"location":[{"station":{"coordinate":{"lat":52.3577766418457,"lng":4.83388900756836},"countryCode":"NL","name":"Amsterdam Lelylaan","stationCode":"ASDL","uicCode":"8400079"},"description":"volg de aanwijzingen op het station"},{"station":{"coordinate":{"lat":52.3466682434082,"lng":4.91777801513672},"countryCode":"NL","name":"Amsterdam Amstel","stationCode":"ASA","uicCode":"8400057"},"description":"volg de aanwijzingen op het station"}],"label":"Maak gebruik van de Amsterdamse metro tussen Amsterdam Lelylaan en Amsterdam Amstel.","shortLabel":"Gebruik de Amsterdamse metro Lelylaan - Amstel."}},{"start":"2024-11-08T04:30:00+0100","end":"2024-11-11T01:15:00+0100","alternativeTransport":{"location":[{"station":{"coordinate":{"lat":52.3577766418457,"lng":4.83388900756836},"countryCode":"NL","name":"Amsterdam Lelylaan","stationCode":"ASDL","uicCode":"8400079"},"description":"volg de aanwijzingen op het station"},{"station":{"coordinate":{"lat":52.3122215270996,"lng":4.94694423675537},"countryCode":"NL","name":"Amsterdam Bijlmer ArenA","stationCode":"ASB","uicCode":"8400074"},"description":"volg de aanwijzingen op het station"}],"label":"Maak gebruik van de Amsterdamse metro tussen Amsterdam Lelylaan en Amsterdam Bijlmer ArenA.","shortLabel":"Gebruik de Amsterdamse metro Lelylaan - Bijlmer ArenA."}},{"start":"2024-11-08T04:40:00+0100","end":"2024-11-08T06:10:00+0100","alternativeTransport":{"location":[{"station":{"coordinate":{"lat":52.3127784729004,"lng":5.04305553436279},"countryCode":"NL","name":"Weesp","stationCode":"WP","uicCode":"8400685"},"description":"vanaf de achterzijde van het station"},{"station":{"coordinate":{"lat":52.3302764892578,"lng":4.95583343505859},"countryCode":"NL","name":"Diemen Zuid","stationCode":"DMNZ","uicCode":"8400163"},"description":"vanaf de voorzijde van het station"},{"station":{"coordinate":{"lat":52.3233337402344,"lng":4.93638896942139},"countryCode":"NL","name":"Duivendrecht","stationCode":"DVD","uicCode":"8400194"},"description":"vanaf het busstation"},{"station":{"coordinate":{"lat":52.3372230529785,"lng":4.89027786254883},"countryCode":"NL","name":"Amsterdam RAI","stationCode":"RAI","uicCode":"8400056"},"description":"vanaf de voorzijde van het station"},{"station":{"coordinate":{"lat":52.338889,"lng":4.872356},"countryCode":"NL","name":"Amsterdam Zuid","stationCode":"ASDZ","uicCode":"8400061"},"description":"vanaf de Strawinskylaan uitgang Zuidplein"},{"station":{"coordinate":{"lat":52.3094444274902,"lng":4.76194429397583},"countryCode":"NL","name":"Schiphol Airport","stationCode":"SHL","uicCode":"8400561"},"description":"volg de aanwijzingen op het station"}],"label":"Er rijden stopbussen van Weesp, Diemen Zuid, Duivendrecht, Amsterdam RAI, Amsterdam Zuid naar Schiphol Airport.","shortLabel":"Er rijden stopbussen Weesp -> Diemen Zuid -> Duivendrecht -> RAI -> Amsterdam Zuid -> Schiphol Airport."}},{"start":"2024-11-08T06:10:00+0100","end":"2024-11-08T06:45:00+0100","alternativeTransport":{"location":[{"station":{"coordinate":{"lat":52.338889,"lng":4.872356},"countryCode":"NL","name":"Amsterdam Zuid","stationCode":"ASDZ","uicCode":"8400061"},"description":"vanaf de Strawinskylaan uitgang Zuidplein"},{"station":{"coordinate":{"lat":52.3094444274902,"lng":4.76194429397583},"countryCode":"NL","name":"Schiphol Airport","stationCode":"SHL","uicCode":"8400561"},"description":"volg de aanwijzingen op het station"}],"label":"Er rijden snelbussen van Amsterdam Zuid naar Schiphol Airport.","shortLabel":"Er rijden snelbussen Amsterdam Zuid -> Schiphol Airport."}},{"start":"2024-11-09T00:45:00+0100","end":"2024-11-09T01:15:00+0100","alternativeTransport":{"location":[{"station":{"coordinate":{"lat":52.338889,"lng":4.872356},"countryCode":"NL","name":"Amsterdam Zuid","stationCode":"ASDZ","uicCode":"8400061"},"description":"vanaf de Strawinskylaan uitgang Zuidplein"},{"station":{"coordinate":{"lat":52.3094444274902,"lng":4.76194429397583},"countryCode":"NL","name":"Schiphol Airport","stationCode":"SHL","uicCode":"8400561"},"description":"volg de aanwijzingen op het station"}],"label":"Er rijden snelbussen van Amsterdam Zuid naar Schiphol Airport.","shortLabel":"Er rijden snelbussen Amsterdam Zuid -> Schiphol Airport."}},{"start":"2024-11-09T04:40:00+0100","end":"2024-11-09T06:10:00+0100","alternativeTransport":{"location":[{"station":{"coordinate":{"lat":52.3127784729004,"lng":5.04305553436279},"countryCode":"NL","name":"Weesp","stationCode":"WP","uicCode":"8400685"},"description":"vanaf de achterzijde van het station"},{"station":{"coordinate":{"lat":52.3302764892578,"lng":4.95583343505859},"countryCode":"NL","name":"Diemen Zuid","stationCode":"DMNZ","uicCode":"8400163"},"description":"vanaf de voorzijde van het station"},{"station":{"coordinate":{"lat":52.3233337402344,"lng":4.93638896942139},"countryCode":"NL","name":"Duivendrecht","stationCode":"DVD","uicCode":"8400194"},"description":"vanaf het busstation"},{"station":{"coordinate":{"lat":52.3372230529785,"lng":4.89027786254883},"countryCode":"NL","name":"Amsterdam RAI","stationCode":"RAI","uicCode":"8400056"},"description":"vanaf de voorzijde van het station"},{"station":{"coordinate":{"lat":52.338889,"lng":4.872356},"countryCode":"NL","name":"Amsterdam Zuid","stationCode":"ASDZ","uicCode":"8400061"},"description":"vanaf de Strawinskylaan uitgang Zuidplein"},{"station":{"coordinate":{"lat":52.3094444274902,"lng":4.76194429397583},"countryCode":"NL","name":"Schiphol Airport","stationCode":"SHL","uicCode":"8400561"},"description":"volg de aanwijzingen op het station"}],"label":"Er rijden stopbussen van Weesp, Diemen Zuid, Duivendrecht, Amsterdam RAI, Amsterdam Zuid naar Schiphol Airport.","shortLabel":"Er rijden stopbussen Weesp -> Diemen Zuid -> Duivendrecht -> RAI -> Amsterdam Zuid -> Schiphol Airport."}},{"start":"2024-11-09T06:10:00+0100","end":"2024-11-09T06:45:00+0100","alternativeTransport":{"location":[{"station":{"coordinate":{"lat":52.338889,"lng":4.872356},"countryCode":"NL","name":"Amsterdam Zuid","stationCode":"ASDZ","uicCode":"8400061"},"description":"vanaf de Strawinskylaan uitgang Zuidplein"},{"station":{"coordinate":{"lat":52.3094444274902,"lng":4.76194429397583},"countryCode":"NL","name":"Schiphol Airport","stationCode":"SHL","uicCode":"8400561"},"description":"volg de aanwijzingen op het station"}],"label":"Er rijden snelbussen van Amsterdam Zuid naar Schiphol Airport.","shortLabel":"Er rijden snelbussen Amsterdam Zuid -> Schiphol Airport."}},{"start":"2024-11-09T23:50:00+0100","end":"2024-11-10T01:45:00+0100","alternativeTransport":{"location":[{"station":{"coordinate":{"lat":52.3094444274902,"lng":4.76194429397583},"countryCode":"NL","name":"Schiphol Airport","stationCode":"SHL","uicCode":"8400561"},"description":"vanaf het GOS busstation"},{"station":{"coordinate":{"lat":52.338889,"lng":4.872356},"countryCode":"NL","name":"Amsterdam Zuid","stationCode":"ASDZ","uicCode":"8400061"},"description":"volg de aanwijzingen op het station"}],"label":"Er rijden snelbussen van Schiphol Airport naar Amsterdam Zuid.","shortLabel":"Er rijden snelbussen Schiphol Airport -> Amsterdam Zuid."}},{"start":"2024-11-10T00:45:00+0100","end":"2024-11-10T01:15:00+0100","alternativeTransport":{"location":[{"station":{"coordinate":{"lat":52.338889,"lng":4.872356},"countryCode":"NL","name":"Amsterdam Zuid","stationCode":"ASDZ","uicCode":"8400061"},"description":"vanaf de Strawinskylaan uitgang Zuidplein"},{"station":{"coordinate":{"lat":52.3094444274902,"lng":4.76194429397583},"countryCode":"NL","name":"Schiphol Airport","stationCode":"SHL","uicCode":"8400561"},"description":"volg de aanwijzingen op het station"}],"label":"Er rijden snelbussen van Amsterdam Zuid naar Schiphol Airport.","shortLabel":"Er rijden snelbussen Amsterdam Zuid -> Schiphol Airport."}},{"start":"2024-11-10T04:40:00+0100","end":"2024-11-10T06:10:00+0100","alternativeTransport":{"location":[{"station":{"coordinate":{"lat":52.3127784729004,"lng":5.04305553436279},"countryCode":"NL","name":"Weesp","stationCode":"WP","uicCode":"8400685"},"description":"vanaf de achterzijde van het station"},{"station":{"coordinate":{"lat":52.3302764892578,"lng":4.95583343505859},"countryCode":"NL","name":"Diemen Zuid","stationCode":"DMNZ","uicCode":"8400163"},"description":"vanaf de voorzijde van het station"},{"station":{"coordinate":{"lat":52.3233337402344,"lng":4.93638896942139},"countryCode":"NL","name":"Duivendrecht","stationCode":"DVD","uicCode":"8400194"},"description":"vanaf het busstation"},{"station":{"coordinate":{"lat":52.3372230529785,"lng":4.89027786254883},"countryCode":"NL","name":"Amsterdam RAI","stationCode":"RAI","uicCode":"8400056"},"description":"vanaf de voorzijde van het station"},{"station":{"coordinate":{"lat":52.338889,"lng":4.872356},"countryCode":"NL","name":"Amsterdam Zuid","stationCode":"ASDZ","uicCode":"8400061"},"description":"vanaf de Strawinskylaan uitgang Zuidplein"},{"station":{"coordinate":{"lat":52.3094444274902,"lng":4.76194429397583},"countryCode":"NL","name":"Schiphol Airport","stationCode":"SHL","uicCode":"8400561"},"description":"volg de aanwijzingen op het station"}],"label":"Er rijden stopbussen van Weesp, Diemen Zuid, Duivendrecht, Amsterdam RAI, Amsterdam Zuid naar Schiphol Airport.","shortLabel":"Er rijden stopbussen Weesp -> Diemen Zuid -> Duivendrecht -> RAI -> Amsterdam Zuid -> Schiphol Airport."}},{"start":"2024-11-10T06:10:00+0100","end":"2024-11-10T07:45:00+0100","alternativeTransport":{"location":[{"station":{"coordinate":{"lat":52.338889,"lng":4.872356},"countryCode":"NL","name":"Amsterdam Zuid","stationCode":"ASDZ","uicCode":"8400061"},"description":"vanaf de Strawinskylaan uitgang Zuidplein"},{"station":{"coordinate":{"lat":52.3094444274902,"lng":4.76194429397583},"countryCode":"NL","name":"Schiphol Airport","stationCode":"SHL","uicCode":"8400561"},"description":"volg de aanwijzingen op het station"}],"label":"Er rijden snelbussen van Amsterdam Zuid naar Schiphol Airport.","shortLabel":"Er rijden snelbussen Amsterdam Zuid -> Schiphol Airport."}},{"start":"2024-11-10T23:50:00+0100","end":"2024-11-11T00:45:00+0100","alternativeTransport":{"location":[{"station":{"coordinate":{"lat":52.3094444274902,"lng":4.76194429397583},"countryCode":"NL","name":"Schiphol Airport","stationCode":"SHL","uicCode":"8400561"},"description":"vanaf het GOS busstation"},{"station":{"coordinate":{"lat":52.338889,"lng":4.872356},"countryCode":"NL","name":"Amsterdam Zuid","stationCode":"ASDZ","uicCode":"8400061"},"description":"volg de aanwijzingen op het station"}],"label":"Er rijden snelbussen van Schiphol Airport naar Amsterdam Zuid.","shortLabel":"Er rijden snelbussen Schiphol Airport -> Amsterdam Zuid."}},{"start":"2024-11-11T00:45:00+0100","end":"2024-11-11T01:15:00+0100","alternativeTransport":{"location":[{"station":{"coordinate":{"lat":52.338889,"lng":4.872356},"countryCode":"NL","name":"Amsterdam Zuid","stationCode":"ASDZ","uicCode":"8400061"},"description":"vanaf de Strawinskylaan uitgang Zuidplein"},{"station":{"coordinate":{"lat":52.3094444274902,"lng":4.76194429397583},"countryCode":"NL","name":"Schiphol Airport","stationCode":"SHL","uicCode":"8400561"},"description":"volg de aanwijzingen op het station"}],"label":"Er rijden snelbussen van Amsterdam Zuid naar Schiphol Airport.","shortLabel":"Er rijden snelbussen Amsterdam Zuid -> Schiphol Airport."}}]},{"type":"MAINTENANCE","id":"7005598","title":"Heerlen - Aachen Hbf.","isActive":true,"local":false,"titleSections":[[{"type":"STATION","value":"Heerlen"},{"type":"ICON","value":"MAINTENANCE"},{"type":"STATION","value":"Aachen Hbf"}]],"registrationTime":"2024-11-07T21:57:43+0100","start":"2024-11-08T06:00:00+0100","releaseTime":"2024-11-07T21:57:43+0100","end":"2024-11-08T11:00:00+0100","period":"Vrijdag 8 november 6:00 uur t/m vrijdag 8 november 11:00 uur.","impact":{"value":2},"publicationSections":[{"section":{"stations":[{"coordinate":{"lat":50.8908348083496,"lng":5.97499990463257},"countryCode":"NL","name":"Heerlen","stationCode":"HRL","uicCode":"8400307"},{"coordinate":{"lat":50.8963890075684,"lng":6.01916646957398},"countryCode":"NL","name":"Landgraaf","stationCode":"LG","uicCode":"8400548"},{"coordinate":{"lat":50.8960498196442,"lng":6.0602474212646396},"countryCode":"NL","name":"Eygelshoven Markt","stationCode":"EGHM","uicCode":"8400234"},{"coordinate":{"lat":50.870916,"lng":6.094486},"countryCode":"D","name":"Herzogenrath","stationCode":"HZ","uicCode":"8015190"},{"coordinate":{"lat":50.7678,"lng":6.091499},"countryCode":"D","name":"Aachen Hbf","stationCode":"AHBF","uicCode":"8015345"}],"direction":"BOTH"},"consequence":{"section":{"stations":[{"coordinate":{"lat":50.8908348083496,"lng":5.97499990463257},"countryCode":"NL","name":"Heerlen","stationCode":"HRL","uicCode":"8400307"},{"coordinate":{"lat":50.8963890075684,"lng":6.01916646957398},"countryCode":"NL","name":"Landgraaf","stationCode":"LG","uicCode":"8400548"},{"coordinate":{"lat":50.8960498196442,"lng":6.0602474212646396},"countryCode":"NL","name":"Eygelshoven Markt","stationCode":"EGHM","uicCode":"8400234"},{"coordinate":{"lat":50.870916,"lng":6.094486},"countryCode":"D","name":"Herzogenrath","stationCode":"HZ","uicCode":"8015190"},{"coordinate":{"lat":50.7678,"lng":6.091499},"countryCode":"D","name":"Aachen Hbf","stationCode":"AHBF","uicCode":"8015345"}],"direction":"ONE_WAY"},"description":"rijden bussen","level":"LESS_TRAINS"},"sectionType":"NEIGHBORING_COUNTRY"}],"summaryAdditionalTravelTime":{"label":"De extra reistijd is ongeveer 30 minuten.","shortLabel":"Extra reistijd 30 min.","minimumDurationInMinutes":30,"maximumDurationInMinutes":30},"timespans":[{"start":"2024-11-08T06:00:00+0100","end":"2024-11-08T11:00:00+0100","period":"Vrijdag 8 november 6:00 uur t/m vrijdag 8 november 11:00 uur.","situation":{"label":"Door een tekort aan personeel: tussen Heerlen en Aachen Hbf rijden er bussen."},"cause":{"label":"tekort personeel"},"additionalTravelTime":{"label":"De extra reistijd is ongeveer 30 minuten.","shortLabel":"Extra reistijd 30 min.","minimumDurationInMinutes":30,"maximumDurationInMinutes":30},"alternativeTransport":{"label":"er rijden stopbussen","shortLabel":"er rijden stopbussen"},"advices":[]}],"alternativeTransportTimespans":[{"start":"2024-11-08T06:00:00+0100","end":"2024-11-08T11:00:00+0100","alternativeTransport":{"location":[{"station":{"coordinate":{"lat":50.8908348083496,"lng":5.97499990463257},"countryCode":"NL","name":"Heerlen","stationCode":"HRL","uicCode":"8400307"},"description":"vanaf het busstation Perron A"},{"station":{"coordinate":{"lat":50.8963890075684,"lng":6.01916646957398},"countryCode":"NL","name":"Landgraaf","stationCode":"LG","uicCode":"8400548"},"description":"vanaf de doorgaande weg, voorzijde station"},{"station":{"coordinate":{"lat":50.8960498196442,"lng":6.0602474212646396},"countryCode":"NL","name":"Eygelshoven Markt","stationCode":"EGHM","uicCode":"8400234"},"description":"vanaf de bushalte Centrum"},{"station":{"coordinate":{"lat":50.870916,"lng":6.094486},"countryCode":"D","name":"Herzogenrath","stationCode":"HZ","uicCode":"8015190"},"description":"volg de aanwijzingen op het station"},{"station":{"coordinate":{"lat":50.78036,"lng":6.070715},"countryCode":"D","name":"Aachen West","stationCode":"AW","uicCode":"8015199"},"description":"volg de aanwijzingen op het station"},{"station":{"coordinate":{"lat":50.7678,"lng":6.091499},"countryCode":"D","name":"Aachen Hbf","stationCode":"AHBF","uicCode":"8015345"},"description":"volg de aanwijzingen op het station"}],"label":"Er rijden stopbussen tussen Heerlen, Landgraaf, Eygelshoven Markt, Herzogenrath, Aachen West en Aachen Hbf.","shortLabel":"Er rijden stopbussen Heerlen - Landgraaf - Eygelshoven Mrkt - Herzogenrath - Aachen West - Aachen Hbf."}}]},{"type":"MAINTENANCE","id":"7005527","title":"Leiden - Den Haag.; Leiden - Den Haag HS","isActive":false,"local":false,"titleSections":[[{"type":"STATION","value":"Leiden C."},{"type":"ICON","value":"MAINTENANCE"},{"type":"STATION","value":"Den Haag C."}],[{"type":"STATION","value":"Leiden C."},{"type":"ICON","value":"MAINTENANCE"},{"type":"STATION","value":"Mariahoeve"},{"type":"STATION","value":"Den Haag HS"}],[{"type":"STATION","value":"Leiden C."},{"type":"ICON","value":"MAINTENANCE"},{"type":"STATION","value":"Mariahoeve"},{"type":"STATION","value":"Den Haag C."}]],"registrationTime":"2024-10-16T11:00:05+0200","start":"2024-11-09T01:00:00+0100","releaseTime":"2024-10-16T11:00:05+0200","end":"2024-11-11T05:30:00+0100","period":"Zaterdag 9 november 1:00 uur t/m maandag 11 november 5:30 uur.","impact":{"value":4},"publicationSections":[{"section":{"stations":[{"coordinate":{"lat":52.1661109924316,"lng":4.48166656494141},"countryCode":"NL","name":"Leiden Centraal","stationCode":"LEDN","uicCode":"8400390"},{"coordinate":{"lat":52.1472206115723,"lng":4.4563889503479},"countryCode":"NL","name":"De Vink","stationCode":"DVNK","uicCode":"8400188"},{"coordinate":{"lat":52.1252784729004,"lng":4.43249988555908},"countryCode":"NL","name":"Voorschoten","stationCode":"VST","uicCode":"8400659"},{"coordinate":{"lat":52.0905570983887,"lng":4.36944437026978},"countryCode":"NL","name":"Den Haag Mariahoeve","stationCode":"GVM","uicCode":"8400278"},{"coordinate":{"lat":52.0786094665527,"lng":4.34277772903442},"countryCode":"NL","name":"Den Haag Laan v NOI","stationCode":"LAA","uicCode":"8400380"},{"coordinate":{"lat":52.0802764892578,"lng":4.32499980926514},"countryCode":"NL","name":"Den Haag Centraal","stationCode":"GVC","uicCode":"8400282"}],"direction":"BOTH"},"consequence":{"section":{"stations":[{"coordinate":{"lat":52.1661109924316,"lng":4.48166656494141},"countryCode":"NL","name":"Leiden Centraal","stationCode":"LEDN","uicCode":"8400390"},{"coordinate":{"lat":52.1472206115723,"lng":4.4563889503479},"countryCode":"NL","name":"De Vink","stationCode":"DVNK","uicCode":"8400188"},{"coordinate":{"lat":52.1252784729004,"lng":4.43249988555908},"countryCode":"NL","name":"Voorschoten","stationCode":"VST","uicCode":"8400659"},{"coordinate":{"lat":52.0905570983887,"lng":4.36944437026978},"countryCode":"NL","name":"Den Haag Mariahoeve","stationCode":"GVM","uicCode":"8400278"},{"coordinate":{"lat":52.0786094665527,"lng":4.34277772903442},"countryCode":"NL","name":"Den Haag Laan v NOI","stationCode":"LAA","uicCode":"8400380"},{"coordinate":{"lat":52.0802764892578,"lng":4.32499980926514},"countryCode":"NL","name":"Den Haag Centraal","stationCode":"GVC","uicCode":"8400282"}],"direction":"ONE_WAY"},"description":"rijden bussen","level":"LESS_TRAINS"},"sectionType":"NL"},{"section":{"stations":[{"coordinate":{"lat":52.1661109924316,"lng":4.48166656494141},"countryCode":"NL","name":"Leiden Centraal","stationCode":"LEDN","uicCode":"8400390"},{"coordinate":{"lat":52.1472206115723,"lng":4.4563889503479},"countryCode":"NL","name":"De Vink","stationCode":"DVNK","uicCode":"8400188"},{"coordinate":{"lat":52.1252784729004,"lng":4.43249988555908},"countryCode":"NL","name":"Voorschoten","stationCode":"VST","uicCode":"8400659"},{"coordinate":{"lat":52.0905570983887,"lng":4.36944437026978},"countryCode":"NL","name":"Den Haag Mariahoeve","stationCode":"GVM","uicCode":"8400278"},{"coordinate":{"lat":52.0786094665527,"lng":4.34277772903442},"countryCode":"NL","name":"Den Haag Laan v NOI","stationCode":"LAA","uicCode":"8400380"},{"coordinate":{"lat":52.0697212219238,"lng":4.32250022888184},"countryCode":"NL","name":"Den Haag HS","stationCode":"GV","uicCode":"8400280"}],"direction":"BOTH"},"consequence":{"section":{"stations":[{"coordinate":{"lat":52.1661109924316,"lng":4.48166656494141},"countryCode":"NL","name":"Leiden Centraal","stationCode":"LEDN","uicCode":"8400390"},{"coordinate":{"lat":52.1472206115723,"lng":4.4563889503479},"countryCode":"NL","name":"De Vink","stationCode":"DVNK","uicCode":"8400188"},{"coordinate":{"lat":52.1252784729004,"lng":4.43249988555908},"countryCode":"NL","name":"Voorschoten","stationCode":"VST","uicCode":"8400659"},{"coordinate":{"lat":52.0905570983887,"lng":4.36944437026978},"countryCode":"NL","name":"Den Haag Mariahoeve","stationCode":"GVM","uicCode":"8400278"}],"direction":"ONE_WAY"},"description":"rijden bussen","level":"LESS_TRAINS"},"sectionType":"NL"},{"section":{"stations":[{"coordinate":{"lat":52.1661109924316,"lng":4.48166656494141},"countryCode":"NL","name":"Leiden Centraal","stationCode":"LEDN","uicCode":"8400390"},{"coordinate":{"lat":52.1472206115723,"lng":4.4563889503479},"countryCode":"NL","name":"De Vink","stationCode":"DVNK","uicCode":"8400188"},{"coordinate":{"lat":52.1252784729004,"lng":4.43249988555908},"countryCode":"NL","name":"Voorschoten","stationCode":"VST","uicCode":"8400659"},{"coordinate":{"lat":52.0905570983887,"lng":4.36944437026978},"countryCode":"NL","name":"Den Haag Mariahoeve","stationCode":"GVM","uicCode":"8400278"},{"coordinate":{"lat":52.0786094665527,"lng":4.34277772903442},"countryCode":"NL","name":"Den Haag Laan v NOI","stationCode":"LAA","uicCode":"8400380"},{"coordinate":{"lat":52.0802764892578,"lng":4.32499980926514},"countryCode":"NL","name":"Den Haag Centraal","stationCode":"GVC","uicCode":"8400282"}],"direction":"BOTH"},"consequence":{"section":{"stations":[{"coordinate":{"lat":52.1661109924316,"lng":4.48166656494141},"countryCode":"NL","name":"Leiden Centraal","stationCode":"LEDN","uicCode":"8400390"},{"coordinate":{"lat":52.1472206115723,"lng":4.4563889503479},"countryCode":"NL","name":"De Vink","stationCode":"DVNK","uicCode":"8400188"},{"coordinate":{"lat":52.1252784729004,"lng":4.43249988555908},"countryCode":"NL","name":"Voorschoten","stationCode":"VST","uicCode":"8400659"},{"coordinate":{"lat":52.0905570983887,"lng":4.36944437026978},"countryCode":"NL","name":"Den Haag Mariahoeve","stationCode":"GVM","uicCode":"8400278"}],"direction":"ONE_WAY"},"description":"rijden bussen","level":"LESS_TRAINS"},"sectionType":"NL"}],"summaryAdditionalTravelTime":{"label":"De extra reistijd kan oplopen tot 45 minuten.","shortLabel":"Extra reistijd tot 45 min.","minimumDurationInMinutes":45,"maximumDurationInMinutes":45},"timespans":[{"start":"2024-11-09T01:00:00+0100","end":"2024-11-10T03:00:00+0100","period":"Zaterdag 9 november 1:00 uur t/m zondag 10 november 3:00 uur.","situation":{"label":"Door werkzaamheden: tussen Leiden Centraal en Den Haag Centraal rijden er bussen."},"cause":{"label":"werkzaamheden"},"additionalTravelTime":{"label":"De extra reistijd is ongeveer 45 minuten.","shortLabel":"Extra reistijd 45 min.","minimumDurationInMinutes":45,"maximumDurationInMinutes":45},"alternativeTransport":{"label":"er rijden stopbussen","shortLabel":"er rijden stopbussen"},"advices":["Reis tussen Amsterdam C. en Den Haag C. met de rechtstreekse omgeleide Intercity.","Tussen Leiden C. en Den Haag HS reis via Den Haag C."]},{"start":"2024-11-10T03:00:00+0100","end":"2024-11-11T05:30:00+0100","period":"Zondag 10 november 3:00 uur t/m maandag 11 november 5:30 uur.","situation":{"label":"Door werkzaamheden: tussen Leiden Centraal en Den Haag Mariahoeve rijden er bussen."},"cause":{"label":"werkzaamheden"},"additionalTravelTime":{"label":"De extra reistijd is ongeveer 30 minuten.","shortLabel":"Extra reistijd 30 min.","minimumDurationInMinutes":30,"maximumDurationInMinutes":30},"alternativeTransport":{"label":"er rijden stopbussen","shortLabel":"er rijden stopbussen"},"advices":["Reis tussen Amsterdam C. en Den Haag C. met de rechtstreekse omgeleide Intercity.","Tussen Mariahoeve en Den Haag C. reis via Den Haag HS."]}],"alternativeTransportTimespans":[{"start":"2024-11-09T01:00:00+0100","end":"2024-11-09T05:30:00+0100","alternativeTransport":{"location":[{"station":{"coordinate":{"lat":52.1661109924316,"lng":4.48166656494141},"countryCode":"NL","name":"Leiden Centraal","stationCode":"LEDN","uicCode":"8400390"},"description":"vanaf het stadsbusstation"},{"station":{"coordinate":{"lat":52.0786094665527,"lng":4.34277772903442},"countryCode":"NL","name":"Den Haag Laan v NOI","stationCode":"LAA","uicCode":"8400380"},"description":"vanaf de Anna van Hannoverstraat"},{"station":{"coordinate":{"lat":52.0697212219238,"lng":4.32250022888184},"countryCode":"NL","name":"Den Haag HS","stationCode":"GV","uicCode":"8400280"},"description":"vanaf de achterzijde van het station"}],"label":"Er rijden stopbussen tussen Leiden Centraal, Den Haag Laan v NOI en Den Haag HS.","shortLabel":"Er rijden stopbussen Leiden C. - Laan v NOI - Den Haag HS."}},{"start":"2024-11-09T01:15:00+0100","end":"2024-11-09T02:15:00+0100","alternativeTransport":{"location":[{"station":{"coordinate":{"lat":52.1661109924316,"lng":4.48166656494141},"countryCode":"NL","name":"Leiden Centraal","stationCode":"LEDN","uicCode":"8400390"},"description":"vanaf het stadsbusstation"},{"station":{"coordinate":{"lat":52.1252784729004,"lng":4.43249988555908},"countryCode":"NL","name":"Voorschoten","stationCode":"VST","uicCode":"8400659"},"description":"vanaf de Wijngaardenlaan"},{"station":{"coordinate":{"lat":52.0905570983887,"lng":4.36944437026978},"countryCode":"NL","name":"Den Haag Mariahoeve","stationCode":"GVM","uicCode":"8400278"},"description":"vanaf de voorzijde van het station"},{"station":{"coordinate":{"lat":52.0786094665527,"lng":4.34277772903442},"countryCode":"NL","name":"Den Haag Laan v NOI","stationCode":"LAA","uicCode":"8400380"},"description":"vanaf de Anna van Hannoverstraat"},{"station":{"coordinate":{"lat":52.0697212219238,"lng":4.32250022888184},"countryCode":"NL","name":"Den Haag HS","stationCode":"GV","uicCode":"8400280"},"description":"vanaf de achterzijde van het station"}],"label":"Er rijden stopbussen van Leiden Centraal, Voorschoten, Den Haag Mariahoeve, Den Haag Laan v NOI naar Den Haag HS.","shortLabel":"Er rijden stopbussen Leiden C. -> Voorschoten -> Mariahoeve -> Laan v NOI -> Den Haag HS."}},{"start":"2024-11-09T04:50:00+0100","end":"2024-11-10T02:15:00+0100","alternativeTransport":{"location":[{"station":{"coordinate":{"lat":52.0802764892578,"lng":4.32499980926514},"countryCode":"NL","name":"Den Haag Centraal","stationCode":"GVC","uicCode":"8400282"},"description":"vanaf het busplatform"},{"station":{"coordinate":{"lat":52.0786094665527,"lng":4.34277772903442},"countryCode":"NL","name":"Den Haag Laan v NOI","stationCode":"LAA","uicCode":"8400380"},"description":"vanaf de Anna van Hannoverstraat"},{"station":{"coordinate":{"lat":52.0905570983887,"lng":4.36944437026978},"countryCode":"NL","name":"Den Haag Mariahoeve","stationCode":"GVM","uicCode":"8400278"},"description":"vanaf de voorzijde van het station"},{"station":{"coordinate":{"lat":52.1252784729004,"lng":4.43249988555908},"countryCode":"NL","name":"Voorschoten","stationCode":"VST","uicCode":"8400659"},"description":"vanaf de Wijngaardenlaan"},{"station":{"coordinate":{"lat":52.1661109924316,"lng":4.48166656494141},"countryCode":"NL","name":"Leiden Centraal","stationCode":"LEDN","uicCode":"8400390"},"description":"vanaf het stadsbusstation"}],"label":"Er rijden stopbussen tussen Den Haag Centraal, Den Haag Laan v NOI, Den Haag Mariahoeve, Voorschoten en Leiden Centraal.","shortLabel":"Er rijden stopbussen Den Haag C. - Laan v NOI - Mariahoeve - Voorschoten - Leiden C."}},{"start":"2024-11-09T05:25:00+0100","end":"2024-11-11T01:50:00+0100","alternativeTransport":{"location":[{"station":{"coordinate":{"lat":52.1252784729004,"lng":4.43249988555908},"countryCode":"NL","name":"Voorschoten","stationCode":"VST","uicCode":"8400659"},"description":"vanaf de Wijngaardenlaan"},{"station":{"coordinate":{"lat":52.1472206115723,"lng":4.4563889503479},"countryCode":"NL","name":"De Vink","stationCode":"DVNK","uicCode":"8400188"},"description":"vanaf de OV-halte aan de Trompweg"},{"station":{"coordinate":{"lat":52.1661109924316,"lng":4.48166656494141},"countryCode":"NL","name":"Leiden Centraal","stationCode":"LEDN","uicCode":"8400390"},"description":"vanaf het stadsbusstation"}],"label":"Er rijden stopbussen tussen Voorschoten, De Vink en Leiden Centraal.","shortLabel":"Er rijden stopbussen Voorschoten - De Vink - Leiden C."}},{"start":"2024-11-10T01:00:00+0100","end":"2024-11-10T06:30:00+0100","alternativeTransport":{"location":[{"station":{"coordinate":{"lat":52.0697212219238,"lng":4.32250022888184},"countryCode":"NL","name":"Den Haag HS","stationCode":"GV","uicCode":"8400280"},"description":"vanaf de achterzijde van het station"},{"station":{"coordinate":{"lat":52.1661109924316,"lng":4.48166656494141},"countryCode":"NL","name":"Leiden Centraal","stationCode":"LEDN","uicCode":"8400390"},"description":"vanaf het stadsbusstation"}],"label":"Er rijden stopbussen tussen Den Haag HS en Leiden Centraal.","shortLabel":"Er rijden stopbussen Den Haag HS - Leiden C."}},{"start":"2024-11-10T05:00:00+0100","end":"2024-11-11T03:00:00+0100","alternativeTransport":{"location":[{"station":{"coordinate":{"lat":52.0905570983887,"lng":4.36944437026978},"countryCode":"NL","name":"Den Haag Mariahoeve","stationCode":"GVM","uicCode":"8400278"},"description":"vanaf de voorzijde van het station"},{"station":{"coordinate":{"lat":52.1252784729004,"lng":4.43249988555908},"countryCode":"NL","name":"Voorschoten","stationCode":"VST","uicCode":"8400659"},"description":"vanaf de Wijngaardenlaan"},{"station":{"coordinate":{"lat":52.1661109924316,"lng":4.48166656494141},"countryCode":"NL","name":"Leiden Centraal","stationCode":"LEDN","uicCode":"8400390"},"description":"vanaf het stadsbusstation"}],"label":"Er rijden stopbussen tussen Den Haag Mariahoeve, Voorschoten en Leiden Centraal.","shortLabel":"Er rijden stopbussen Mariahoeve - Voorschoten - Leiden C."}},{"start":"2024-11-11T01:00:00+0100","end":"2024-11-11T05:30:00+0100","alternativeTransport":{"location":[{"station":{"coordinate":{"lat":52.0697212219238,"lng":4.32250022888184},"countryCode":"NL","name":"Den Haag HS","stationCode":"GV","uicCode":"8400280"},"description":"vanaf de achterzijde van het station"},{"station":{"coordinate":{"lat":52.1661109924316,"lng":4.48166656494141},"countryCode":"NL","name":"Leiden Centraal","stationCode":"LEDN","uicCode":"8400390"},"description":"vanaf het stadsbusstation"}],"label":"Er rijden stopbussen tussen Den Haag HS en Leiden Centraal.","shortLabel":"Er rijden stopbussen Den Haag HS - Leiden C."}}]},{"type":"MAINTENANCE","id":"7005539","title":"Amsterdam - Haarlem.","isActive":false,"local":false,"titleSections":[[{"type":"STATION","value":"Amsterdam C."},{"type":"ICON","value":"MAINTENANCE"},{"type":"STATION","value":"Haarlem"}]],"registrationTime":"2024-10-18T09:48:14+0200","start":"2024-11-09T01:30:00+0100","releaseTime":"2024-10-18T09:48:14+0200","end":"2024-11-09T05:30:00+0100","period":"Zaterdag 9 november 1:30 uur t/m zaterdag 9 november 5:30 uur.","impact":{"value":3},"publicationSections":[{"section":{"stations":[{"coordinate":{"lat":52.3788871765137,"lng":4.90027761459351},"countryCode":"NL","name":"Amsterdam Centraal","stationCode":"ASD","uicCode":"8400058"},{"coordinate":{"lat":52.3888893127441,"lng":4.83777761459351},"countryCode":"NL","name":"Amsterdam Sloterdijk","stationCode":"ASS","uicCode":"8400059"},{"coordinate":{"lat":52.385935,"lng":4.747165},"countryCode":"NL","name":"Halfweg-Zwanenburg","stationCode":"HWZB","uicCode":"8400400"},{"coordinate":{"lat":52.3827781677246,"lng":4.67305564880371},"countryCode":"NL","name":"Haarlem Spaarnwoude","stationCode":"HLMS","uicCode":"8400270"},{"coordinate":{"lat":52.3877792358398,"lng":4.63833332061768},"countryCode":"NL","name":"Haarlem","stationCode":"HLM","uicCode":"8400285"}],"direction":"BOTH"},"consequence":{"section":{"stations":[{"coordinate":{"lat":52.3788871765137,"lng":4.90027761459351},"countryCode":"NL","name":"Amsterdam Centraal","stationCode":"ASD","uicCode":"8400058"},{"coordinate":{"lat":52.3888893127441,"lng":4.83777761459351},"countryCode":"NL","name":"Amsterdam Sloterdijk","stationCode":"ASS","uicCode":"8400059"},{"coordinate":{"lat":52.385935,"lng":4.747165},"countryCode":"NL","name":"Halfweg-Zwanenburg","stationCode":"HWZB","uicCode":"8400400"},{"coordinate":{"lat":52.3827781677246,"lng":4.67305564880371},"countryCode":"NL","name":"Haarlem Spaarnwoude","stationCode":"HLMS","uicCode":"8400270"},{"coordinate":{"lat":52.3877792358398,"lng":4.63833332061768},"countryCode":"NL","name":"Haarlem","stationCode":"HLM","uicCode":"8400285"}],"direction":"ONE_WAY"},"description":"rijden bussen","level":"LESS_TRAINS"},"sectionType":"NL"}],"summaryAdditionalTravelTime":{"label":"De extra reistijd is ongeveer 30 minuten.","shortLabel":"Extra reistijd 30 min.","minimumDurationInMinutes":30,"maximumDurationInMinutes":30},"timespans":[{"start":"2024-11-09T01:30:00+0100","end":"2024-11-09T05:30:00+0100","period":"Zaterdag 9 november 1:30 uur t/m zaterdag 9 november 5:30 uur.","situation":{"label":"Door werkzaamheden: tussen Amsterdam Centraal en Haarlem rijden er bussen."},"cause":{"label":"werkzaamheden"},"additionalTravelTime":{"label":"De extra reistijd is ongeveer 30 minuten.","shortLabel":"Extra reistijd 30 min.","minimumDurationInMinutes":30,"maximumDurationInMinutes":30},"alternativeTransport":{"label":"er rijden stop- en snelbussen","shortLabel":"er rijden stop- en snelbussen"},"advices":[]}],"alternativeTransportTimespans":[{"start":"2024-11-09T01:30:00+0100","end":"2024-11-09T05:30:00+0100","alternativeTransport":{"location":[{"station":{"coordinate":{"lat":52.3788871765137,"lng":4.90027761459351},"countryCode":"NL","name":"Amsterdam Centraal","stationCode":"ASD","uicCode":"8400058"},"description":"vanaf het busstation"},{"station":{"coordinate":{"lat":52.3888893127441,"lng":4.83777761459351},"countryCode":"NL","name":"Amsterdam Sloterdijk","stationCode":"ASS","uicCode":"8400059"},"description":"vanaf de voorzijde van het station"},{"station":{"coordinate":{"lat":52.385935,"lng":4.747165},"countryCode":"NL","name":"Halfweg-Zwanenburg","stationCode":"HWZB","uicCode":"8400400"},"description":"vanaf de bushalte"},{"station":{"coordinate":{"lat":52.3827781677246,"lng":4.67305564880371},"countryCode":"NL","name":"Haarlem Spaarnwoude","stationCode":"HLMS","uicCode":"8400270"},"description":"vanaf de bushalte"},{"station":{"coordinate":{"lat":52.3877792358398,"lng":4.63833332061768},"countryCode":"NL","name":"Haarlem","stationCode":"HLM","uicCode":"8400285"},"description":"vanaf de Jansweg"}],"label":"Er rijden stopbussen van Amsterdam Centraal, Amsterdam Sloterdijk, Halfweg-Zwanenburg, Haarlem Spaarnwoude naar Haarlem.","shortLabel":"Er rijden stopbussen Amsterdam C. -> Sloterdijk -> Halfweg-Zw. -> Spaarnwoude -> Haarlem."}},{"start":"2024-11-09T01:30:00+0100","end":"2024-11-09T05:30:00+0100","alternativeTransport":{"location":[{"station":{"coordinate":{"lat":52.3788871765137,"lng":4.90027761459351},"countryCode":"NL","name":"Amsterdam Centraal","stationCode":"ASD","uicCode":"8400058"},"description":"vanaf het busstation"},{"station":{"coordinate":{"lat":52.3877792358398,"lng":4.63833332061768},"countryCode":"NL","name":"Haarlem","stationCode":"HLM","uicCode":"8400285"},"description":"vanaf de Jansweg"}],"label":"Er rijden snelbussen tussen Amsterdam Centraal en Haarlem.","shortLabel":"Er rijden snelbussen Amsterdam C. - Haarlem."}}]},{"type":"MAINTENANCE","id":"7005518","title":"Utrecht - Hilversum.","isActive":false,"local":false,"titleSections":[[{"type":"STATION","value":"Utrecht C."},{"type":"ICON","value":"MAINTENANCE"},{"type":"STATION","value":"Hilversum"}]],"registrationTime":"2024-10-21T14:56:01+0200","start":"2024-11-10T01:20:00+0100","releaseTime":"2024-10-21T14:56:01+0200","end":"2024-11-10T06:35:00+0100","period":"Zondag 10 november 1:20 uur t/m zondag 10 november 6:35 uur.","impact":{"value":3},"publicationSections":[{"section":{"stations":[{"coordinate":{"lat":52.0888900756836,"lng":5.11027765274048},"countryCode":"NL","name":"Utrecht Centraal","stationCode":"UT","uicCode":"8400621"},{"coordinate":{"lat":52.1100006103516,"lng":5.12472200393677},"countryCode":"NL","name":"Utrecht Overvecht","stationCode":"UTO","uicCode":"8400620"},{"coordinate":{"lat":52.1777763366699,"lng":5.17916679382324},"countryCode":"NL","name":"Hollandsche Rading","stationCode":"HOR","uicCode":"8400327"},{"coordinate":{"lat":52.2161102294922,"lng":5.18722200393677},"countryCode":"NL","name":"Hilversum Sportpark","stationCode":"HVSP","uicCode":"8400570"},{"coordinate":{"lat":52.2258338928223,"lng":5.18194437026978},"countryCode":"NL","name":"Hilversum","stationCode":"HVS","uicCode":"8400322"}],"direction":"BOTH"},"consequence":{"section":{"stations":[{"coordinate":{"lat":52.0888900756836,"lng":5.11027765274048},"countryCode":"NL","name":"Utrecht Centraal","stationCode":"UT","uicCode":"8400621"},{"coordinate":{"lat":52.1100006103516,"lng":5.12472200393677},"countryCode":"NL","name":"Utrecht Overvecht","stationCode":"UTO","uicCode":"8400620"},{"coordinate":{"lat":52.1777763366699,"lng":5.17916679382324},"countryCode":"NL","name":"Hollandsche Rading","stationCode":"HOR","uicCode":"8400327"},{"coordinate":{"lat":52.2161102294922,"lng":5.18722200393677},"countryCode":"NL","name":"Hilversum Sportpark","stationCode":"HVSP","uicCode":"8400570"},{"coordinate":{"lat":52.2258338928223,"lng":5.18194437026978},"countryCode":"NL","name":"Hilversum","stationCode":"HVS","uicCode":"8400322"}],"direction":"ONE_WAY"},"description":"rijden bussen","level":"LESS_TRAINS"},"sectionType":"NL"}],"summaryAdditionalTravelTime":{"label":"De extra reistijd is ongeveer 15 minuten.","shortLabel":"Extra reistijd 15 min.","minimumDurationInMinutes":15,"maximumDurationInMinutes":15},"timespans":[{"start":"2024-11-10T01:20:00+0100","end":"2024-11-10T06:35:00+0100","period":"Zondag 10 november 1:20 uur t/m zondag 10 november 6:35 uur.","situation":{"label":"Door werkzaamheden: tussen Utrecht Centraal en Hilversum rijden er bussen."},"cause":{"label":"werkzaamheden"},"additionalTravelTime":{"label":"De extra reistijd is ongeveer 15 minuten.","shortLabel":"Extra reistijd 15 min.","minimumDurationInMinutes":15,"maximumDurationInMinutes":15},"alternativeTransport":{"label":"er rijden stop- en snelbussen","shortLabel":"er rijden stop- en snelbussen"},"advices":[]}],"alternativeTransportTimespans":[{"start":"2024-11-10T01:20:00+0100","end":"2024-11-10T06:35:00+0100","alternativeTransport":{"location":[{"station":{"coordinate":{"lat":52.0888900756836,"lng":5.11027765274048},"countryCode":"NL","name":"Utrecht Centraal","stationCode":"UT","uicCode":"8400621"},"description":"vanaf de Jaarbeursplein, halte G"},{"station":{"coordinate":{"lat":52.1100006103516,"lng":5.12472200393677},"countryCode":"NL","name":"Utrecht Overvecht","stationCode":"UTO","uicCode":"8400620"},"description":"vanaf de Aïdadreef"},{"station":{"coordinate":{"lat":52.1777763366699,"lng":5.17916679382324},"countryCode":"NL","name":"Hollandsche Rading","stationCode":"HOR","uicCode":"8400327"},"description":"vanaf de OV halte Tolakkerweg, richting Utrecht"},{"station":{"coordinate":{"lat":52.2161102294922,"lng":5.18722200393677},"countryCode":"NL","name":"Hilversum Sportpark","stationCode":"HVSP","uicCode":"8400570"},"description":"vanaf de NS bushalte Laapersweg"},{"station":{"coordinate":{"lat":52.2258338928223,"lng":5.18194437026978},"countryCode":"NL","name":"Hilversum","stationCode":"HVS","uicCode":"8400322"},"description":"vanaf de voorzijde van het station"}],"label":"Er rijden stopbussen tussen Utrecht Centraal, Utrecht Overvecht, Hollandsche Rading, Hilversum Sportpark en Hilversum.","shortLabel":"Er rijden stopbussen Utrecht C. - Overvecht - Holl. Rading - Sportpark - Hilversum."}},{"start":"2024-11-10T01:20:00+0100","end":"2024-11-10T03:25:00+0100","alternativeTransport":{"location":[{"station":{"coordinate":{"lat":52.0888900756836,"lng":5.11027765274048},"countryCode":"NL","name":"Utrecht Centraal","stationCode":"UT","uicCode":"8400621"},"description":"vanaf de Jaarbeursplein, halte G"},{"station":{"coordinate":{"lat":52.2161102294922,"lng":5.18722200393677},"countryCode":"NL","name":"Hilversum Sportpark","stationCode":"HVSP","uicCode":"8400570"},"description":"vanaf de NS bushalte Laapersweg"},{"station":{"coordinate":{"lat":52.2258338928223,"lng":5.18194437026978},"countryCode":"NL","name":"Hilversum","stationCode":"HVS","uicCode":"8400322"},"description":"vanaf de voorzijde van het station"}],"label":"Er rijden snelbussen tussen Utrecht Centraal, Hilversum Sportpark en Hilversum.","shortLabel":"Er rijden snelbussen Utrecht C. - Sportpark - Hilversum."}}]},{"type":"MAINTENANCE","id":"7005489","title":"Heerlen - Aachen Hbf.","isActive":false,"local":false,"titleSections":[[{"type":"STATION","value":"Heerlen"},{"type":"ICON","value":"MAINTENANCE"},{"type":"STATION","value":"Aachen Hbf"}]],"registrationTime":"2024-11-01T13:45:32+0100","start":"2024-11-11T00:05:00+0100","releaseTime":"2024-11-01T13:45:32+0100","end":"2024-11-15T21:00:00+0100","period":"Maandag 11 november 0:05 uur t/m vrijdag 15 november 21:00 uur.","impact":{"value":4},"publicationSections":[{"section":{"stations":[{"coordinate":{"lat":50.8908348083496,"lng":5.97499990463257},"countryCode":"NL","name":"Heerlen","stationCode":"HRL","uicCode":"8400307"},{"coordinate":{"lat":50.8963890075684,"lng":6.01916646957398},"countryCode":"NL","name":"Landgraaf","stationCode":"LG","uicCode":"8400548"},{"coordinate":{"lat":50.8960498196442,"lng":6.0602474212646396},"countryCode":"NL","name":"Eygelshoven Markt","stationCode":"EGHM","uicCode":"8400234"},{"coordinate":{"lat":50.870916,"lng":6.094486},"countryCode":"D","name":"Herzogenrath","stationCode":"HZ","uicCode":"8015190"},{"coordinate":{"lat":50.7678,"lng":6.091499},"countryCode":"D","name":"Aachen Hbf","stationCode":"AHBF","uicCode":"8015345"}],"direction":"BOTH"},"consequence":{"section":{"stations":[{"coordinate":{"lat":50.8908348083496,"lng":5.97499990463257},"countryCode":"NL","name":"Heerlen","stationCode":"HRL","uicCode":"8400307"},{"coordinate":{"lat":50.8963890075684,"lng":6.01916646957398},"countryCode":"NL","name":"Landgraaf","stationCode":"LG","uicCode":"8400548"},{"coordinate":{"lat":50.8960498196442,"lng":6.0602474212646396},"countryCode":"NL","name":"Eygelshoven Markt","stationCode":"EGHM","uicCode":"8400234"},{"coordinate":{"lat":50.870916,"lng":6.094486},"countryCode":"D","name":"Herzogenrath","stationCode":"HZ","uicCode":"8015190"},{"coordinate":{"lat":50.7678,"lng":6.091499},"countryCode":"D","name":"Aachen Hbf","stationCode":"AHBF","uicCode":"8015345"}],"direction":"ONE_WAY"},"description":"rijden bussen","level":"LESS_TRAINS"},"sectionType":"NEIGHBORING_COUNTRY"}],"summaryAdditionalTravelTime":{"label":"De extra reistijd is ongeveer 30 minuten.","shortLabel":"Extra reistijd 30 min.","minimumDurationInMinutes":30,"maximumDurationInMinutes":30},"timespans":[{"start":"2024-11-11T00:05:00+0100","end":"2024-11-15T21:00:00+0100","period":"Maandag 11 november 0:05 uur t/m vrijdag 15 november 21:00 uur.","situation":{"label":"Door werkzaamheden: tussen Heerlen en Aachen Hbf rijden er bussen."},"cause":{"label":"werkzaamheden"},"additionalTravelTime":{"label":"De extra reistijd is ongeveer 30 minuten.","shortLabel":"Extra reistijd 30 min.","minimumDurationInMinutes":30,"maximumDurationInMinutes":30},"alternativeTransport":{"label":"er rijden stopbussen","shortLabel":"er rijden stopbussen"},"advices":["De reisplanner wordt nog aangepast. Plan uw reis vanaf vrijdag 8 november."]}],"alternativeTransportTimespans":[{"start":"2024-11-11T00:05:00+0100","end":"2024-11-15T21:00:00+0100","alternativeTransport":{"location":[{"station":{"coordinate":{"lat":50.8908348083496,"lng":5.97499990463257},"countryCode":"NL","name":"Heerlen","stationCode":"HRL","uicCode":"8400307"},"description":"vanaf het busstation Perron A"},{"station":{"coordinate":{"lat":50.8963890075684,"lng":6.01916646957398},"countryCode":"NL","name":"Landgraaf","stationCode":"LG","uicCode":"8400548"},"description":"vanaf de doorgaande weg, voorzijde station"},{"station":{"coordinate":{"lat":50.8960498196442,"lng":6.0602474212646396},"countryCode":"NL","name":"Eygelshoven Markt","stationCode":"EGHM","uicCode":"8400234"},"description":"vanaf de bushalte Centrum"},{"station":{"coordinate":{"lat":50.870916,"lng":6.094486},"countryCode":"D","name":"Herzogenrath","stationCode":"HZ","uicCode":"8015190"},"description":"vanaf de bushalte"},{"station":{"coordinate":{"lat":50.78036,"lng":6.070715},"countryCode":"D","name":"Aachen West","stationCode":"AW","uicCode":"8015199"},"description":"vanaf de bushalte Bendplatz"},{"station":{"coordinate":{"lat":50.7678,"lng":6.091499},"countryCode":"D","name":"Aachen Hbf","stationCode":"AHBF","uicCode":"8015345"},"description":"vanaf de bushalte perron H3"}],"label":"Er rijden stopbussen tussen Heerlen, Landgraaf, Eygelshoven Markt, Herzogenrath, Aachen West en Aachen Hbf.","shortLabel":"Er rijden stopbussen Heerlen - Landgraaf - Eygelshoven Mrkt - Herzogenrath - Aachen West - Aachen Hbf."}}]},{"type":"MAINTENANCE","id":"7005531","title":"Roosendaal - Vlissingen.","isActive":false,"local":false,"titleSections":[[{"type":"STATION","value":"Roosendaal"},{"type":"ICON","value":"MAINTENANCE"},{"type":"STATION","value":"Vlissingen"}]],"registrationTime":"2024-10-24T15:49:58+0200","start":"2024-11-12T00:01:00+0100","releaseTime":"2024-10-24T15:49:58+0200","end":"2024-11-12T05:30:00+0100","period":"Dinsdag 12 november 0:01 uur t/m dinsdag 12 november 5:30 uur.","impact":{"value":3},"publicationSections":[{"section":{"stations":[{"coordinate":{"lat":51.5402793884277,"lng":4.45833349227905},"countryCode":"NL","name":"Roosendaal","stationCode":"RSD","uicCode":"8400526"},{"coordinate":{"lat":51.4938888549805,"lng":4.29611110687256},"countryCode":"NL","name":"Bergen op Zoom","stationCode":"BGN","uicCode":"8400108"},{"coordinate":{"lat":51.422779083252,"lng":4.16111087799072},"countryCode":"NL","name":"Rilland-Bath","stationCode":"RB","uicCode":"8400521"},{"coordinate":{"lat":51.4333343505859,"lng":4.11694431304932},"countryCode":"NL","name":"Krabbendijke","stationCode":"KBD","uicCode":"8400367"},{"coordinate":{"lat":51.4650001525879,"lng":4.03722238540649},"countryCode":"NL","name":"Kruiningen-Yerseke","stationCode":"KRG","uicCode":"8400370"},{"coordinate":{"lat":51.4808349609375,"lng":3.95611119270325},"countryCode":"NL","name":"Kapelle-Biezelinge","stationCode":"BZL","uicCode":"8400354"},{"coordinate":{"lat":51.4980545043945,"lng":3.89055562019348},"countryCode":"NL","name":"Goes","stationCode":"GS","uicCode":"8400253"},{"coordinate":{"lat":51.5016670227051,"lng":3.66916656494141},"countryCode":"NL","name":"Arnemuiden","stationCode":"ARN","uicCode":"8400069"},{"coordinate":{"lat":51.4947204589844,"lng":3.61722230911255},"countryCode":"NL","name":"Middelburg","stationCode":"MDB","uicCode":"8400436"},{"coordinate":{"lat":51.4647216796875,"lng":3.59527778625488},"countryCode":"NL","name":"Vlissingen Souburg","stationCode":"VSS","uicCode":"8400653"},{"coordinate":{"lat":51.4458351135254,"lng":3.59527778625488},"countryCode":"NL","name":"Vlissingen","stationCode":"VS","uicCode":"8400652"}],"direction":"BOTH"},"consequence":{"section":{"stations":[{"coordinate":{"lat":51.5402793884277,"lng":4.45833349227905},"countryCode":"NL","name":"Roosendaal","stationCode":"RSD","uicCode":"8400526"},{"coordinate":{"lat":51.4938888549805,"lng":4.29611110687256},"countryCode":"NL","name":"Bergen op Zoom","stationCode":"BGN","uicCode":"8400108"},{"coordinate":{"lat":51.422779083252,"lng":4.16111087799072},"countryCode":"NL","name":"Rilland-Bath","stationCode":"RB","uicCode":"8400521"},{"coordinate":{"lat":51.4333343505859,"lng":4.11694431304932},"countryCode":"NL","name":"Krabbendijke","stationCode":"KBD","uicCode":"8400367"},{"coordinate":{"lat":51.4650001525879,"lng":4.03722238540649},"countryCode":"NL","name":"Kruiningen-Yerseke","stationCode":"KRG","uicCode":"8400370"},{"coordinate":{"lat":51.4808349609375,"lng":3.95611119270325},"countryCode":"NL","name":"Kapelle-Biezelinge","stationCode":"BZL","uicCode":"8400354"},{"coordinate":{"lat":51.4980545043945,"lng":3.89055562019348},"countryCode":"NL","name":"Goes","stationCode":"GS","uicCode":"8400253"},{"coordinate":{"lat":51.5016670227051,"lng":3.66916656494141},"countryCode":"NL","name":"Arnemuiden","stationCode":"ARN","uicCode":"8400069"},{"coordinate":{"lat":51.4947204589844,"lng":3.61722230911255},"countryCode":"NL","name":"Middelburg","stationCode":"MDB","uicCode":"8400436"},{"coordinate":{"lat":51.4647216796875,"lng":3.59527778625488},"countryCode":"NL","name":"Vlissingen Souburg","stationCode":"VSS","uicCode":"8400653"},{"coordinate":{"lat":51.4458351135254,"lng":3.59527778625488},"countryCode":"NL","name":"Vlissingen","stationCode":"VS","uicCode":"8400652"}],"direction":"ONE_WAY"},"description":"dienstregeling aangepast","level":"LESS_TRAINS"},"sectionType":"NL"}],"summaryAdditionalTravelTime":{"label":"U heeft geen langere reistijd.","shortLabel":"Geen extra reistijd."},"timespans":[{"start":"2024-11-12T00:01:00+0100","end":"2024-11-12T05:30:00+0100","period":"Dinsdag 12 november 0:01 uur t/m dinsdag 12 november 5:30 uur.","situation":{"label":"Door werkzaamheden: tussen Roosendaal en Vlissingen is de dienstregeling aangepast."},"cause":{"label":"werkzaamheden"},"additionalTravelTime":{"label":"U heeft geen langere reistijd.","shortLabel":"Geen extra reistijd."},"alternativeTransport":{"label":"er rijden stopbussen","shortLabel":"er rijden stopbussen"},"advices":[]}],"alternativeTransportTimespans":[{"start":"2024-11-12T00:01:00+0100","end":"2024-11-12T01:04:00+0100","alternativeTransport":{"location":[{"station":{"coordinate":{"lat":51.4650001525879,"lng":4.03722238540649},"countryCode":"NL","name":"Kruiningen-Yerseke","stationCode":"KRG","uicCode":"8400370"},"description":"vanaf de voorzijde van het station"},{"station":{"coordinate":{"lat":51.4808349609375,"lng":3.95611119270325},"countryCode":"NL","name":"Kapelle-Biezelinge","stationCode":"BZL","uicCode":"8400354"},"description":"vanaf de voorzijde van het station"},{"station":{"coordinate":{"lat":51.4980545043945,"lng":3.89055562019348},"countryCode":"NL","name":"Goes","stationCode":"GS","uicCode":"8400253"},"description":"vanaf de achterzijde van het station"},{"station":{"coordinate":{"lat":51.5016670227051,"lng":3.66916656494141},"countryCode":"NL","name":"Arnemuiden","stationCode":"ARN","uicCode":"8400069"},"description":"vanaf het Stationsplein"},{"station":{"coordinate":{"lat":51.4947204589844,"lng":3.61722230911255},"countryCode":"NL","name":"Middelburg","stationCode":"MDB","uicCode":"8400436"},"description":"vanaf de voorzijde van het station"},{"station":{"coordinate":{"lat":51.4647216796875,"lng":3.59527778625488},"countryCode":"NL","name":"Vlissingen Souburg","stationCode":"VSS","uicCode":"8400653"},"description":"vanaf de achterzijde van het station"},{"station":{"coordinate":{"lat":51.4458351135254,"lng":3.59527778625488},"countryCode":"NL","name":"Vlissingen","stationCode":"VS","uicCode":"8400652"},"description":"vanaf het Stationsplein"}],"label":"Er rijden stopbussen van Kruiningen-Yerseke, Kapelle-Biezelinge, Goes, Arnemuiden, Middelburg, Vlissingen Souburg naar Vlissingen.","shortLabel":"Er rijden stopbussen Kruiningen-Y. -> Kapelle-Biezel. -> Goes -> Arnemuiden -> Middelburg -> Souburg -> Vlissingen."}},{"start":"2024-11-12T00:12:00+0100","end":"2024-11-12T01:49:00+0100","alternativeTransport":{"location":[{"station":{"coordinate":{"lat":51.4938888549805,"lng":4.29611110687256},"countryCode":"NL","name":"Bergen op Zoom","stationCode":"BGN","uicCode":"8400108"},"description":"vanaf het Stationsplein"},{"station":{"coordinate":{"lat":51.422779083252,"lng":4.16111087799072},"countryCode":"NL","name":"Rilland-Bath","stationCode":"RB","uicCode":"8400521"},"description":"vanaf de provinciale weg"},{"station":{"coordinate":{"lat":51.4333343505859,"lng":4.11694431304932},"countryCode":"NL","name":"Krabbendijke","stationCode":"KBD","uicCode":"8400367"},"description":"vanaf de voorzijde van het station"},{"station":{"coordinate":{"lat":51.4808349609375,"lng":3.95611119270325},"countryCode":"NL","name":"Kapelle-Biezelinge","stationCode":"BZL","uicCode":"8400354"},"description":"vanaf de voorzijde van het station"},{"station":{"coordinate":{"lat":51.4980545043945,"lng":3.89055562019348},"countryCode":"NL","name":"Goes","stationCode":"GS","uicCode":"8400253"},"description":"vanaf de achterzijde van het station"},{"station":{"coordinate":{"lat":51.5016670227051,"lng":3.66916656494141},"countryCode":"NL","name":"Arnemuiden","stationCode":"ARN","uicCode":"8400069"},"description":"vanaf het Stationsplein"},{"station":{"coordinate":{"lat":51.4947204589844,"lng":3.61722230911255},"countryCode":"NL","name":"Middelburg","stationCode":"MDB","uicCode":"8400436"},"description":"vanaf de voorzijde van het station"},{"station":{"coordinate":{"lat":51.4647216796875,"lng":3.59527778625488},"countryCode":"NL","name":"Vlissingen Souburg","stationCode":"VSS","uicCode":"8400653"},"description":"vanaf de achterzijde van het station"},{"station":{"coordinate":{"lat":51.4458351135254,"lng":3.59527778625488},"countryCode":"NL","name":"Vlissingen","stationCode":"VS","uicCode":"8400652"},"description":"vanaf het Stationsplein"}],"label":"Er rijden stopbussen van Bergen op Zoom, Rilland-Bath, Krabbendijke, Kapelle-Biezelinge, Goes, Arnemuiden, Middelburg, Vlissingen Souburg naar Vlissingen.","shortLabel":"Er rijden stopbussen Bergen op Zoom -> Rilland-Bath -> Krabbendijke -> Kapelle-Biezel. -> Goes -> Arnemuiden -> Middelburg -> Souburg -> Vlissingen."}}]},{"type":"MAINTENANCE","id":"7005540","title":"Schiphol - Leiden.","isActive":false,"local":false,"titleSections":[[{"type":"STATION","value":"Schiphol Airport"},{"type":"ICON","value":"MAINTENANCE"},{"type":"STATION","value":"Leiden C."}]],"registrationTime":"2024-10-31T10:36:01+0100","start":"2024-11-13T01:15:00+0100","releaseTime":"2024-10-31T10:36:01+0100","end":"2024-11-13T05:15:00+0100","period":"Woensdag 13 november 1:15 uur t/m woensdag 13 november 5:15 uur.","impact":{"value":3},"publicationSections":[{"section":{"stations":[{"coordinate":{"lat":52.3094444274902,"lng":4.76194429397583},"countryCode":"NL","name":"Schiphol Airport","stationCode":"SHL","uicCode":"8400561"},{"coordinate":{"lat":52.2933349609375,"lng":4.70055532455444},"countryCode":"NL","name":"Hoofddorp","stationCode":"HFD","uicCode":"8400332"},{"coordinate":{"lat":52.2588882446289,"lng":4.64555549621582},"countryCode":"NL","name":"Nieuw Vennep","stationCode":"NVP","uicCode":"8400460"},{"coordinate":{"lat":52.215278,"lng":4.517222},"countryCode":"NL","name":"Sassenheim","stationCode":"SSH","uicCode":"8400603"},{"coordinate":{"lat":52.1661109924316,"lng":4.48166656494141},"countryCode":"NL","name":"Leiden Centraal","stationCode":"LEDN","uicCode":"8400390"}],"direction":"BOTH"},"consequence":{"section":{"stations":[{"coordinate":{"lat":52.3094444274902,"lng":4.76194429397583},"countryCode":"NL","name":"Schiphol Airport","stationCode":"SHL","uicCode":"8400561"},{"coordinate":{"lat":52.2933349609375,"lng":4.70055532455444},"countryCode":"NL","name":"Hoofddorp","stationCode":"HFD","uicCode":"8400332"},{"coordinate":{"lat":52.2588882446289,"lng":4.64555549621582},"countryCode":"NL","name":"Nieuw Vennep","stationCode":"NVP","uicCode":"8400460"},{"coordinate":{"lat":52.215278,"lng":4.517222},"countryCode":"NL","name":"Sassenheim","stationCode":"SSH","uicCode":"8400603"},{"coordinate":{"lat":52.1661109924316,"lng":4.48166656494141},"countryCode":"NL","name":"Leiden Centraal","stationCode":"LEDN","uicCode":"8400390"}],"direction":"ONE_WAY"},"description":"rijden bussen","level":"LESS_TRAINS"},"sectionType":"NL"}],"summaryAdditionalTravelTime":{"label":"De extra reistijd is ongeveer 15 minuten.","shortLabel":"Extra reistijd 15 min.","minimumDurationInMinutes":15,"maximumDurationInMinutes":15},"timespans":[{"start":"2024-11-13T01:15:00+0100","end":"2024-11-13T05:15:00+0100","period":"Woensdag 13 november 1:15 uur t/m woensdag 13 november 5:15 uur.","situation":{"label":"Door werkzaamheden: tussen Schiphol Airport en Leiden Centraal rijden er bussen."},"cause":{"label":"werkzaamheden"},"additionalTravelTime":{"label":"De extra reistijd is ongeveer 15 minuten.","shortLabel":"Extra reistijd 15 min.","minimumDurationInMinutes":15,"maximumDurationInMinutes":15},"alternativeTransport":{"label":"er rijden snelbussen","shortLabel":"er rijden snelbussen"},"advices":["Nachtnettreinen tussen Amsterdam C en Leiden C stoppen niet in Schiphol Airport."]}],"alternativeTransportTimespans":[{"start":"2024-11-13T01:15:00+0100","end":"2024-11-13T05:15:00+0100","alternativeTransport":{"location":[{"station":{"coordinate":{"lat":52.3094444274902,"lng":4.76194429397583},"countryCode":"NL","name":"Schiphol Airport","stationCode":"SHL","uicCode":"8400561"},"description":"vanaf de Halte F6, volg borden Touring coaches"},{"station":{"coordinate":{"lat":52.1661109924316,"lng":4.48166656494141},"countryCode":"NL","name":"Leiden Centraal","stationCode":"LEDN","uicCode":"8400390"},"description":"vanaf het stadsbusstation"}],"label":"Er rijden snelbussen tussen Schiphol Airport en Leiden Centraal.","shortLabel":"Er rijden snelbussen Schiphol Airport - Leiden C."}}]},{"type":"MAINTENANCE","id":"7005565","title":"Roosendaal - Vlissingen.","isActive":false,"local":false,"titleSections":[[{"type":"STATION","value":"Roosendaal"},{"type":"STATION","value":"Goes"},{"type":"ICON","value":"MAINTENANCE"},{"type":"STATION","value":"Vlissingen"}]],"registrationTime":"2024-11-01T11:11:54+0100","start":"2024-11-14T00:01:00+0100","releaseTime":"2024-11-01T11:11:54+0100","end":"2024-11-14T02:00:00+0100","period":"Donderdag 14 november 0:01 uur t/m donderdag 14 november 2:00 uur.","impact":{"value":3},"publicationSections":[{"section":{"stations":[{"coordinate":{"lat":51.5402793884277,"lng":4.45833349227905},"countryCode":"NL","name":"Roosendaal","stationCode":"RSD","uicCode":"8400526"},{"coordinate":{"lat":51.4938888549805,"lng":4.29611110687256},"countryCode":"NL","name":"Bergen op Zoom","stationCode":"BGN","uicCode":"8400108"},{"coordinate":{"lat":51.422779083252,"lng":4.16111087799072},"countryCode":"NL","name":"Rilland-Bath","stationCode":"RB","uicCode":"8400521"},{"coordinate":{"lat":51.4333343505859,"lng":4.11694431304932},"countryCode":"NL","name":"Krabbendijke","stationCode":"KBD","uicCode":"8400367"},{"coordinate":{"lat":51.4650001525879,"lng":4.03722238540649},"countryCode":"NL","name":"Kruiningen-Yerseke","stationCode":"KRG","uicCode":"8400370"},{"coordinate":{"lat":51.4808349609375,"lng":3.95611119270325},"countryCode":"NL","name":"Kapelle-Biezelinge","stationCode":"BZL","uicCode":"8400354"},{"coordinate":{"lat":51.4980545043945,"lng":3.89055562019348},"countryCode":"NL","name":"Goes","stationCode":"GS","uicCode":"8400253"},{"coordinate":{"lat":51.5016670227051,"lng":3.66916656494141},"countryCode":"NL","name":"Arnemuiden","stationCode":"ARN","uicCode":"8400069"},{"coordinate":{"lat":51.4947204589844,"lng":3.61722230911255},"countryCode":"NL","name":"Middelburg","stationCode":"MDB","uicCode":"8400436"},{"coordinate":{"lat":51.4647216796875,"lng":3.59527778625488},"countryCode":"NL","name":"Vlissingen Souburg","stationCode":"VSS","uicCode":"8400653"},{"coordinate":{"lat":51.4458351135254,"lng":3.59527778625488},"countryCode":"NL","name":"Vlissingen","stationCode":"VS","uicCode":"8400652"}],"direction":"BOTH"},"consequence":{"section":{"stations":[{"coordinate":{"lat":51.4980545043945,"lng":3.89055562019348},"countryCode":"NL","name":"Goes","stationCode":"GS","uicCode":"8400253"},{"coordinate":{"lat":51.5016670227051,"lng":3.66916656494141},"countryCode":"NL","name":"Arnemuiden","stationCode":"ARN","uicCode":"8400069"},{"coordinate":{"lat":51.4947204589844,"lng":3.61722230911255},"countryCode":"NL","name":"Middelburg","stationCode":"MDB","uicCode":"8400436"},{"coordinate":{"lat":51.4647216796875,"lng":3.59527778625488},"countryCode":"NL","name":"Vlissingen Souburg","stationCode":"VSS","uicCode":"8400653"},{"coordinate":{"lat":51.4458351135254,"lng":3.59527778625488},"countryCode":"NL","name":"Vlissingen","stationCode":"VS","uicCode":"8400652"}],"direction":"ONE_WAY"},"description":"rijden bussen","level":"LESS_TRAINS"},"sectionType":"NL"}],"summaryAdditionalTravelTime":{"label":"De extra reistijd kan oplopen tot 30 minuten.","shortLabel":"Extra reistijd tot 30 min.","maximumDurationInMinutes":30},"timespans":[{"start":"2024-11-14T00:01:00+0100","end":"2024-11-14T02:00:00+0100","period":"Donderdag 14 november 0:01 uur t/m donderdag 14 november 2:00 uur.","situation":{"label":"Door werkzaamheden: tussen Goes en Vlissingen rijden er bussen."},"cause":{"label":"werkzaamheden"},"additionalTravelTime":{"label":"De extra reistijd kan oplopen tot 30 minuten.","shortLabel":"Extra reistijd tot 30 min.","maximumDurationInMinutes":30},"alternativeTransport":{"label":"er rijden stopbussen","shortLabel":"er rijden stopbussen"},"advices":[]}],"alternativeTransportTimespans":[{"start":"2024-11-14T00:01:00+0100","end":"2024-11-14T02:00:00+0100","alternativeTransport":{"location":[{"station":{"coordinate":{"lat":51.4650001525879,"lng":4.03722238540649},"countryCode":"NL","name":"Kruiningen-Yerseke","stationCode":"KRG","uicCode":"8400370"},"description":"vanaf de voorzijde van het station"},{"station":{"coordinate":{"lat":51.4808349609375,"lng":3.95611119270325},"countryCode":"NL","name":"Kapelle-Biezelinge","stationCode":"BZL","uicCode":"8400354"},"description":"vanaf de voorzijde van het station"},{"station":{"coordinate":{"lat":51.4980545043945,"lng":3.89055562019348},"countryCode":"NL","name":"Goes","stationCode":"GS","uicCode":"8400253"},"description":"vanaf de achterzijde van het station"},{"station":{"coordinate":{"lat":51.5016670227051,"lng":3.66916656494141},"countryCode":"NL","name":"Arnemuiden","stationCode":"ARN","uicCode":"8400069"},"description":"vanaf het Stationsplein"},{"station":{"coordinate":{"lat":51.4947204589844,"lng":3.61722230911255},"countryCode":"NL","name":"Middelburg","stationCode":"MDB","uicCode":"8400436"},"description":"vanaf de voorzijde van het station"},{"station":{"coordinate":{"lat":51.4647216796875,"lng":3.59527778625488},"countryCode":"NL","name":"Vlissingen Souburg","stationCode":"VSS","uicCode":"8400653"},"description":"vanaf de achterzijde van het station"},