[{"type":"DISRUPTION","id":"6052231","title":"Heerlen - Maastricht Randwyck.","isActive":true,"topic":"disruption_6052231_nl","local":false,"titleSections":[[{"type":"STATION","value":"Heerlen"},{"type":"ICON","value":"DISRUPTION"},{"type":"STATION","value":"Maastricht"},{"type":"STATION","value":"Randwyck"}]],"registrationTime":"2024-12-09T18:17:33+0100","releaseTime":"2024-12-09T18:17:33+0100","start":"2024-12-03T10:13:18+0100","end":"2024-12-11T00:15:00+0100","phase":{"id":"3","label":"Vervangend vervoer"},"impact":{"value":2},"expectedDuration":{"description":"Dit duurt tot ongeveer woensdag 11 december 0:15 uur.","endTime":"2024-12-11T00:15:00+0100"},"publicationSections":[{"section":{"stations":[{"coordinate":{"lat":50.8908348083496,"lng":5.97499990463257},"countryCode":"NL","name":"Heerlen","stationCode":"HRL","uicCode":"8400307"},{"coordinate":{"lat":50.896667,"lng":5.952222},"countryCode":"NL","name":"Heerlen Woonboulevard","stationCode":"HRLW","uicCode":"8400404"},{"coordinate":{"lat":50.8872222900391,"lng":5.93027782440186},"countryCode":"NL","name":"Voerendaal","stationCode":"VDL","uicCode":"8400656"},{"coordinate":{"lat":50.8663902282715,"lng":5.8905553817749},"countryCode":"NL","name":"Klimmen-Ransdaal","stationCode":"KMR","uicCode":"8400362"},{"coordinate":{"lat":50.856388092041,"lng":5.87222242355347},"countryCode":"NL","name":"Schin op Geul","stationCode":"SOG","uicCode":"8400555"},{"coordinate":{"lat":50.8697204589844,"lng":5.83222198486328},"countryCode":"NL","name":"Valkenburg","stationCode":"VK","uicCode":"8400632"},{"coordinate":{"lat":50.8733329772949,"lng":5.79722213745117},"countryCode":"NL","name":"Houthem-St. Gerlach","stationCode":"SGL","uicCode":"8400341"},{"coordinate":{"lat":50.882879392551,"lng":5.75099945068359},"countryCode":"NL","name":"Meerssen","stationCode":"MES","uicCode":"8400434"},{"coordinate":{"lat":50.87087,"lng":5.71774},"countryCode":"NL","name":"Maastricht Noord","stationCode":"MTN","uicCode":"8400449"},{"coordinate":{"lat":50.8502769470215,"lng":5.70555543899536},"countryCode":"NL","name":"Maastricht","stationCode":"MT","uicCode":"8400424"},{"coordinate":{"lat":50.8386116027832,"lng":5.71722221374512},"countryCode":"NL","name":"Maastricht Randwyck","stationCode":"MTR","uicCode":"8400426"}],"direction":"BOTH"},"consequence":{"section":{"stations":[{"coordinate":{"lat":50.8908348083496,"lng":5.97499990463257},"countryCode":"NL","name":"Heerlen","stationCode":"HRL","uicCode":"8400307"},{"coordinate":{"lat":50.896667,"lng":5.952222},"countryCode":"NL","name":"Heerlen Woonboulevard","stationCode":"HRLW","uicCode":"8400404"},{"coordinate":{"lat":50.8872222900391,"lng":5.93027782440186},"countryCode":"NL","name":"Voerendaal","stationCode":"VDL","uicCode":"8400656"},{"coordinate":{"lat":50.8663902282715,"lng":5.8905553817749},"countryCode":"NL","name":"Klimmen-Ransdaal","stationCode":"KMR","uicCode":"8400362"},{"coordinate":{"lat":50.856388092041,"lng":5.87222242355347},"countryCode":"NL","name":"Schin op Geul","stationCode":"SOG","uicCode":"8400555"},{"coordinate":{"lat":50.8697204589844,"lng":5.83222198486328},"countryCode":"NL","name":"Valkenburg","stationCode":"VK","uicCode":"8400632"},{"coordinate":{"lat":50.8733329772949,"lng":5.79722213745117},"countryCode":"NL","name":"Houthem-St. Gerlach","stationCode":"SGL","uicCode":"8400341"},{"coordinate":{"lat":50.882879392551,"lng":5.75099945068359},"countryCode":"NL","name":"Meerssen","stationCode":"MES","uicCode":"8400434"},{"coordinate":{"lat":50.87087,"lng":5.71774},"countryCode":"NL","name":"Maastricht Noord","stationCode":"MTN","uicCode":"8400449"},{"coordinate":{"lat":50.8502769470215,"lng":5.70555543899536},"countryCode":"NL","name":"Maastricht","stationCode":"MT","uicCode":"8400424"}],"direction":"BOTH"},"description":"minder treinen","level":"LESS_TRAINS"},"sectionType":"NL"}],"timespans":[{"start":"2024-12-03T10:13:18+0100","end":"2024-12-11T00:15:00+0100","period":"Dinsdag 3 december 10:13 uur t/m woensdag 11 december 0:15 uur.","situation":{"label":"Door beperkingen in de materieelinzet: tussen Heerlen en Maastricht rijden er minder treinen."},"cause":{"label":"beperkingen materieel"},"alternativeTransport":{"label":"er rijden snelbussen","shortLabel":"er rijden snelbussen"},"advices":[]}],"alternativeTransportTimespans":[{"start":"2024-12-03T10:13:18+0100","end":"2024-12-11T00:15:00+0100","alternativeTransport":{"location":[{"station":{"coordinate":{"lat":50.8908348083496,"lng":5.97499990463257},"countryCode":"NL","name":"Heerlen","stationCode":"HRL","uicCode":"8400307"},"description":"vanaf het busstation Perron A"},{"station":{"coordinate":{"lat":50.8502769470215,"lng":5.70555543899536},"countryCode":"NL","name":"Maastricht","stationCode":"MT","uicCode":"8400424"},"description":"vanaf de taxi-standplaats, centrumzijde"}],"label":"Er rijden snelbussen tussen Heerlen en Maastricht.","shortLabel":"Er rijden snelbussen Heerlen - Maastricht."}}]},{"type":"CALAMITY","id":"c3c2bead-e1be-4025-95be-66b9a86a4000","title":"Dienstregeling 2025 vanaf 15 december: grootste wijziging in jaren","isActive":true,"topic":"disruption_c3c2bead-e1be-4025-95be-66b9a86a4000_nl","description":"Op zondag 15 december gaat de nieuwe dienstregeling voor het jaar 2025 in, met daarin de grootste verandering in jaren. We gaan aanzienlijk meer treinen rijden en voor bijna iedere reiziger verandert er wel iets.","url":"https://www.ns.nl/reisinformatie/calamiteiten/nieuwe-dienstregeling-2024.html","priority":"PRIO_3","lastUpdated":"2024-12-09T12:00:00+0100","bodyItems":[{"type":"TEXT","content":{"text":"<p>De nieuwe dienstregeling bevat ook de vakantiedienstregeling die we rijden in de kerstvakantie van 2024 en tijdens oud en nieuw.</p>\n\n<p>Plan je reis in de Reisplanner om te zien of er veranderingen voor jou zijn. Zet de optie ‘Meldingen’ aan om updates te ontvangen over je geplande reis. Klik op de link <a href=\"https://www.ns.nl/reisinformatie/dienstregeling\">https://www.ns.nl/reisinformatie/dienstregeling</a> voor uitgebreide informatie.</p>"}}],"buttons":{"position":["BOTTOM"],"items":[{"label":"Plan je reis","accessibilityLabel":"Plan je reis","url":"https://www.ns.nl/reisplanner","type":"PLANNER"}]}},{"type":"CALAMITY","id":"a1934fc2-a4c9-4546-84dd-962a9f2b8330","title":"Werkzaamheden van/naar Hoorn","isActive":true,"topic":"disruption_a1934fc2-a4c9-4546-84dd-962a9f2b8330_nl","description":"Door werkzaamheden rijden van dinsdag 10 t/m donderdag 19 december, in verschillende perioden geen treinen naar en van Hoorn.","url":"https://www.ns.nl/reisinformatie/calamiteiten/werkzaamheden-van-naar-hoorn.html","priority":"PRIO_3","lastUpdated":"2024-12-06T02:30:00+0100","bodyItems":[{"type":"TEXT","content":{"text":"<p>Er rijden in die perioden bussen in plaats van treinen. Plan dagelijks je reis vooraf.<br />\nMeer informatie:&nbsp; <a href=\"https://www.ns.nl/reisinformatie/betere-reis/werkzaamheden-hoorn.html\" style=\"color:blue; text-decoration:underline\">Werkzaamheden Hoorn </a></p>\n\n<p>&nbsp;</p>"}}],"buttons":{"position":["BOTTOM"],"items":[{"label":"Plan je reis","accessibilityLabel":"Plan je reis","url":"https://www.ns.nl/reisplanner","type":"PLANNER"}]}},{"type":"CALAMITY","id":"45f11a70-dfbb-45fd-b065-7a79749e0bd9","title":"Herstelwerkzaamheden Oss - Wijchen","isActive":true,"topic":"disruption_45f11a70-dfbb-45fd-b065-7a79749e0bd9_nl","description":"Door herstelwerkzaamheden rijden er morgen 10 december tot 15:00 uur geen treinen tussen Oss en Wijchen.","url":"https://www.ns.nl/reisinformatie/calamiteiten/herstelwerkzaamheden-oss--wijchen.html","priority":"PRIO_3","lastUpdated":"2024-12-09T13:21:00+0100","bodyItems":[{"type":"TEXT","content":{"text":"<p>Na 15:00 tot 17:00 rijden er geen Sprinters tussen Oss en Wijchen. Er rijden bussen. Plan je reis kort voor vertrek.</p>"}}],"buttons":{"position":["BOTTOM"],"items":[{"label":"Plan je reis","accessibilityLabel":"Plan je reis","url":"https://www.ns.nl/reisplanner","type":"PLANNER"}]}},{"type":"MAINTENANCE","id":"7004492","title":"Groningen - Leer.","isActive":true,"local":false,"titleSections":[[{"type":"STATION","value":"Groningen"},{"type":"STATION","value":"Bad Nieuweschans"},{"type":"ICON","value":"MAINTENANCE"},{"type":"STATION","value":"Weener"},{"type":"STATION","value":"Leer (Ostfr.)"}]],"registrationTime":"2024-11-27T12:15:04+0100","start":"2024-02-01T04:00:00+0100","releaseTime":"2024-11-27T12:15:04+0100","end":"2025-08-24T23:59:00+0200","period":"Donderdag 1 februari 4:00 uur t/m zondag 24 augustus 2025 23:59 uur.","impact":{"value":3},"publicationSections":[{"section":{"stations":[{"coordinate":{"lat":53.2105560302734,"lng":6.56472206115723},"countryCode":"NL","name":"Groningen","stationCode":"GN","uicCode":"8400263"},{"coordinate":{"lat":53.20480027,"lng":6.5854178},"countryCode":"NL","name":"Groningen Europapark","stationCode":"GERP","uicCode":"8400238"},{"coordinate":{"lat":53.1617362,"lng":6.7220882},"countryCode":"NL","name":"Kropswolde","stationCode":"KW","uicCode":"8400369"},{"coordinate":{"lat":53.1607232,"lng":6.7402989},"countryCode":"NL","name":"Martenshoek","stationCode":"MTH","uicCode":"8400430"},{"coordinate":{"lat":53.1598181316756,"lng":6.77075386047363},"countryCode":"NL","name":"Hoogezand-Sappemeer","stationCode":"HGZ","uicCode":"8400331"},{"coordinate":{"lat":53.1596122800056,"lng":6.8679141998291},"countryCode":"NL","name":"Zuidbroek","stationCode":"ZB","uicCode":"8400742"},{"coordinate":{"lat":53.1655362,"lng":6.9777775},"countryCode":"NL","name":"Scheemda","stationCode":"SDA","uicCode":"8400551"},{"coordinate":{"lat":53.1392377,"lng":7.035101},"countryCode":"NL","name":"Winschoten","stationCode":"WS","uicCode":"8400696"},{"coordinate":{"lat":53.1844,"lng":7.19937},"countryCode":"NL","name":"Bad Nieuweschans","stationCode":"NSCH","uicCode":"8400457"},{"coordinate":{"lat":53.16311,"lng":7.3442},"countryCode":"D","name":"Weener","stationCode":"WR","uicCode":"8021239"},{"coordinate":{"lat":53.23165,"lng":7.465283},"countryCode":"D","name":"Leer (Ostfriesl)","stationCode":"LEER","uicCode":"8021091"}],"direction":"BOTH"},"consequence":{"section":{"stations":[{"coordinate":{"lat":53.1844,"lng":7.19937},"countryCode":"NL","name":"Bad Nieuweschans","stationCode":"NSCH","uicCode":"8400457"},{"coordinate":{"lat":53.16311,"lng":7.3442},"countryCode":"D","name":"Weener","stationCode":"WR","uicCode":"8021239"}],"direction":"BOTH"},"description":"er rijden bussen","level":"LESS_TRAINS"},"sectionType":"NEIGHBORING_COUNTRY"}],"summaryAdditionalTravelTime":{"label":"De extra reistijd kan oplopen tot 30 minuten.","shortLabel":"Extra reistijd tot 30 min.","maximumDurationInMinutes":30},"timespans":[{"start":"2024-02-01T04:00:00+0100","end":"2025-08-24T23:59:00+0200","period":"Donderdag 1 februari 4:00 uur t/m zondag 24 augustus 2025 23:59 uur.","situation":{"label":"Door een aangepaste dienstregeling: tussen Bad Nieuweschans en Weener rijden er bussen."},"cause":{"label":"aangepaste dienstregeling"},"additionalTravelTime":{"label":"De extra reistijd kan oplopen tot 30 minuten.","shortLabel":"Extra reistijd tot 30 min.","maximumDurationInMinutes":30},"alternativeTransport":{"label":"er rijden stopbussen","shortLabel":"er rijden stopbussen"},"advices":["Op dit moment is er nog geen exacte einddatum bekend."]}],"alternativeTransportTimespans":[{"start":"2024-02-01T04:00:00+0100","end":"2025-08-24T23:59:00+0200","alternativeTransport":{"location":[{"station":{"coordinate":{"lat":53.1844,"lng":7.19937},"countryCode":"NL","name":"Bad Nieuweschans","stationCode":"NSCH","uicCode":"8400457"},"description":"vanaf de voorzijde van het station"},{"station":{"coordinate":{"lat":53.16311,"lng":7.3442},"countryCode":"D","name":"Weener","stationCode":"WR","uicCode":"8021239"},"description":"vanaf de voorzijde van het station"},{"station":{"coordinate":{"lat":53.23165,"lng":7.465283},"countryCode":"D","name":"Leer (Ostfriesl)","stationCode":"LEER","uicCode":"8021091"},"description":"vanaf het busstation"}],"label":"Er rijden stopbussen tussen Bad Nieuweschans, Weener en Leer (Ostfriesl).","shortLabel":"Er rijden stopbussen Bad Nieuweschans - Weener - Leer (Ostfr.)."}}]},{"type":"MAINTENANCE","id":"7005578","title":"Utrecht - Leiden.","isActive":true,"local":false,"titleSections":[[{"type":"STATION","value":"Utrecht C."},{"type":"STATION","value":"Alphen a/d Rijn"},{"type":"ICON","value":"MAINTENANCE"},{"type":"STATION","value":"Leiden C."}],[{"type":"STATION","value":"Utrecht C."},{"type":"STATION","value":"Bodegraven"},{"type":"ICON","value":"MAINTENANCE"},{"type":"STATION","value":"Leiden C."}]],"registrationTime":"2024-12-09T12:38:58+0100","start":"2024-12-06T00:50:00+0100","releaseTime":"2024-12-09T12:38:58+0100","end":"2024-12-10T03:00:00+0100","period":"Vrijdag 6 december 0:50 uur t/m dinsdag 10 december 3:00 uur.","impact":{"value":3},"publicationSections":[{"section":{"stations":[{"coordinate":{"lat":52.0888900756836,"lng":5.11027765274048},"countryCode":"NL","name":"Utrecht Centraal","stationCode":"UT","uicCode":"8400621"},{"coordinate":{"lat":52.09896,"lng":5.06523},"countryCode":"NL","name":"Utrecht Leidsche Rijn","stationCode":"UTLR","uicCode":"8400607"},{"coordinate":{"lat":52.1000753,"lng":5.0439547},"countryCode":"NL","name":"Utrecht Terwijde","stationCode":"UTT","uicCode":"8400614"},{"coordinate":{"lat":52.103056,"lng":5.007404},"countryCode":"NL","name":"Vleuten","stationCode":"VTN","uicCode":"8400651"},{"coordinate":{"lat":52.0849990844727,"lng":4.89361095428467},"countryCode":"NL","name":"Woerden","stationCode":"WD","uicCode":"8400702"},{"coordinate":{"lat":52.0813903808594,"lng":4.7461109161377},"countryCode":"NL","name":"Bodegraven","stationCode":"BDG","uicCode":"8400121"},{"coordinate":{"lat":52.1244430541992,"lng":4.65777778625488},"countryCode":"NL","name":"Alphen a/d Rijn","stationCode":"APN","uicCode":"8400053"},{"coordinate":{"lat":52.1469459533691,"lng":4.49249982833862},"countryCode":"NL","name":"Leiden Lammenschans","stationCode":"LDL","uicCode":"8400384"},{"coordinate":{"lat":52.1661109924316,"lng":4.48166656494141},"countryCode":"NL","name":"Leiden Centraal","stationCode":"LEDN","uicCode":"8400390"}],"direction":"BOTH"},"consequence":{"section":{"stations":[{"coordinate":{"lat":52.1244430541992,"lng":4.65777778625488},"countryCode":"NL","name":"Alphen a/d Rijn","stationCode":"APN","uicCode":"8400053"},{"coordinate":{"lat":52.1469459533691,"lng":4.49249982833862},"countryCode":"NL","name":"Leiden Lammenschans","stationCode":"LDL","uicCode":"8400384"},{"coordinate":{"lat":52.1661109924316,"lng":4.48166656494141},"countryCode":"NL","name":"Leiden Centraal","stationCode":"LEDN","uicCode":"8400390"}],"direction":"BOTH"},"description":"er rijden bussen","level":"LESS_TRAINS"},"sectionType":"NL"},{"section":{"stations":[{"coordinate":{"lat":52.0888900756836,"lng":5.11027765274048},"countryCode":"NL","name":"Utrecht Centraal","stationCode":"UT","uicCode":"8400621"},{"coordinate":{"lat":52.09896,"lng":5.06523},"countryCode":"NL","name":"Utrecht Leidsche Rijn","stationCode":"UTLR","uicCode":"8400607"},{"coordinate":{"lat":52.1000753,"lng":5.0439547},"countryCode":"NL","name":"Utrecht Terwijde","stationCode":"UTT","uicCode":"8400614"},{"coordinate":{"lat":52.103056,"lng":5.007404},"countryCode":"NL","name":"Vleuten","stationCode":"VTN","uicCode":"8400651"},{"coordinate":{"lat":52.0849990844727,"lng":4.89361095428467},"countryCode":"NL","name":"Woerden","stationCode":"WD","uicCode":"8400702"},{"coordinate":{"lat":52.0813903808594,"lng":4.7461109161377},"countryCode":"NL","name":"Bodegraven","stationCode":"BDG","uicCode":"8400121"},{"coordinate":{"lat":52.1244430541992,"lng":4.65777778625488},"countryCode":"NL","name":"Alphen a/d Rijn","stationCode":"APN","uicCode":"8400053"},{"coordinate":{"lat":52.1469459533691,"lng":4.49249982833862},"countryCode":"NL","name":"Leiden Lammenschans","stationCode":"LDL","uicCode":"8400384"},{"coordinate":{"lat":52.1661109924316,"lng":4.48166656494141},"countryCode":"NL","name":"Leiden Centraal","stationCode":"LEDN","uicCode":"8400390"}],"direction":"BOTH"},"consequence":{"section":{"stations":[{"coordinate":{"lat":52.0813903808594,"lng":4.7461109161377},"countryCode":"NL","name":"Bodegraven","stationCode":"BDG","uicCode":"8400121"},{"coordinate":{"lat":52.1244430541992,"lng":4.65777778625488},"countryCode":"NL","name":"Alphen a/d Rijn","stationCode":"APN","uicCode":"8400053"},{"coordinate":{"lat":52.1469459533691,"lng":4.49249982833862},"countryCode":"NL","name":"Leiden Lammenschans","stationCode":"LDL","uicCode":"8400384"},{"coordinate":{"lat":52.1661109924316,"lng":4.48166656494141},"countryCode":"NL","name":"Leiden Centraal","stationCode":"LEDN","uicCode":"8400390"}],"direction":"BOTH"},"description":"er rijden bussen","level":"LESS_TRAINS"},"sectionType":"NL"}],"summaryAdditionalTravelTime":{"label":"De extra reistijd kan oplopen tot 45 minuten.","shortLabel":"Extra reistijd tot 45 min.","minimumDurationInMinutes":45,"maximumDurationInMinutes":45},"timespans":[{"start":"2024-12-08T11:00:00+0100","end":"2024-12-10T03:00:00+0100","period":"Zondag 8 december 11:00 uur t/m dinsdag 10 december 3:00 uur.","situation":{"label":"Door werkzaamheden: tussen Leiden Centraal en Alphen a/d Rijn rijden er bussen."},"cause":{"label":"werkzaamheden"},"additionalTravelTime":{"label":"De extra reistijd is ongeveer 30 minuten.","shortLabel":"Extra reistijd 30 min.","minimumDurationInMinutes":30,"maximumDurationInMinutes":30},"alternativeTransport":{"label":"er rijden stopbussen","shortLabel":"er rijden stopbussen"},"advices":["Tussen Leiden C. en Utrecht C. reis via Schiphol Airport.","Tussen Alphen a/d Rijn en Den Haag C. reis via Gouda."]}],"alternativeTransportTimespans":[{"start":"2024-12-06T00:50:00+0100","end":"2024-12-08T06:00:00+0100","alternativeTransport":{"location":[{"station":{"coordinate":{"lat":52.1661109924316,"lng":4.48166656494141},"countryCode":"NL","name":"Leiden Centraal","stationCode":"LEDN","uicCode":"8400390"},"description":"vanaf het stadsbusstation"},{"station":{"coordinate":{"lat":52.1469459533691,"lng":4.49249982833862},"countryCode":"NL","name":"Leiden Lammenschans","stationCode":"LDL","uicCode":"8400384"},"description":"vanaf de Lammenschansweg"},{"station":{"coordinate":{"lat":52.1244430541992,"lng":4.65777778625488},"countryCode":"NL","name":"Alphen a/d Rijn","stationCode":"APN","uicCode":"8400053"},"description":"vanaf het busstation, centrumzijde"}],"label":"Er rijden stopbussen tussen Leiden Centraal, Leiden Lammenschans en Alphen a/d Rijn.","shortLabel":"Er rijden stopbussen Leiden C. - Lammenschans - Alphen a/d Rijn."}},{"start":"2024-12-08T06:00:00+0100","end":"2024-12-08T11:00:00+0100","alternativeTransport":{"location":[{"station":{"coordinate":{"lat":52.1661109924316,"lng":4.48166656494141},"countryCode":"NL","name":"Leiden Centraal","stationCode":"LEDN","uicCode":"8400390"},"description":"vanaf het stadsbusstation"},{"station":{"coordinate":{"lat":52.1469459533691,"lng":4.49249982833862},"countryCode":"NL","name":"Leiden Lammenschans","stationCode":"LDL","uicCode":"8400384"},"description":"vanaf de Lammenschansweg"},{"station":{"coordinate":{"lat":52.1244430541992,"lng":4.65777778625488},"countryCode":"NL","name":"Alphen a/d Rijn","stationCode":"APN","uicCode":"8400053"},"description":"vanaf het busstation, centrumzijde"},{"station":{"coordinate":{"lat":52.0813903808594,"lng":4.7461109161377},"countryCode":"NL","name":"Bodegraven","stationCode":"BDG","uicCode":"8400121"},"description":"vanaf het Stationsplein"}],"label":"Er rijden stopbussen tussen Leiden Centraal, Leiden Lammenschans, Alphen a/d Rijn en Bodegraven.","shortLabel":"Er rijden stopbussen Leiden C. - Lammenschans - Alphen a/d Rijn - Bodegraven."}},{"start":"2024-12-08T11:00:00+0100","end":"2024-12-10T03:00:00+0100","alternativeTransport":{"location":[{"station":{"coordinate":{"lat":52.1661109924316,"lng":4.48166656494141},"countryCode":"NL","name":"Leiden Centraal","stationCode":"LEDN","uicCode":"8400390"},"description":"vanaf het stadsbusstation"},{"station":{"coordinate":{"lat":52.1469459533691,"lng":4.49249982833862},"countryCode":"NL","name":"Leiden Lammenschans","stationCode":"LDL","uicCode":"8400384"},"description":"vanaf de Lammenschansweg"},{"station":{"coordinate":{"lat":52.1244430541992,"lng":4.65777778625488},"countryCode":"NL","name":"Alphen a/d Rijn","stationCode":"APN","uicCode":"8400053"},"description":"vanaf het busstation, centrumzijde"}],"label":"Er rijden stopbussen tussen Leiden Centraal, Leiden Lammenschans en Alphen a/d Rijn.","shortLabel":"Er rijden stopbussen Leiden C. - Lammenschans - Alphen a/d Rijn."}}]},{"type":"MAINTENANCE","id":"7005687","title":"Hengelo - Bielefeld.","isActive":true,"local":false,"titleSections":[[{"type":"STATION","value":"Hengelo"},{"type":"STATION","value":"Rheine"},{"type":"ICON","value":"MAINTENANCE"},{"type":"STATION","value":"Osnabrück Hbf"},{"type":"STATION","value":"Bielefeld Hbf"}]],"registrationTime":"2024-12-03T17:31:26+0100","start":"2024-12-09T05:00:00+0100","releaseTime":"2024-12-03T17:31:26+0100","end":"2024-12-11T23:00:00+0100","period":"Maandag 9 december 5:00 uur t/m woensdag 11 december 23:00 uur.","impact":{"value":2},"publicationSections":[{"section":{"stations":[{"coordinate":{"lat":52.2616653442383,"lng":6.79388904571533},"countryCode":"NL","name":"Hengelo","stationCode":"HGL","uicCode":"8400316"},{"coordinate":{"lat":52.2688903808594,"lng":6.81944465637207},"countryCode":"NL","name":"Hengelo Oost","stationCode":"HGLO","uicCode":"8400312"},{"coordinate":{"lat":52.3063888549805,"lng":6.93472242355347},"countryCode":"NL","name":"Oldenzaal","stationCode":"ODZ","uicCode":"8400483"},{"coordinate":{"lat":52.309685595156,"lng":7.15853691101074},"countryCode":"D","name":"Bad Bentheim","stationCode":"BH","uicCode":"8021156"},{"coordinate":{"lat":52.276299,"lng":7.434255},"countryCode":"D","name":"Rheine","stationCode":"RHEINE","uicCode":"8021067"},{"coordinate":{"lat":52.272851,"lng":8.061781},"countryCode":"D","name":"Osnabrück Hbf","stationCode":"OSNH","uicCode":"8021025"},{"coordinate":{"lat":52.202075,"lng":8.573876},"countryCode":"D","name":"Bünde (Westf)","stationCode":"BUENDE","uicCode":"8021173"},{"coordinate":{"lat":52.029261,"lng":8.532722},"countryCode":"D","name":"Bielefeld Hbf","stationCode":"BIELEF","uicCode":"8013597"}],"direction":"BOTH"},"consequence":{"section":{"stations":[{"coordinate":{"lat":52.276299,"lng":7.434255},"countryCode":"D","name":"Rheine","stationCode":"RHEINE","uicCode":"8021067"},{"coordinate":{"lat":52.272851,"lng":8.061781},"countryCode":"D","name":"Osnabrück Hbf","stationCode":"OSNH","uicCode":"8021025"}],"direction":"BOTH"},"description":"geen stoptreinen","level":"LESS_TRAINS"},"sectionType":"NEIGHBORING_COUNTRY"}],"timespans":[{"start":"2024-12-09T05:00:00+0100","end":"2024-12-11T23:00:00+0100","period":"Maandag 9 december 5:00 uur t/m woensdag 11 december 23:00 uur.","situation":{"label":"Door werkzaamheden: tussen Rheine en Osnabrück Hbf rijden er geen stoptreinen."},"cause":{"label":"werkzaamheden"},"alternativeTransport":{"label":"er rijden stopbussen","shortLabel":"er rijden stopbussen"},"advices":["Plan uw reis via bahn.de. Houd rekening met extra reistijd door grenscontroles."]}],"alternativeTransportTimespans":[{"start":"2024-12-09T05:00:00+0100","end":"2024-12-11T23:00:00+0100","alternativeTransport":{"location":[{"station":{"coordinate":{"lat":52.276299,"lng":7.434255},"countryCode":"D","name":"Rheine","stationCode":"RHEINE","uicCode":"8021067"},"description":"volg de aanwijzingen op het station"},{"station":{"coordinate":{"lat":52.272851,"lng":8.061781},"countryCode":"D","name":"Osnabrück Hbf","stationCode":"OSNH","uicCode":"8021025"},"description":"volg de aanwijzingen op het station"}],"label":"Er rijden stopbussen tussen Rheine en Osnabrück Hbf.","shortLabel":"Er rijden stopbussen Rheine - Osnabrück Hbf."}}]},{"type":"MAINTENANCE","id":"7005569","title":"Amsterdam - Enkhuizen.","isActive":true,"local":false,"titleSections":[[{"type":"STATION","value":"Amsterdam C."},{"type":"STATION","value":"Overwhere"},{"type":"ICON","value":"MAINTENANCE"},{"type":"STATION","value":"Enkhuizen"}]],"registrationTime":"2024-11-20T12:10:26+0100","start":"2024-12-10T00:45:00+0100","releaseTime":"2024-11-20T12:10:26+0100","end":"2024-12-10T02:10:00+0100","period":"Dinsdag 10 december 0:45 uur t/m dinsdag 10 december 2:10 uur.","impact":{"value":3},"publicationSections":[{"section":{"stations":[{"coordinate":{"lat":52.3788871765137,"lng":4.90027761459351},"countryCode":"NL","name":"Amsterdam Centraal","stationCode":"ASD","uicCode":"8400058"},{"coordinate":{"lat":52.3888893127441,"lng":4.83777761459351},"countryCode":"NL","name":"Amsterdam Sloterdijk","stationCode":"ASS","uicCode":"8400059"},{"coordinate":{"lat":52.4388885498047,"lng":4.81361103057861},"countryCode":"NL","name":"Zaandam","stationCode":"ZD","uicCode":"8400731"},{"coordinate":{"lat":52.4566650390625,"lng":4.82027769088745},"countryCode":"NL","name":"Zaandam Kogerveld","stationCode":"ZDK","uicCode":"8400728"},{"coordinate":{"lat":52.4965906325416,"lng":4.93562936782836},"countryCode":"NL","name":"Purmerend Weidevenne","stationCode":"PMW","uicCode":"8400499"},{"coordinate":{"lat":52.5030555725098,"lng":4.95361089706421},"countryCode":"NL","name":"Purmerend","stationCode":"PMR","uicCode":"8400508"},{"coordinate":{"lat":52.5113906860352,"lng":4.96833324432373},"countryCode":"NL","name":"Purmerend Overwhere","stationCode":"PMO","uicCode":"8400506"},{"coordinate":{"lat":52.6447219848633,"lng":5.05555534362793},"countryCode":"NL","name":"Hoorn","stationCode":"HN","uicCode":"8400337"},{"coordinate":{"lat":52.6536102294922,"lng":5.08555555343628},"countryCode":"NL","name":"Hoorn Kersenboogerd","stationCode":"HNK","uicCode":"8400336"},{"coordinate":{"lat":52.6905555725098,"lng":5.18388891220093},"countryCode":"NL","name":"Hoogkarspel","stationCode":"HKS","uicCode":"8400334"},{"coordinate":{"lat":52.6949996948242,"lng":5.23777770996094},"countryCode":"NL","name":"Bovenkarspel-Grootebroek","stationCode":"BKG","uicCode":"8400127"},{"coordinate":{"lat":52.6961097717285,"lng":5.25277757644653},"countryCode":"NL","name":"Bovenkarspel Flora","stationCode":"BKF","uicCode":"8400230"},{"coordinate":{"lat":52.6991653442383,"lng":5.28638887405396},"countryCode":"NL","name":"Enkhuizen","stationCode":"EKZ","uicCode":"8400210"}],"direction":"ONE_WAY"},"consequence":{"section":{"stations":[{"coordinate":{"lat":52.5113906860352,"lng":4.96833324432373},"countryCode":"NL","name":"Purmerend Overwhere","stationCode":"PMO","uicCode":"8400506"},{"coordinate":{"lat":52.6447219848633,"lng":5.05555534362793},"countryCode":"NL","name":"Hoorn","stationCode":"HN","uicCode":"8400337"},{"coordinate":{"lat":52.6536102294922,"lng":5.08555555343628},"countryCode":"NL","name":"Hoorn Kersenboogerd","stationCode":"HNK","uicCode":"8400336"},{"coordinate":{"lat":52.6905555725098,"lng":5.18388891220093},"countryCode":"NL","name":"Hoogkarspel","stationCode":"HKS","uicCode":"8400334"},{"coordinate":{"lat":52.6949996948242,"lng":5.23777770996094},"countryCode":"NL","name":"Bovenkarspel-Grootebroek","stationCode":"BKG","uicCode":"8400127"},{"coordinate":{"lat":52.6961097717285,"lng":5.25277757644653},"countryCode":"NL","name":"Bovenkarspel Flora","stationCode":"BKF","uicCode":"8400230"},{"coordinate":{"lat":52.6991653442383,"lng":5.28638887405396},"countryCode":"NL","name":"Enkhuizen","stationCode":"EKZ","uicCode":"8400210"}],"direction":"ONE_WAY"},"description":"er rijden bussen","level":"LESS_TRAINS"},"sectionType":"NL"}],"summaryAdditionalTravelTime":{"label":"De extra reistijd is ongeveer 45 minuten.","shortLabel":"Extra reistijd 45 min.","minimumDurationInMinutes":45,"maximumDurationInMinutes":45},"timespans":[{"start":"2024-12-10T00:45:00+0100","end":"2024-12-10T02:10:00+0100","period":"Dinsdag 10 december 0:45 uur t/m dinsdag 10 december 2:10 uur.","situation":{"label":"Door werkzaamheden: van Purmerend Overwhere naar Enkhuizen rijden er bussen."},"cause":{"label":"werkzaamheden"},"additionalTravelTime":{"label":"De extra reistijd is ongeveer 45 minuten.","shortLabel":"Extra reistijd 45 min.","minimumDurationInMinutes":45,"maximumDurationInMinutes":45},"alternativeTransport":{"label":"er rijdt een bus","shortLabel":"er rijdt een bus"},"advices":[]}],"alternativeTransportTimespans":[{"start":"2024-12-10T00:45:00+0100","end":"2024-12-10T02:10:00+0100","alternativeTransport":{"location":[{"station":{"coordinate":{"lat":52.5113906860352,"lng":4.96833324432373},"countryCode":"NL","name":"Purmerend Overwhere","stationCode":"PMO","uicCode":"8400506"},"description":"vanaf de Churchilllaan ter hoogte van de Meteorenweg"},{"station":{"coordinate":{"lat":52.6447219848633,"lng":5.05555534362793},"countryCode":"NL","name":"Hoorn","stationCode":"HN","uicCode":"8400337"},"description":"vanaf de voorzijde van het station"},{"station":{"coordinate":{"lat":52.6536102294922,"lng":5.08555555343628},"countryCode":"NL","name":"Hoorn Kersenboogerd","stationCode":"HNK","uicCode":"8400336"},"description":"vanaf de bushalte aan de Rijnweg"},{"station":{"coordinate":{"lat":52.6905555725098,"lng":5.18388891220093},"countryCode":"NL","name":"Hoogkarspel","stationCode":"HKS","uicCode":"8400334"},"description":"vanaf het Stationsplein"},{"station":{"coordinate":{"lat":52.6949996948242,"lng":5.23777770996094},"countryCode":"NL","name":"Bovenkarspel-Grootebroek","stationCode":"BKG","uicCode":"8400127"},"description":"vanaf de Burgemeester J.N. Stuifbergenlaan"},{"station":{"coordinate":{"lat":52.6961097717285,"lng":5.25277757644653},"countryCode":"NL","name":"Bovenkarspel Flora","stationCode":"BKF","uicCode":"8400230"},"description":"vanaf de doorgaande weg"},{"station":{"coordinate":{"lat":52.6991653442383,"lng":5.28638887405396},"countryCode":"NL","name":"Enkhuizen","stationCode":"EKZ","uicCode":"8400210"},"description":"volg de aanwijzingen op het station"}],"label":"Er rijdt een bus van Purmerend Overwhere, Hoorn, Hoorn Kersenboogerd, Hoogkarspel, Bovenkarspel-Grootebroek, Bovenkarspel Flora naar Enkhuizen.","shortLabel":"Er rijdt een bus Overwhere -> Hoorn -> Kersenboogerd -> Hoogkarspel -> Bovenkarspel-Gr. -> Bovenkarspel Fl. -> Enkhuizen."}}]},{"type":"MAINTENANCE","id":"7005698","title":"Nijmegen - 's-Hertogenbosch.","isActive":false,"local":false,"titleSections":[[{"type":"STATION","value":"Nijmegen"},{"type":"STATION","value":"Wijchen"},{"type":"ICON","value":"MAINTENANCE"},{"type":"STATION","value":"Oss"},{"type":"STATION","value":"'s-Hertogenbosch"}]],"registrationTime":"2024-12-09T11:31:53+0100","start":"2024-12-10T05:00:00+0100","releaseTime":"2024-12-09T11:31:53+0100","end":"2024-12-10T17:00:00+0100","period":"Dinsdag 10 december 5:00 uur t/m dinsdag 10 december 17:00 uur.","impact":{"value":4},"publicationSections":[{"section":{"stations":[{"coordinate":{"lat":51.8436126708984,"lng":5.85222244262695},"countryCode":"NL","name":"Nijmegen","stationCode":"NM","uicCode":"8400470"},{"coordinate":{"lat":51.8273,"lng":5.822722},"countryCode":"NL","name":"Nijmegen Goffert","stationCode":"NMGO","uicCode":"8400477"},{"coordinate":{"lat":51.8241653442383,"lng":5.79555559158325},"countryCode":"NL","name":"Nijmegen Dukenburg","stationCode":"NMD","uicCode":"8400475"},{"coordinate":{"lat":51.8116683959961,"lng":5.73083353042603},"countryCode":"NL","name":"Wijchen","stationCode":"WC","uicCode":"8400710"},{"coordinate":{"lat":51.7941665649414,"lng":5.63583326339722},"countryCode":"NL","name":"Ravenstein","stationCode":"RVS","uicCode":"8400515"},{"coordinate":{"lat":51.7655563354492,"lng":5.53222227096558},"countryCode":"NL","name":"Oss","stationCode":"O","uicCode":"8400495"},{"coordinate":{"lat":51.758056640625,"lng":5.50555562973022},"countryCode":"NL","name":"Oss West","stationCode":"OW","uicCode":"8400496"},{"coordinate":{"lat":51.7147216796875,"lng":5.36805534362793},"countryCode":"NL","name":"Rosmalen","stationCode":"RS","uicCode":"8400524"},{"coordinate":{"lat":51.700553894043,"lng":5.3183331489563},"countryCode":"NL","name":"'s-Hertogenbosch Oost","stationCode":"HTO","uicCode":"8400320"},{"coordinate":{"lat":51.69048,"lng":5.29362},"countryCode":"NL","name":"'s-Hertogenbosch","stationCode":"HT","uicCode":"8400319"}],"direction":"BOTH"},"consequence":{"section":{"stations":[{"coordinate":{"lat":51.8116683959961,"lng":5.73083353042603},"countryCode":"NL","name":"Wijchen","stationCode":"WC","uicCode":"8400710"},{"coordinate":{"lat":51.7941665649414,"lng":5.63583326339722},"countryCode":"NL","name":"Ravenstein","stationCode":"RVS","uicCode":"8400515"},{"coordinate":{"lat":51.7655563354492,"lng":5.53222227096558},"countryCode":"NL","name":"Oss","stationCode":"O","uicCode":"8400495"}],"direction":"BOTH"},"description":"er rijden bussen","level":"LESS_TRAINS"},"sectionType":"NL"},{"section":{"stations":[{"coordinate":{"lat":51.8436126708984,"lng":5.85222244262695},"countryCode":"NL","name":"Nijmegen","stationCode":"NM","uicCode":"8400470"},{"coordinate":{"lat":51.8273,"lng":5.822722},"countryCode":"NL","name":"Nijmegen Goffert","stationCode":"NMGO","uicCode":"8400477"},{"coordinate":{"lat":51.8241653442383,"lng":5.79555559158325},"countryCode":"NL","name":"Nijmegen Dukenburg","stationCode":"NMD","uicCode":"8400475"},{"coordinate":{"lat":51.8116683959961,"lng":5.73083353042603},"countryCode":"NL","name":"Wijchen","stationCode":"WC","uicCode":"8400710"},{"coordinate":{"lat":51.7941665649414,"lng":5.63583326339722},"countryCode":"NL","name":"Ravenstein","stationCode":"RVS","uicCode":"8400515"},{"coordinate":{"lat":51.7655563354492,"lng":5.53222227096558},"countryCode":"NL","name":"Oss","stationCode":"O","uicCode":"8400495"},{"coordinate":{"lat":51.758056640625,"lng":5.50555562973022},"countryCode":"NL","name":"Oss West","stationCode":"OW","uicCode":"8400496"},{"coordinate":{"lat":51.7147216796875,"lng":5.36805534362793},"countryCode":"NL","name":"Rosmalen","stationCode":"RS","uicCode":"8400524"},{"coordinate":{"lat":51.700553894043,"lng":5.3183331489563},"countryCode":"NL","name":"'s-Hertogenbosch Oost","stationCode":"HTO","uicCode":"8400320"},{"coordinate":{"lat":51.69048,"lng":5.29362},"countryCode":"NL","name":"'s-Hertogenbosch","stationCode":"HT","uicCode":"8400319"}],"direction":"BOTH"},"consequence":{"section":{"stations":[{"coordinate":{"lat":51.8116683959961,"lng":5.73083353042603},"countryCode":"NL","name":"Wijchen","stationCode":"WC","uicCode":"8400710"},{"coordinate":{"lat":51.7941665649414,"lng":5.63583326339722},"countryCode":"NL","name":"Ravenstein","stationCode":"RVS","uicCode":"8400515"},{"coordinate":{"lat":51.7655563354492,"lng":5.53222227096558},"countryCode":"NL","name":"Oss","stationCode":"O","uicCode":"8400495"}],"direction":"BOTH"},"description":"geen Sprinters","level":"LESS_TRAINS"},"sectionType":"NL"}],"timespans":[{"start":"2024-12-10T05:00:00+0100","end":"2024-12-10T15:00:00+0100","period":"Dinsdag 10 december 5:00 uur t/m dinsdag 10 december 15:00 uur.","situation":{"label":"Door herstelwerkzaamheden: tussen Wijchen en Oss rijden er bussen."},"cause":{"label":"herstelwerkzaamheden"},"advices":[]},{"start":"2024-12-10T15:00:00+0100","end":"2024-12-10T17:00:00+0100","period":"Dinsdag 10 december 15:00 uur t/m dinsdag 10 december 17:00 uur.","situation":{"label":"Door herstelwerkzaamheden: tussen Wijchen en Oss rijden er geen Sprinters."},"cause":{"label":"herstelwerkzaamheden"},"advices":[]}],"alternativeTransportTimespans":[]},{"type":"MAINTENANCE","id":"7005568","title":"Alkmaar - Hoorn.","isActive":false,"local":false,"titleSections":[[{"type":"STATION","value":"Alkmaar"},{"type":"STATION","value":"Heerhugowaard"},{"type":"ICON","value":"MAINTENANCE"},{"type":"STATION","value":"Hoorn"}]],"registrationTime":"2024-11-20T12:10:05+0100","start":"2024-12-10T05:50:00+0100","releaseTime":"2024-11-20T12:10:05+0100","end":"2024-12-16T01:00:00+0100","period":"Dinsdag 10 december 5:50 uur t/m maandag 16 december 1:00 uur.","impact":{"value":5},"publicationSections":[{"section":{"stations":[{"coordinate":{"lat":52.6377792358398,"lng":4.73972225189209},"countryCode":"NL","name":"Alkmaar","stationCode":"AMR","uicCode":"8400050"},{"coordinate":{"lat":52.6438903808594,"lng":4.76416683197022},"countryCode":"NL","name":"Alkmaar Noord","stationCode":"AMRN","uicCode":"8400052"},{"coordinate":{"lat":52.6697235107422,"lng":4.82277774810791},"countryCode":"NL","name":"Heerhugowaard","stationCode":"HWD","uicCode":"8400306"},{"coordinate":{"lat":52.6780548095703,"lng":4.90722227096558},"countryCode":"NL","name":"Obdam","stationCode":"OBD","uicCode":"8400480"},{"coordinate":{"lat":52.6447219848633,"lng":5.05555534362793},"countryCode":"NL","name":"Hoorn","stationCode":"HN","uicCode":"8400337"}],"direction":"BOTH"},"consequence":{"section":{"stations":[{"coordinate":{"lat":52.6697235107422,"lng":4.82277774810791},"countryCode":"NL","name":"Heerhugowaard","stationCode":"HWD","uicCode":"8400306"},{"coordinate":{"lat":52.6780548095703,"lng":4.90722227096558},"countryCode":"NL","name":"Obdam","stationCode":"OBD","uicCode":"8400480"},{"coordinate":{"lat":52.6447219848633,"lng":5.05555534362793},"countryCode":"NL","name":"Hoorn","stationCode":"HN","uicCode":"8400337"}],"direction":"BOTH"},"description":"er rijden bussen","level":"LESS_TRAINS"},"sectionType":"NL"}],"summaryAdditionalTravelTime":{"label":"De extra reistijd is ongeveer 30 minuten.","shortLabel":"Extra reistijd 30 min.","minimumDurationInMinutes":30,"maximumDurationInMinutes":30},"timespans":[{"start":"2024-12-10T05:50:00+0100","end":"2024-12-16T01:00:00+0100","period":"Dinsdag 10 december 5:50 uur t/m maandag 16 december 1:00 uur.","situation":{"label":"Door werkzaamheden: tussen Heerhugowaard en Hoorn rijden er bussen."},"cause":{"label":"werkzaamheden"},"additionalTravelTime":{"label":"De extra reistijd is ongeveer 30 minuten.","shortLabel":"Extra reistijd 30 min.","minimumDurationInMinutes":30,"maximumDurationInMinutes":30},"alternativeTransport":{"label":"er rijden stopbussen","shortLabel":"er rijden stopbussen"},"advices":["Op zaterdag 14 en zondag 15 dec. zijn er ook werkzaamheden met businzet tussen Hoogkarspel en Zaandam."]}],"alternativeTransportTimespans":[{"start":"2024-12-10T05:50:00+0100","end":"2024-12-13T01:00:00+0100","alternativeTransport":{"location":[{"station":{"coordinate":{"lat":52.6697235107422,"lng":4.82277774810791},"countryCode":"NL","name":"Heerhugowaard","stationCode":"HWD","uicCode":"8400306"},"description":"vanaf het busstation"},{"station":{"coordinate":{"lat":52.6780548095703,"lng":4.90722227096558},"countryCode":"NL","name":"Obdam","stationCode":"OBD","uicCode":"8400480"},"description":"vanaf de voorzijde van het station"},{"station":{"coordinate":{"lat":52.6447219848633,"lng":5.05555534362793},"countryCode":"NL","name":"Hoorn","stationCode":"HN","uicCode":"8400337"},"description":"vanaf de achterzijde van het station"}],"label":"Er rijden stopbussen tussen Heerhugowaard, Obdam en Hoorn.","shortLabel":"Er rijden stopbussen Heerhugowaard - Obdam - Hoorn."}},{"start":"2024-12-13T04:00:00+0100","end":"2024-12-16T01:00:00+0100","alternativeTransport":{"location":[{"station":{"coordinate":{"lat":52.6697235107422,"lng":4.82277774810791},"countryCode":"NL","name":"Heerhugowaard","stationCode":"HWD","uicCode":"8400306"},"description":"vanaf het busstation"},{"station":{"coordinate":{"lat":52.6780548095703,"lng":4.90722227096558},"countryCode":"NL","name":"Obdam","stationCode":"OBD","uicCode":"8400480"},"description":"vanaf de voorzijde van het station"},{"station":{"coordinate":{"lat":52.6447219848633,"lng":5.05555534362793},"countryCode":"NL","name":"Hoorn","stationCode":"HN","uicCode":"8400337"},"description":"vanaf de achterzijde van het station"}],"label":"Er rijden stopbussen tussen Heerhugowaard, Obdam en Hoorn.","shortLabel":"Er rijden stopbussen Heerhugowaard - Obdam - Hoorn."}},{"start":"2024-12-14T00:00:00+0100","end":"2024-12-16T01:00:00+0100","alternativeTransport":{"location":[{"station":{"coordinate":{"lat":52.6697235107422,"lng":4.82277774810791},"countryCode":"NL","name":"Heerhugowaard","stationCode":"HWD","uicCode":"8400306"},"description":"vanaf het busstation"},{"station":{"coordinate":{"lat":52.6780548095703,"lng":4.90722227096558},"countryCode":"NL","name":"Obdam","stationCode":"OBD","uicCode":"8400480"},"description":"vanaf de voorzijde van het station"},{"station":{"coordinate":{"lat":52.6447219848633,"lng":5.05555534362793},"countryCode":"NL","name":"Hoorn","stationCode":"HN","uicCode":"8400337"},"description":"vanaf de achterzijde van het station"},{"station":{"coordinate":{"lat":52.6536102294922,"lng":5.08555555343628},"countryCode":"NL","name":"Hoorn Kersenboogerd","stationCode":"HNK","uicCode":"8400336"},"description":"vanaf de bushalte aan de Rijnweg"},{"station":{"coordinate":{"lat":52.6905555725098,"lng":5.18388891220093},"countryCode":"NL","name":"Hoogkarspel","stationCode":"HKS","uicCode":"8400334"},"description":"vanaf het Stationsplein"}],"label":"Er rijden stopbussen tussen Heerhugowaard, Obdam, Hoorn, Hoorn Kersenboogerd en Hoogkarspel.","shortLabel":"Er rijden stopbussen Heerhugowaard - Obdam - Hoorn - Kersenboogerd - Hoogkarspel."}}]},{"type":"MAINTENANCE","id":"7005577","title":"Schiphol - Leiden.","isActive":false,"local":false,"titleSections":[[{"type":"STATION","value":"Schiphol Airport"},{"type":"ICON","value":"MAINTENANCE"},{"type":"STATION","value":"Leiden C."}]],"registrationTime":"2024-11-22T11:35:02+0100","start":"2024-12-11T01:15:00+0100","releaseTime":"2024-11-22T11:35:02+0100","end":"2024-12-11T05:15:00+0100","period":"Woensdag 11 december 1:15 uur t/m woensdag 11 december 5:15 uur.","impact":{"value":3},"publicationSections":[{"section":{"stations":[{"coordinate":{"lat":52.3094444274902,"lng":4.76194429397583},"countryCode":"NL","name":"Schiphol Airport","stationCode":"SHL","uicCode":"8400561"},{"coordinate":{"lat":52.2933349609375,"lng":4.70055532455444},"countryCode":"NL","name":"Hoofddorp","stationCode":"HFD","uicCode":"8400332"},{"coordinate":{"lat":52.2588882446289,"lng":4.64555549621582},"countryCode":"NL","name":"Nieuw Vennep","stationCode":"NVP","uicCode":"8400460"},{"coordinate":{"lat":52.215278,"lng":4.517222},"countryCode":"NL","name":"Sassenheim","stationCode":"SSH","uicCode":"8400603"},{"coordinate":{"lat":52.1661109924316,"lng":4.48166656494141},"countryCode":"NL","name":"Leiden Centraal","stationCode":"LEDN","uicCode":"8400390"}],"direction":"BOTH"},"consequence":{"section":{"stations":[{"coordinate":{"lat":52.3094444274902,"lng":4.76194429397583},"countryCode":"NL","name":"Schiphol Airport","stationCode":"SHL","uicCode":"8400561"},{"coordinate":{"lat":52.2933349609375,"lng":4.70055532455444},"countryCode":"NL","name":"Hoofddorp","stationCode":"HFD","uicCode":"8400332"},{"coordinate":{"lat":52.2588882446289,"lng":4.64555549621582},"countryCode":"NL","name":"Nieuw Vennep","stationCode":"NVP","uicCode":"8400460"},{"coordinate":{"lat":52.215278,"lng":4.517222},"countryCode":"NL","name":"Sassenheim","stationCode":"SSH","uicCode":"8400603"},{"coordinate":{"lat":52.1661109924316,"lng":4.48166656494141},"countryCode":"NL","name":"Leiden Centraal","stationCode":"LEDN","uicCode":"8400390"}],"direction":"BOTH"},"description":"er rijden bussen","level":"LESS_TRAINS"},"sectionType":"NL"}],"summaryAdditionalTravelTime":{"label":"De extra reistijd is ongeveer 15 minuten.","shortLabel":"Extra reistijd 15 min.","minimumDurationInMinutes":15,"maximumDurationInMinutes":15},"timespans":[{"start":"2024-12-11T01:15:00+0100","end":"2024-12-11T05:15:00+0100","period":"Woensdag 11 december 1:15 uur t/m woensdag 11 december 5:15 uur.","situation":{"label":"Door werkzaamheden: tussen Schiphol Airport en Leiden Centraal rijden er bussen."},"cause":{"label":"werkzaamheden"},"additionalTravelTime":{"label":"De extra reistijd is ongeveer 15 minuten.","shortLabel":"Extra reistijd 15 min.","minimumDurationInMinutes":15,"maximumDurationInMinutes":15},"alternativeTransport":{"label":"er rijden snelbussen","shortLabel":"er rijden snelbussen"},"advices":["Nachtnettreinen tussen Amsterdam C en Leiden C stoppen niet in Schiphol Airport."]}],"alternativeTransportTimespans":[{"start":"2024-12-11T01:15:00+0100","end":"2024-12-11T05:15:00+0100","alternativeTransport":{"location":[{"station":{"coordinate":{"lat":52.3094444274902,"lng":4.76194429397583},"countryCode":"NL","name":"Schiphol Airport","stationCode":"SHL","uicCode":"8400561"},"description":"vanaf de Halte F6, volg borden Touring coaches"},{"station":{"coordinate":{"lat":52.1661109924316,"lng":4.48166656494141},"countryCode":"NL","name":"Leiden Centraal","stationCode":"LEDN","uicCode":"8400390"},"description":"vanaf het stadsbusstation"}],"label":"Er rijden snelbussen tussen Schiphol Airport en Leiden Centraal.","shortLabel":"Er rijden snelbussen Schiphol Airport - Leiden C."}}]},{"type":"MAINTENANCE","id":"7005610","title":"Amsterdam - Haarlem.","isActive":false,"local":false,"titleSections":[[{"type":"STATION","value":"Amsterdam C."},{"type":"STATION","value":"Sloterdijk"},{"type":"ICON","value":"MAINTENANCE"},{"type":"STATION","value":"Haarlem"}]],"registrationTime":"2024-11-13T10:27:34+0100","start":"2024-12-12T01:00:00+0100","releaseTime":"2024-11-13T10:27:34+0100","end":"2024-12-12T01:45:00+0100","period":"Donderdag 12 december 1:00 uur t/m donderdag 12 december 1:45 uur.","impact":{"value":3},"publicationSections":[{"section":{"stations":[{"coordinate":{"lat":52.3788871765137,"lng":4.90027761459351},"countryCode":"NL","name":"Amsterdam Centraal","stationCode":"ASD","uicCode":"8400058"},{"coordinate":{"lat":52.3888893127441,"lng":4.83777761459351},"countryCode":"NL","name":"Amsterdam Sloterdijk","stationCode":"ASS","uicCode":"8400059"},{"coordinate":{"lat":52.385935,"lng":4.747165},"countryCode":"NL","name":"Halfweg-Zwanenburg","stationCode":"HWZB","uicCode":"8400400"},{"coordinate":{"lat":52.3827781677246,"lng":4.67305564880371},"countryCode":"NL","name":"Haarlem Spaarnwoude","stationCode":"HLMS","uicCode":"8400270"},{"coordinate":{"lat":52.3877792358398,"lng":4.63833332061768},"countryCode":"NL","name":"Haarlem","stationCode":"HLM","uicCode":"8400285"}],"direction":"ONE_WAY"},"consequence":{"section":{"stations":[{"coordinate":{"lat":52.3888893127441,"lng":4.83777761459351},"countryCode":"NL","name":"Amsterdam Sloterdijk","stationCode":"ASS","uicCode":"8400059"},{"coordinate":{"lat":52.385935,"lng":4.747165},"countryCode":"NL","name":"Halfweg-Zwanenburg","stationCode":"HWZB","uicCode":"8400400"},{"coordinate":{"lat":52.3827781677246,"lng":4.67305564880371},"countryCode":"NL","name":"Haarlem Spaarnwoude","stationCode":"HLMS","uicCode":"8400270"},{"coordinate":{"lat":52.3877792358398,"lng":4.63833332061768},"countryCode":"NL","name":"Haarlem","stationCode":"HLM","uicCode":"8400285"}],"direction":"ONE_WAY"},"description":"er rijden bussen","level":"LESS_TRAINS"},"sectionType":"NL"}],"summaryAdditionalTravelTime":{"label":"De extra reistijd is ongeveer 15 minuten.","shortLabel":"Extra reistijd 15 min.","minimumDurationInMinutes":15,"maximumDurationInMinutes":15},"timespans":[{"start":"2024-12-12T01:00:00+0100","end":"2024-12-12T01:45:00+0100","period":"Donderdag 12 december 1:00 uur t/m donderdag 12 december 1:45 uur.","situation":{"label":"Door werkzaamheden: van Haarlem naar Amsterdam Sloterdijk rijden er bussen."},"cause":{"label":"werkzaamheden"},"additionalTravelTime":{"label":"De extra reistijd is ongeveer 15 minuten.","shortLabel":"Extra reistijd 15 min.","minimumDurationInMinutes":15,"maximumDurationInMinutes":15},"alternativeTransport":{"label":"er rijden snelbussen","shortLabel":"er rijden snelbussen"},"advices":[]}],"alternativeTransportTimespans":[{"start":"2024-12-12T01:00:00+0100","end":"2024-12-12T01:45:00+0100","alternativeTransport":{"location":[{"station":{"coordinate":{"lat":52.3877792358398,"lng":4.63833332061768},"countryCode":"NL","name":"Haarlem","stationCode":"HLM","uicCode":"8400285"},"description":"vanaf de Jansweg"},{"station":{"coordinate":{"lat":52.3888893127441,"lng":4.83777761459351},"countryCode":"NL","name":"Amsterdam Sloterdijk","stationCode":"ASS","uicCode":"8400059"},"description":"vanaf de voorzijde van het station"},{"station":{"coordinate":{"lat":52.3788871765137,"lng":4.90027761459351},"countryCode":"NL","name":"Amsterdam Centraal","stationCode":"ASD","uicCode":"8400058"},"description":"vanaf het busstation"}],"label":"Er rijden snelbussen van Haarlem, Amsterdam Sloterdijk naar Amsterdam Centraal.","shortLabel":"Er rijden snelbussen Haarlem -> Sloterdijk -> Amsterdam C."}}]},{"type":"MAINTENANCE","id":"7005694","title":"Amsterdam - Utrecht; Schiphol - Utrecht.","isActive":false,"local":false,"titleSections":[[{"type":"STATION","value":"Amsterdam C."},{"type":"STATION","value":"Bijlmer ArenA"},{"type":"ICON","value":"MAINTENANCE"},{"type":"STATION","value":"Breukelen"},{"type":"STATION","value":"Utrecht C."}],[{"type":"STATION","value":"Schiphol Airport"},{"type":"STATION","value":"Bijlmer ArenA"},{"type":"ICON","value":"MAINTENANCE"},{"type":"STATION","value":"Breukelen"},{"type":"STATION","value":"Utrecht C."}]],"registrationTime":"2024-12-06T11:03:06+0100","start":"2024-12-13T21:40:00+0100","releaseTime":"2024-12-06T11:03:06+0100","end":"2024-12-14T01:00:00+0100","period":"Vrijdag 13 december 21:40 uur t/m zaterdag 14 december 1:00 uur.","impact":{"value":2},"publicationSections":[{"section":{"stations":[{"coordinate":{"lat":52.3788871765137,"lng":4.90027761459351},"countryCode":"NL","name":"Amsterdam Centraal","stationCode":"ASD","uicCode":"8400058"},{"coordinate":{"lat":52.3605537414551,"lng":4.93111133575439},"countryCode":"NL","name":"Amsterdam Muiderpoort","stationCode":"ASDM","uicCode":"8400060"},{"coordinate":{"lat":52.3466682434082,"lng":4.91777801513672},"countryCode":"NL","name":"Amsterdam Amstel","stationCode":"ASA","uicCode":"8400057"},{"coordinate":{"lat":52.3233337402344,"lng":4.93638896942139},"countryCode":"NL","name":"Duivendrecht","stationCode":"DVD","uicCode":"8400194"},{"coordinate":{"lat":52.3122215270996,"lng":4.94694423675537},"countryCode":"NL","name":"Amsterdam Bijlmer ArenA","stationCode":"ASB","uicCode":"8400074"},{"coordinate":{"lat":52.29844,"lng":4.95972},"countryCode":"NL","name":"Amsterdam Holendrecht","stationCode":"ASHD","uicCode":"8400231"},{"coordinate":{"lat":52.2785,"lng":4.977},"countryCode":"NL","name":"Abcoude","stationCode":"AC","uicCode":"8400047"},{"coordinate":{"lat":52.17149,"lng":4.9906},"countryCode":"NL","name":"Breukelen","stationCode":"BKL","uicCode":"8400133"},{"coordinate":{"lat":52.1352767944336,"lng":5.03361129760742},"countryCode":"NL","name":"Maarssen","stationCode":"MAS","uicCode":"8400419"},{"coordinate":{"lat":52.103055,"lng":5.09},"countryCode":"NL","name":"Utrecht Zuilen","stationCode":"UTZL","uicCode":"8400613"},{"coordinate":{"lat":52.0888900756836,"lng":5.11027765274048},"countryCode":"NL","name":"Utrecht Centraal","stationCode":"UT","uicCode":"8400621"}],"direction":"BOTH"},"consequence":{"section":{"stations":[{"coordinate":{"lat":52.3122215270996,"lng":4.94694423675537},"countryCode":"NL","name":"Amsterdam Bijlmer ArenA","stationCode":"ASB","uicCode":"8400074"},{"coordinate":{"lat":52.29844,"lng":4.95972},"countryCode":"NL","name":"Amsterdam Holendrecht","stationCode":"ASHD","uicCode":"8400231"},{"coordinate":{"lat":52.2785,"lng":4.977},"countryCode":"NL","name":"Abcoude","stationCode":"AC","uicCode":"8400047"},{"coordinate":{"lat":52.17149,"lng":4.9906},"countryCode":"NL","name":"Breukelen","stationCode":"BKL","uicCode":"8400133"}],"direction":"BOTH"},"description":"dienstregeling aangepast","level":"LESS_TRAINS"},"sectionType":"NL"},{"section":{"stations":[{"coordinate":{"lat":52.3094444274902,"lng":4.76194429397583},"countryCode":"NL","name":"Schiphol Airport","stationCode":"SHL","uicCode":"8400561"},{"coordinate":{"lat":52.338889,"lng":4.872356},"countryCode":"NL","name":"Amsterdam Zuid","stationCode":"ASDZ","uicCode":"8400061"},{"coordinate":{"lat":52.3372230529785,"lng":4.89027786254883},"countryCode":"NL","name":"Amsterdam RAI","stationCode":"RAI","uicCode":"8400056"},{"coordinate":{"lat":52.3122215270996,"lng":4.94694423675537},"countryCode":"NL","name":"Amsterdam Bijlmer ArenA","stationCode":"ASB","uicCode":"8400074"},{"coordinate":{"lat":52.29844,"lng":4.95972},"countryCode":"NL","name":"Amsterdam Holendrecht","stationCode":"ASHD","uicCode":"8400231"},{"coordinate":{"lat":52.2785,"lng":4.977},"countryCode":"NL","name":"Abcoude","stationCode":"AC","uicCode":"8400047"},{"coordinate":{"lat":52.17149,"lng":4.9906},"countryCode":"NL","name":"Breukelen","stationCode":"BKL","uicCode":"8400133"},{"coordinate":{"lat":52.1352767944336,"lng":5.03361129760742},"countryCode":"NL","name":"Maarssen","stationCode":"MAS","uicCode":"8400419"},{"coordinate":{"lat":52.103055,"lng":5.09},"countryCode":"NL","name":"Utrecht Zuilen","stationCode":"UTZL","uicCode":"8400613"},{"coordinate":{"lat":52.0888900756836,"lng":5.11027765274048},"countryCode":"NL","name":"Utrecht Centraal","stationCode":"UT","uicCode":"8400621"}],"direction":"BOTH"},"consequence":{"section":{"stations":[{"coordinate":{"lat":52.3122215270996,"lng":4.94694423675537},"countryCode":"NL","name":"Amsterdam Bijlmer ArenA","stationCode":"ASB","uicCode":"8400074"},{"coordinate":{"lat":52.29844,"lng":4.95972},"countryCode":"NL","name":"Amsterdam Holendrecht","stationCode":"ASHD","uicCode":"8400231"},{"coordinate":{"lat":52.2785,"lng":4.977},"countryCode":"NL","name":"Abcoude","stationCode":"AC","uicCode":"8400047"},{"coordinate":{"lat":52.17149,"lng":4.9906},"countryCode":"NL","name":"Breukelen","stationCode":"BKL","uicCode":"8400133"}],"direction":"BOTH"},"description":"dienstregeling aangepast","level":"LESS_TRAINS"},"sectionType":"NL"}],"summaryAdditionalTravelTime":{"label":"De extra reistijd is ongeveer 30 minuten.","shortLabel":"Extra reistijd 30 min.","minimumDurationInMinutes":30,"maximumDurationInMinutes":30},"timespans":[{"start":"2024-12-13T21:40:00+0100","end":"2024-12-14T01:00:00+0100","period":"Vrijdag 13 december 21:40 uur t/m zaterdag 14 december 1:00 uur.","situation":{"label":"Door werkzaamheden: tussen Amsterdam Bijlmer ArenA en Breukelen is de dienstregeling aangepast."},"cause":{"label":"werkzaamheden"},"additionalTravelTime":{"label":"De extra reistijd is ongeveer 30 minuten.","shortLabel":"Extra reistijd 30 min.","minimumDurationInMinutes":30,"maximumDurationInMinutes":30},"alternativeTransport":{"label":"er rijden stopbussen","shortLabel":"er rijden stopbussen"},"advices":["Geen Sprinters Amsterdam C-Breukelen en minder IC's Amsterdam C-Utrecht C. Ga indien mogelijk eerder op reis."]}],"alternativeTransportTimespans":[{"start":"2024-12-13T21:40:00+0100","end":"2024-12-13T23:50:00+0100","alternativeTransport":{"location":[{"station":{"coordinate":{"lat":52.3122215270996,"lng":4.94694423675537},"countryCode":"NL","name":"Amsterdam Bijlmer ArenA","stationCode":"ASB","uicCode":"8400074"},"description":"vanaf het busstation"},{"station":{"coordinate":{"lat":52.29844,"lng":4.95972},"countryCode":"NL","name":"Amsterdam Holendrecht","stationCode":"ASHD","uicCode":"8400231"},"description":"vanaf de voorzijde van het station"},{"station":{"coordinate":{"lat":52.2785,"lng":4.977},"countryCode":"NL","name":"Abcoude","stationCode":"AC","uicCode":"8400047"},"description":"vanaf de voorzijde van het station"},{"station":{"coordinate":{"lat":52.17149,"lng":4.9906},"countryCode":"NL","name":"Breukelen","stationCode":"BKL","uicCode":"8400133"},"description":"vanaf de NS Bushalte"}],"label":"Er rijden stopbussen tussen Amsterdam Bijlmer ArenA, Amsterdam Holendrecht, Abcoude en Breukelen.","shortLabel":"Er rijden stopbussen Bijlmer ArenA - Holendrecht - Abcoude - Breukelen."}}]},{"type":"MAINTENANCE","id":"7005570","title":"Schiphol - Zaandam; Amsterdam - Enkhuizen.","isActive":false,"local":false,"titleSections":[[{"type":"STATION","value":"Amsterdam C."},{"type":"STATION","value":"Zaandam"},{"type":"ICON","value":"MAINTENANCE"},{"type":"STATION","value":"Hoogkarspel"},{"type":"STATION","value":"Enkhuizen"}],[{"type":"STATION","value":"Schiphol Airport"},{"type":"ICON","value":"MAINTENANCE"},{"type":"STATION","value":"Zaandam"}]],"registrationTime":"2024-11-25T09:38:01+0100","start":"2024-12-14T00:00:00+0100","releaseTime":"2024-11-25T09:38:01+0100","end":"2024-12-16T02:00:00+0100","period":"Zaterdag 14 december 0:00 uur t/m maandag 16 december 2:00 uur.","impact":{"value":4},"publicationSections":[{"section":{"stations":[{"coordinate":{"lat":52.3788871765137,"lng":4.90027761459351},"countryCode":"NL","name":"Amsterdam Centraal","stationCode":"ASD","uicCode":"8400058"},{"coordinate":{"lat":52.3888893127441,"lng":4.83777761459351},"countryCode":"NL","name":"Amsterdam Sloterdijk","stationCode":"ASS","uicCode":"8400059"},{"coordinate":{"lat":52.4388885498047,"lng":4.81361103057861},"countryCode":"NL","name":"Zaandam","stationCode":"ZD","uicCode":"8400731"},{"coordinate":{"lat":52.4566650390625,"lng":4.82027769088745},"countryCode":"NL","name":"Zaandam Kogerveld","stationCode":"ZDK","uicCode":"8400728"},{"coordinate":{"lat":52.4965906325416,"lng":4.93562936782836},"countryCode":"NL","name":"Purmerend Weidevenne","stationCode":"PMW","uicCode":"8400499"},{"coordinate":{"lat":52.5030555725098,"lng":4.95361089706421},"countryCode":"NL","name":"Purmerend","stationCode":"PMR","uicCode":"8400508"},{"coordinate":{"lat":52.5113906860352,"lng":4.96833324432373},"countryCode":"NL","name":"Purmerend Overwhere","stationCode":"PMO","uicCode":"8400506"},{"coordinate":{"lat":52.6447219848633,"lng":5.05555534362793},"countryCode":"NL","name":"Hoorn","stationCode":"HN","uicCode":"8400337"},{"coordinate":{"lat":52.6536102294922,"lng":5.08555555343628},"countryCode":"NL","name":"Hoorn Kersenboogerd","stationCode":"HNK","uicCode":"8400336"},{"coordinate":{"lat":52.6905555725098,"lng":5.18388891220093},"countryCode":"NL","name":"Hoogkarspel","stationCode":"HKS","uicCode":"8400334"},{"coordinate":{"lat":52.6949996948242,"lng":5.23777770996094},"countryCode":"NL","name":"Bovenkarspel-Grootebroek","stationCode":"BKG","uicCode":"8400127"},{"coordinate":{"lat":52.6961097717285,"lng":5.25277757644653},"countryCode":"NL","name":"Bovenkarspel Flora","stationCode":"BKF","uicCode":"8400230"},{"coordinate":{"lat":52.6991653442383,"lng":5.28638887405396},"countryCode":"NL","name":"Enkhuizen","stationCode":"EKZ","uicCode":"8400210"}],"direction":"BOTH"},"consequence":{"section":{"stations":[{"coordinate":{"lat":52.4388885498047,"lng":4.81361103057861},"countryCode":"NL","name":"Zaandam","stationCode":"ZD","uicCode":"8400731"},{"coordinate":{"lat":52.4566650390625,"lng":4.82027769088745},"countryCode":"NL","name":"Zaandam Kogerveld","stationCode":"ZDK","uicCode":"8400728"},{"coordinate":{"lat":52.4965906325416,"lng":4.93562936782836},"countryCode":"NL","name":"Purmerend Weidevenne","stationCode":"PMW","uicCode":"8400499"},{"coordinate":{"lat":52.5030555725098,"lng":4.95361089706421},"countryCode":"NL","name":"Purmerend","stationCode":"PMR","uicCode":"8400508"},{"coordinate":{"lat":52.5113906860352,"lng":4.96833324432373},"countryCode":"NL","name":"Purmerend Overwhere","stationCode":"PMO","uicCode":"8400506"},{"coordinate":{"lat":52.6447219848633,"lng":5.05555534362793},"countryCode":"NL","name":"Hoorn","stationCode":"HN","uicCode":"8400337"},{"coordinate":{"lat":52.6536102294922,"lng":5.08555555343628},"countryCode":"NL","name":"Hoorn Kersenboogerd","stationCode":"HNK","uicCode":"8400336"},{"coordinate":{"lat":52.6905555725098,"lng":5.18388891220093},"countryCode":"NL","name":"Hoogkarspel","stationCode":"HKS","uicCode":"8400334"}],"direction":"BOTH"},"description":"er rijden bussen","level":"LESS_TRAINS"},"sectionType":"NL"},{"section":{"stations":[{"coordinate":{"lat":52.3094444274902,"lng":4.76194429397583},"countryCode":"NL","name":"Schiphol Airport","stationCode":"SHL","uicCode":"8400561"},{"coordinate":{"lat":52.3577766418457,"lng":4.83388900756836},"countryCode":"NL","name":"Amsterdam Lelylaan","stationCode":"ASDL","uicCode":"8400079"},{"coordinate":{"lat":52.3888893127441,"lng":4.83777761459351},"countryCode":"NL","name":"Amsterdam Sloterdijk","stationCode":"ASS","uicCode":"8400059"},{"coordinate":{"lat":52.4388885498047,"lng":4.81361103057861},"countryCode":"NL","name":"Zaandam","stationCode":"ZD","uicCode":"8400731"}],"direction":"BOTH"},"consequence":{"section":{"stations":[{"coordinate":{"lat":52.3094444274902,"lng":4.76194429397583},"countryCode":"NL","name":"Schiphol Airport","stationCode":"SHL","uicCode":"8400561"},{"coordinate":{"lat":52.3577766418457,"lng":4.83388900756836},"countryCode":"NL","name":"Amsterdam Lelylaan","stationCode":"ASDL","uicCode":"8400079"},{"coordinate":{"lat":52.3888893127441,"lng":4.83777761459351},"countryCode":"NL","name":"Amsterdam Sloterdijk","stationCode":"ASS","uicCode":"8400059"},{"coordinate":{"lat":52.4388885498047,"lng":4.81361103057861},"countryCode":"NL","name":"Zaandam","stationCode":"ZD","uicCode":"8400731"}],"direction":"BOTH"},"description":"minder treinen","level":"LESS_TRAINS"},"sectionType":"NL"}],"summaryAdditionalTravelTime":{"label":"De extra reistijd ligt tussen 15 en 30 minuten.","shortLabel":"Extra reistijd: 15 - 30 min.","minimumDurationInMinutes":15,"maximumDurationInMinutes":30},"timespans":[{"start":"2024-12-14T00:00:00+0100","end":"2024-12-16T02:00:00+0100","period":"Zaterdag 14 december 0:00 uur t/m maandag 16 december 2:00 uur.","situation":{"label":"Door werkzaamheden: tussen Zaandam en Hoogkarspel rijden er bussen en tussen Schiphol Airport en Zaandam rijden er minder treinen."},"cause":{"label":"werkzaamheden"},"additionalTravelTime":{"label":"De extra reistijd ligt tussen 15 en 30 minuten.","shortLabel":"Extra reistijd: 15 - 30 min.","minimumDurationInMinutes":15,"maximumDurationInMinutes":30},"alternativeTransport":{"label":"maak gebruik van het vervangende vervoer","shortLabel":"gebruik het vervangende vervoer"},"advices":["Houd ook rekening met extra overstappen in Amsterdam Sloterdijk."]}],"alternativeTransportTimespans":[{"start":"2024-12-14T00:00:00+0100","end":"2024-12-15T02:00:00+0100","alternativeTransport":{"location":[{"station":{"coordinate":{"lat":52.6905555725098,"lng":5.18388891220093},"countryCode":"NL","name":"Hoogkarspel","stationCode":"HKS","uicCode":"8400334"},"description":"vanaf het Stationsplein"},{"station":{"coordinate":{"lat":52.6447219848633,"lng":5.05555534362793},"countryCode":"NL","name":"Hoorn","stationCode":"HN","uicCode":"8400337"},"description":"vanaf de achterzijde van het station"},{"station":{"coordinate":{"lat":52.4388885498047,"lng":4.81361103057861},"countryCode":"NL","name":"Zaandam","stationCode":"ZD","uicCode":"8400731"},"description":"vanaf het busstation"}],"label":"Er rijden snelbussen tussen Hoogkarspel, Hoorn en Zaandam.","shortLabel":"Er rijden snelbussen Hoogkarspel - Hoorn - Zaandam."}},{"start":"2024-12-14T00:00:00+0100","end":"2024-12-15T02:00:00+0100","alternativeTransport":{"location":[{"station":{"coordinate":{"lat":52.6905555725098,"lng":5.18388891220093},"countryCode":"NL","name":"Hoogkarspel","stationCode":"HKS","uicCode":"8400334"},"description":"vanaf het Stationsplein"},{"station":{"coordinate":{"lat":52.6536102294922,"lng":5.08555555343628},"countryCode":"NL","name":"Hoorn Kersenboogerd","stationCode":"HNK","uicCode":"8400336"},"description":"vanaf de bushalte aan de Rijnweg"},{"station":{"coordinate":{"lat":52.6447219848633,"lng":5.05555534362793},"countryCode":"NL","name":"Hoorn","stationCode":"HN","uicCode":"8400337"},"description":"vanaf de achterzijde van het station"},{"station":{"coordinate":{"lat":52.6780548095703,"lng":4.90722227096558},"countryCode":"NL","name":"Obdam","stationCode":"OBD","uicCode":"8400480"},"description":"vanaf de voorzijde van het station"},{"station":{"coordinate":{"lat":52.6697235107422,"lng":4.82277774810791},"countryCode":"NL","name":"Heerhugowaard","stationCode":"HWD","uicCode":"8400306"},"description":"vanaf het busstation"}],"label":"Er rijden stopbussen tussen Hoogkarspel, Hoorn Kersenboogerd, Hoorn, Obdam en Heerhugowaard.","shortLabel":"Er rijden stopbussen Hoogkarspel - Kersenboogerd - Hoorn - Obdam - Heerhugowaard."}},{"start":"2024-12-14T00:00:00+0100","end":"2024-12-15T02:00:00+0100","alternativeTransport":{"location":[{"station":{"coordinate":{"lat":52.6536102294922,"lng":5.08555555343628},"countryCode":"NL","name":"Hoorn Kersenboogerd","stationCode":"HNK","uicCode":"8400336"},"description":"vanaf de bushalte aan de Rijnweg"},{"station":{"coordinate":{"lat":52.6447219848633,"lng":5.05555534362793},"countryCode":"NL","name":"Hoorn","stationCode":"HN","uicCode":"8400337"},"description":"vanaf de achterzijde van het station"},{"station":{"coordinate":{"lat":52.5113906860352,"lng":4.96833324432373},"countryCode":"NL","name":"Purmerend Overwhere","stationCode":"PMO","uicCode":"8400506"},"description":"vanaf de Churchilllaan ter hoogte van de Meteorenweg"},{"station":{"coordinate":{"lat":52.5030555725098,"lng":4.95361089706421},"countryCode":"NL","name":"Purmerend","stationCode":"PMR","uicCode":"8400508"},"description":"vanaf de bushalte"},{"station":{"coordinate":{"lat":52.4566650390625,"lng":4.82027769088745},"countryCode":"NL","name":"Zaandam Kogerveld","stationCode":"ZDK","uicCode":"8400728"},"description":"vanaf de voorzijde van het station"},{"station":{"coordinate":{"lat":52.4388885498047,"lng":4.81361103057861},"countryCode":"NL","name":"Zaandam","stationCode":"ZD","uicCode":"8400731"},"description":"vanaf het busstation"}],"label":"Er rijden stopbussen tussen Hoorn Kersenboogerd, Hoorn, Purmerend Overwhere, Purmerend, Zaandam Kogerveld en Zaandam.","shortLabel":"Er rijden stopbussen Kersenboogerd - Hoorn - Overwhere - Purmerend - Kogerveld - Zaandam."}},{"start":"2024-12-14T00:00:00+0100","end":"2024-12-15T02:00:00+0100","alternativeTransport":{"location":[{"station":{"coordinate":{"lat":52.5030555725098,"lng":4.95361089706421},"countryCode":"NL","name":"Purmerend","stationCode":"PMR","uicCode":"8400508"},"description":"vanaf de bushalte"},{"station":{"coordinate":{"lat":52.4965906325416,"lng":4.93562936782836},"countryCode":"NL","name":"Purmerend Weidevenne","stationCode":"PMW","uicCode":"8400499"},"description":"vanaf het Stationsplein"}],"label":"Er rijden taxibusjes tussen Purmerend en Purmerend Weidevenne.","shortLabel":"Er rijden taxibusjes Purmerend - Weidevenne."}},{"start":"2024-12-15T05:00:00+0100","end":"2024-12-16T02:00:00+0100","alternativeTransport":{"location":[{"station":{"coordinate":{"lat":52.6905555725098,"lng":5.18388891220093},"countryCode":"NL","name":"Hoogkarspel","stationCode":"HKS","uicCode":"8400334"},"description":"vanaf het Stationsplein"},{"station":{"coordinate":{"lat":52.6447219848633,"lng":5.05555534362793},"countryCode":"NL","name":"Hoorn","stationCode":"HN","uicCode":"8400337"},"description":"vanaf de achterzijde van het station"},{"station":{"coordinate":{"lat":52.4388885498047,"lng":4.81361103057861},"countryCode":"NL","name":"Zaandam","stationCode":"ZD","uicCode":"8400731"},"description":"vanaf het busstation"}],"label":"Er rijden snelbussen tussen Hoogkarspel, Hoorn en Zaandam.","shortLabel":"Er rijden snelbussen Hoogkarspel - Hoorn - Zaandam."}},{"start":"2024-12-15T05:00:00+0100","end":"2024-12-16T02:00:00+0100","alternativeTransport":{"location":[{"station":{"coordinate":{"lat":52.6905555725098,"lng":5.18388891220093},"countryCode":"NL","name":"Hoogkarspel","stationCode":"HKS","uicCode":"8400334"},"description":"vanaf het Stationsplein"},{"station":{"coordinate":{"lat":52.6536102294922,"lng":5.08555555343628},"countryCode":"NL","name":"Hoorn Kersenboogerd","stationCode":"HNK","uicCode":"8400336"},"description":"vanaf de bushalte aan de Rijnweg"},{"station":{"coordinate":{"lat":52.6447219848633,"lng":5.05555534362793},"countryCode":"NL","name":"Hoorn","stationCode":"HN","uicCode":"8400337"},"description":"vanaf de achterzijde van het station"},{"station":{"coordinate":{"lat":52.6780548095703,"lng":4.90722227096558},"countryCode":"NL","name":"Obdam","stationCode":"OBD","uicCode":"8400480"},"description":"vanaf de voorzijde van het station"},{"station":{"coordinate":{"lat":52.6697235107422,"lng":4.82277774810791},"countryCode":"NL","name":"Heerhugowaard","stationCode":"HWD","uicCode":"8400306"},"description":"vanaf het busstation"}],"label":"Er rijden stopbussen tussen Hoogkarspel, Hoorn Kersenboogerd, Hoorn, Obdam en Heerhugowaard.","shortLabel":"Er rijden stopbussen Hoogkarspel - Kersenboogerd - Hoorn - Obdam - Heerhugowaard."}},{"start":"2024-12-15T05:00:00+0100","end":"2024-12-16T02:00:00+0100","alternativeTransport":{"location":[{"station":{"coordinate":{"lat":52.6536102294922,"lng":5.08555555343628},"countryCode":"NL","name":"Hoorn Kersenboogerd","stationCode":"HNK","uicCode":"8400336"},"description":"vanaf de bushalte aan de Rijnweg"},{"station":{"coordinate":{"lat":52.6447219848633,"lng":5.05555534362793},"countryCode":"NL","name":"Hoorn","stationCode":"HN","uicCode":"8400337"},"description":"vanaf de achterzijde van het station"},{"station":{"coordinate":{"lat":52.5113906860352,"lng":4.96833324432373},"countryCode":"NL","name":"Purmerend Overwhere","stationCode":"PMO","uicCode":"8400506"},"description":"vanaf de Churchilllaan ter hoogte van de Meteorenweg"},{"station":{"coordinate":{"lat":52.5030555725098,"lng":4.95361089706421},"countryCode":"NL","name":"Purmerend","stationCode":"PMR","uicCode":"8400508"},"description":"vanaf de bushalte"},{"station":{"coordinate":{"lat":52.4566650390625,"lng":4.82027769088745},"countryCode":"NL","name":"Zaandam Kogerveld","stationCode":"ZDK","uicCode":"8400728"},"description":"vanaf de voorzijde van het station"},{"station":{"coordinate":{"lat":52.4388885498047,"lng":4.81361103057861},"countryCode":"NL","name":"Zaandam","stationCode":"ZD","uicCode":"8400731"},"description":"vanaf het busstation"}],"label":"Er rijden stopbussen tussen Hoorn Kersenboogerd, Hoorn, Purmerend Overwhere, Purmerend, Zaandam Kogerveld en Zaandam.","shortLabel":"Er rijden stopbussen Kersenboogerd - Hoorn - Overwhere - Purmerend - Kogerveld - Zaandam."}},{"start":"2024-12-15T05:00:00+0100","end":"2024-12-16T02:00:00+0100","alternativeTransport":{"location":[{"station":{"coordinate":{"lat":52.5030555725098,"lng":4.95361089706421},"countryCode":"NL","name":"Purmerend","stationCode":"PMR","uicCode":"8400508"},"description":"vanaf de bushalte"},{"station":{"coordinate":{"lat":52.4965906325416,"lng":4.93562936782836},"countryCode":"NL","name":"Purmerend Weidevenne","stationCode":"PMW","uicCode":"8400499"},"description":"vanaf het Stationsplein"}],"label":"Er rijden taxibusjes tussen Purmerend en Purmerend Weidevenne.","shortLabel":"Er rijden taxibusjes Purmerend - Weidevenne."}}]},{"type":"MAINTENANCE","id":"7005607","title":"Schiphol - Amersfoort; Amsterdam - Amersfoort; Utrecht - Hilversum - Weesp.","isActive":false,"local":false,"titleSections":[[{"type":"STATION","value":"Schiphol Airport"},{"type":"STATION","value":"Weesp"},{"type":"ICON","value":"MAINTENANCE"},{"type":"STATION","value":"Baarn"},{"type":"STATION","value":"Amersfoort C."}],[{"type":"STATION","value":"Amsterdam C."},{"type":"STATION","value":"Weesp"},{"type":"ICON","value":"MAINTENANCE"},{"type":"STATION","value":"Baarn"},{"type":"STATION","value":"Amersfoort C."}],[{"type":"STATION","value":"Utrecht C."},{"type":"STATION","value":"Overvecht"},{"type":"ICON","value":"MAINTENANCE"},{"type":"STATION","value":"Weesp"}],[{"type":"STATION","value":"Utrecht C."},{"type":"ICON","value":"MAINTENANCE"},{"type":"STATION","value":"Weesp"}]],"registrationTime":"2024-11-22T10:55:53+0100","start":"2024-12-14T00:50:00+0100","releaseTime":"2024-11-22T10:55:53+0100","end":"2024-12-16T01:40:00+0100","period":"Zaterdag 14 december 0:50 uur t/m maandag 16 december 1:40 uur.","impact":{"value":3},"publicationSections":[{"section":{"stations":[{"coordinate":{"lat":52.3094444274902,"lng":4.76194429397583},"countryCode":"NL","name":"Schiphol Airport","stationCode":"SHL","uicCode":"8400561"},{"coordinate":{"lat":52.338889,"lng":4.872356},"countryCode":"NL","name":"Amsterdam Zuid","stationCode":"ASDZ","uicCode":"8400061"},{"coordinate":{"lat":52.3372230529785,"lng":4.89027786254883},"countryCode":"NL","name":"Amsterdam RAI","stationCode":"RAI","uicCode":"8400056"},{"coordinate":{"lat":52.3233337402344,"lng":4.93638896942139},"countryCode":"NL","name":"Duivendrecht","stationCode":"DVD","uicCode":"8400194"},{"coordinate":{"lat":52.3302764892578,"lng":4.95583343505859},"countryCode":"NL","name":"Diemen Zuid","stationCode":"DMNZ","uicCode":"8400163"},{"coordinate":{"lat":52.3127784729004,"lng":5.04305553436279},"countryCode":"NL","name":"Weesp","stationCode":"WP","uicCode":"8400685"},{"coordinate":{"lat":52.2802772521973,"lng":5.15694427490234},"countryCode":"NL","name":"Naarden-Bussum","stationCode":"NDB","uicCode":"8400452"},{"coordinate":{"lat":52.2658348083496,"lng":5.16305541992188},"countryCode":"NL","name":"Bussum Zuid","stationCode":"BSMZ","uicCode":"8400145"},{"coordinate":{"lat":52.2380561828613,"lng":5.17388868331909},"countryCode":"NL","name":"Hilversum Media Park","stationCode":"HVSM","uicCode":"8400324"},{"coordinate":{"lat":52.2258338928223,"lng":5.18194437026978},"countryCode":"NL","name":"Hilversum","stationCode":"HVS","uicCode":"8400322"},{"coordinate":{"lat":52.2083320617676,"lng":5.28083324432373},"countryCode":"NL","name":"Baarn","stationCode":"BRN","uicCode":"8400086"},{"coordinate":{"lat":52.1538887023926,"lng":5.37055540084839},"countryCode":"NL","name":"Amersfoort Centraal","stationCode":"AMF","uicCode":"8400055"}],"direction":"BOTH"},"consequence":{"section":{"stations":[{"coordinate":{"lat":52.3127784729004,"lng":5.04305553436279},"countryCode":"NL","name":"Weesp","stationCode":"WP","uicCode":"8400685"},{"coordinate":{"lat":52.2802772521973,"lng":5.15694427490234},"countryCode":"NL","name":"Naarden-Bussum","stationCode":"NDB","uicCode":"8400452"},{"coordinate":{"lat":52.2658348083496,"lng":5.16305541992188},"countryCode":"NL","name":"Bussum Zuid","stationCode":"BSMZ","uicCode":"8400145"},{"coordinate":{"lat":52.2380561828613,"lng":5.17388868331909},"countryCode":"NL","name":"Hilversum Media Park","stationCode":"HVSM","uicCode":"8400324"},{"coordinate":{"lat":52.2258338928223,"lng":5.18194437026978},"countryCode":"NL","name":"Hilversum","stationCode":"HVS","uicCode":"8400322"},{"coordinate":{"lat":52.2083320617676,"lng":5.28083324432373},"countryCode":"NL","name":"Baarn","stationCode":"BRN","uicCode":"8400086"}],"direction":"BOTH"},"description":"er rijden bussen","level":"LESS_TRAINS"},"sectionType":"NL"},{"section":{"stations":[{"coordinate":{"lat":52.3788871765137,"lng":4.90027761459351},"countryCode":"NL","name":"Amsterdam Centraal","stationCode":"ASD","uicCode":"8400058"},{"coordinate":{"lat":52.3605537414551,"lng":4.93111133575439},"countryCode":"NL","name":"Amsterdam Muiderpoort","stationCode":"ASDM","uicCode":"8400060"},{"coordinate":{"lat":52.35274,"lng":4.94855},"countryCode":"NL","name":"Amsterdam Science Park","stationCode":"ASSP","uicCode":"8400235"},{"coordinate":{"lat":52.34515,"lng":4.967566},"countryCode":"NL","name":"Diemen","stationCode":"DMN","uicCode":"8400165"},{"coordinate":{"lat":52.3127784729004,"lng":5.04305553436279},"countryCode":"NL","name":"Weesp","stationCode":"WP","uicCode":"8400685"},{"coordinate":{"lat":52.2802772521973,"lng":5.15694427490234},"countryCode":"NL","name":"Naarden-Bussum","stationCode":"NDB","uicCode":"8400452"},{"coordinate":{"lat":52.2658348083496,"lng":5.16305541992188},"countryCode":"NL","name":"Bussum Zuid","stationCode":"BSMZ","uicCode":"8400145"},{"coordinate":{"lat":52.2380561828613,"lng":5.17388868331909},"countryCode":"NL","name":"Hilversum Media Park","stationCode":"HVSM","uicCode":"8400324"},{"coordinate":{"lat":52.2258338928223,"lng":5.18194437026978},"countryCode":"NL","name":"Hilversum","stationCode":"HVS","uicCode":"8400322"},{"coordinate":{"lat":52.2083320617676,"lng":5.28083324432373},"countryCode":"NL","name":"Baarn","stationCode":"BRN","uicCode":"8400086"},{"coordinate":{"lat":52.1538887023926,"lng":5.37055540084839},"countryCode":"NL","name":"Amersfoort Centraal","stationCode":"AMF","uicCode":"8400055"}],"direction":"BOTH"},"consequence":{"section":{"stations":[{"coordinate":{"lat":52.3127784729004,"lng":5.04305553436279},"countryCode":"NL","name":"Weesp","stationCode":"WP","uicCode":"8400685"},{"coordinate":{"lat":52.2802772521973,"lng":5.15694427490234},"countryCode":"NL","name":"Naarden-Bussum","stationCode":"NDB","uicCode":"8400452"},{"coordinate":{"lat":52.2658348083496,"lng":5.16305541992188},"countryCode":"NL","name":"Bussum Zuid","stationCode":"BSMZ","uicCode":"8400145"},{"coordinate":{"lat":52.2380561828613,"lng":5.17388868331909},"countryCode":"NL","name":"Hilversum Media Park","stationCode":"HVSM","uicCode":"8400324"},{"coordinate":{"lat":52.2258338928223,"lng":5.18194437026978},"countryCode":"NL","name":"Hilversum","stationCode":"HVS","uicCode":"8400322"},{"coordinate":{"lat":52.2083320617676,"lng":5.28083324432373},"countryCode":"NL","name":"Baarn","stationCode":"BRN","uicCode":"8400086"}],"direction":"BOTH"},"description":"er rijden bussen","level":"LESS_TRAINS"},"sectionType":"NL"},{"section":{"stations":[{"coordinate":{"lat":52.0888900756836,"lng":5.11027765274048},"countryCode":"NL","name":"Utrecht Centraal","stationCode":"UT","uicCode":"8400621"},{"coordinate":{"lat":52.1100006103516,"lng":5.12472200393677},"countryCode":"NL","name":"Utrecht Overvecht","stationCode":"UTO","uicCode":"8400620"},{"coordinate":{"lat":52.1777763366699,"lng":5.17916679382324},"countryCode":"NL","name":"Hollandsche Rading","stationCode":"HOR","uicCode":"8400327"},{"coordinate":{"lat":52.2161102294922,"lng":5.18722200393677},"countryCode":"NL","name":"Hilversum Sportpark","stationCode":"HVSP","uicCode":"8400570"},{"coordinate":{"lat":52.2258338928223,"lng":5.18194437026978},"countryCode":"NL","name":"Hilversum","stationCode":"HVS","uicCode":"8400322"},{"coordinate":{"lat":52.2380561828613,"lng":5.17388868331909},"countryCode":"NL","name":"Hilversum Media Park","stationCode":"HVSM","uicCode":"8400324"},{"coordinate":{"lat":52.2658348083496,"lng":5.16305541992188},"countryCode":"NL","name":"Bussum Zuid","stationCode":"BSMZ","uicCode":"8400145"},{"coordinate":{"lat":52.2802772521973,"lng":5.15694427490234},"countryCode":"NL","name":"Naarden-Bussum","stationCode":"NDB","uicCode":"8400452"},{"coordinate":{"lat":52.3127784729004,"lng":5.04305553436279},"countryCode":"NL","name":"Weesp","stationCode":"WP","uicCode":"8400685"}],"direction":"BOTH"},"consequence":{"section":{"stations":[{"coordinate":{"lat":52.1100006103516,"lng":5.12472200393677},"countryCode":"NL","name":"Utrecht Overvecht","stationCode":"UTO","uicCode":"8400620"},{"coordinate":{"lat":52.1777763366699,"lng":5.17916679382324},"countryCode":"NL","name":"Hollandsche Rading","stationCode":"HOR","uicCode":"8400327"},{"coordinate":{"lat":52.2161102294922,"lng":5.18722200393677},"countryCode":"NL","name":"Hilversum Sportpark","stationCode":"HVSP","uicCode":"8400570"},{"coordinate":{"lat":52.2258338928223,"lng":5.18194437026978},"countryCode":"NL","name":"Hilversum","stationCode":"HVS","uicCode":"8400322"},{"coordinate":{"lat":52.2380561828613,"lng":5.17388868331909},"countryCode":"NL","name":"Hilversum Media Park","stationCode":"HVSM","uicCode":"8400324"},{"coordinate":{"lat":52.2658348083496,"lng":5.16305541992188},"countryCode":"NL","name":"Bussum Zuid","stationCode":"BSMZ","uicCode":"8400145"},{"coordinate":{"lat":52.2802772521973,"lng":5.15694427490234},"countryCode":"NL","name":"Naarden-Bussum","stationCode":"NDB","uicCode":"8400452"},{"coordinate":{"lat":52.3127784729004,"lng":5.04305553436279},"countryCode":"NL","name":"Weesp","stationCode":"WP","uicCode":"8400685"}],"direction":"BOTH"},"description":"er rijden bussen","level":"LESS_TRAINS"},"sectionType":"NL"},{"section":{"stations":[{"coordinate":{"lat":52.0888900756836,"lng":5.11027765274048},"countryCode":"NL","name":"Utrecht Centraal","stationCode":"UT","uicCode":"8400621"},{"coordinate":{"lat":52.1100006103516,"lng":5.12472200393677},"countryCode":"NL","name":"Utrecht Overvecht","stationCode":"UTO","uicCode":"8400620"},{"coordinate":{"lat":52.1777763366699,"lng":5.17916679382324},"countryCode":"NL","name":"Hollandsche Rading","stationCode":"HOR","uicCode":"8400327"},{"coordinate":{"lat":52.2161102294922,"lng":5.18722200393677},"countryCode":"NL","name":"Hilversum Sportpark","stationCode":"HVSP","uicCode":"8400570"},{"coordinate":{"lat":52.2258338928223,"lng":5.18194437026978},"countryCode":"NL","name":"Hilversum","stationCode":"HVS","uicCode":"8400322"},{"coordinate":{"lat":52.2380561828613,"lng":5.17388868331909},"countryCode":"NL","name":"Hilversum Media Park","stationCode":"HVSM","uicCode":"8400324"},{"coordinate":{"lat":52.2658348083496,"lng":5.16305541992188},"countryCode":"NL","name":"Bussum Zuid","stationCode":"BSMZ","uicCode":"8400145"},{"coordinate":{"lat":52.2802772521973,"lng":5.15694427490234},"countryCode":"NL","name":"Naarden-Bussum","stationCode":"NDB","uicCode":"8400452"},{"coordinate":{"lat":52.3127784729004,"lng":5.04305553436279},"countryCode":"NL","name":"Weesp","stationCode":"WP","uicCode":"8400685"}],"direction":"BOTH"},"consequence":{"section":{"stations":[{"coordinate":{"lat":52.0888900756836,"lng":5.11027765274048},"countryCode":"NL","name":"Utrecht Centraal","stationCode":"UT","uicCode":"8400621"},{"coordinate":{"lat":52.1100006103516,"lng":5.12472200393677},"countryCode":"NL","name":"Utrecht Overvecht","stationCode":"UTO","uicCode":"8400620"},{"coordinate":{"lat":52.1777763366699,"lng":5.17916679382324},"countryCode":"NL","name":"Hollandsche Rading","stationCode":"HOR","uicCode":"8400327"},{"coordinate":{"lat":52.2161102294922,"lng":5.18722200393677},"countryCode":"NL","name":"Hilversum Sportpark","stationCode":"HVSP","uicCode":"8400570"},{"coordinate":{"lat":52.2258338928223,"lng":5.18194437026978},"countryCode":"NL","name":"Hilversum","stationCode":"HVS","uicCode":"8400322"},{"coordinate":{"lat":52.2380561828613,"lng":5.17388868331909},"countryCode":"NL","name":"Hilversum Media Park","stationCode":"HVSM","uicCode":"8400324"},{"coordinate":{"lat":52.2658348083496,"lng":5.16305541992188},"countryCode":"NL","name":"Bussum Zuid","stationCode":"BSMZ","uicCode":"8400145"},{"coordinate":{"lat":52.2802772521973,"lng":5.15694427490234},"countryCode":"NL","name":"Naarden-Bussum","stationCode":"NDB","uicCode":"8400452"},{"coordinate":{"lat":52.3127784729004,"lng":5.04305553436279},"countryCode":"NL","name":"Weesp","stationCode":"WP","uicCode":"8400685"}],"direction":"BOTH"},"description":"dienstregeling aangepast","level":"LESS_TRAINS"},"sectionType":"NL"}],"summaryAdditionalTravelTime":{"label":"De extra reistijd kan oplopen tot 30 minuten.","shortLabel":"Extra reistijd tot 30 min.","minimumDurationInMinutes":30,"maximumDurationInMinutes":30},"timespans":[{"start":"2024-12-14T00:50:00+0100","end":"2024-12-15T05:30:00+0100","period":"Zaterdag 14 december 0:50 uur t/m zondag 15 december 5:30 uur.","situation":{"label":"Door werkzaamheden: tussen Weesp en Baarn rijden er bussen en tussen Utrecht Overvecht en Weesp rijden er bussen."},"cause":{"label":"werkzaamheden"},"additionalTravelTime":{"label":"De extra reistijd is ongeveer 30 minuten.","shortLabel":"Extra reistijd 30 min.","minimumDurationInMinutes":30,"maximumDurationInMinutes":30},"advices":[]},{"start":"2024-12-15T05:30:00+0100","end":"2024-12-16T01:40:00+0100","period":"Zondag 15 december 5:30 uur t/m maandag 16 december 1:40 uur.","situation":{"label":"Door werkzaamheden: tussen Weesp en Baarn rijden er bussen en tussen Utrecht Centraal en Weesp is de dienstregeling aangepast."},"cause":{"label":"werkzaamheden"},"additionalTravelTime":{"label":"De extra reistijd is ongeveer 30 minuten.","shortLabel":"Extra reistijd 30 min.","minimumDurationInMinutes":30,"maximumDurationInMinutes":30},"advices":[]}],"alternativeTransportTimespans":[]},{"type":"MAINTENANCE","id":"7005632","title":"Utrecht - Amersfoort Schothorst; Schiphol - Amersfoort; Amsterdam - Amersfoort.","isActive":false,"local":false,"titleSections":[[{"type":"STATION","value":"Amsterdam C."},{"type":"ICON","value":"MAINTENANCE"},{"type":"STATION","value":"Amersfoort C."}],[{"type":"STATION","value":"Schiphol Airport"},{"type":"ICON","value":"MAINTENANCE"},{"type":"STATION","value":"Amersfoort C."}],[{"type":"STATION","value":"Utrecht C."},{"type":"STATION","value":"Amersfoort C."},{"type":"ICON","value":"MAINTENANCE"},{"type":"STATION","value":"Schothorst"}]],"registrationTime":"2024-11-21T17:11:03+0100","start":"2024-12-14T00:50:00+0100","releaseTime":"2024-11-21T17:11:03+0100","end":"2024-12-16T01:40:00+0100","period":"Zaterdag 14 december 0:50 uur t/m maandag 16 december 1:40 uur.","impact":{"value":3},"publicationSections":[{"section":{"stations":[{"coordinate":{"lat":52.3788871765137,"lng":4.90027761459351},"countryCode":"NL","name":"Amsterdam Centraal","stationCode":"ASD","uicCode":"8400058"},{"coordinate":{"lat":52.3605537414551,"lng":4.93111133575439},"countryCode":"NL","name":"Amsterdam Muiderpoort","stationCode":"ASDM","uicCode":"8400060"},{"coordinate":{"lat":52.35274,"lng":4.94855},"countryCode":"NL","name":"Amsterdam Science Park","stationCode":"ASSP","uicCode":"8400235"},{"coordinate":{"lat":52.34515,"lng":4.967566},"countryCode":"NL","name":"Diemen","stationCode":"DMN","uicCode":"8400165"},{"coordinate":{"lat":52.3127784729004,"lng":5.04305553436279},"countryCode":"NL","name":"Weesp","stationCode":"WP","uicCode":"8400685"},{"coordinate":{"lat":52.2802772521973,"lng":5.15694427490234},"countryCode":"NL","name":"Naarden-Bussum","stationCode":"NDB","uicCode":"8400452"},{"coordinate":{"lat":52.2658348083496,"lng":5.16305541992188},"countryCode":"NL","name":"Bussum Zuid","stationCode":"BSMZ","uicCode":"8400145"},{"coordinate":{"lat":52.2380561828613,"lng":5.17388868331909},"countryCode":"NL","name":"Hilversum Media Park","stationCode":"HVSM","uicCode":"8400324"},{"coordinate":{"lat":52.2258338928223,"lng":5.18194437026978},"countryCode":"NL","name":"Hilversum","stationCode":"HVS","uicCode":"8400322"},{"coordinate":{"lat":52.2083320617676,"lng":5.28083324432373},"countryCode":"NL","name":"Baarn","stationCode":"BRN","uicCode":"8400086"},{"coordinate":{"lat":52.1538887023926,"lng":5.37055540084839},"countryCode":"NL","name":"Amersfoort Centraal","stationCode":"AMF","uicCode":"8400055"}],"direction":"BOTH"},"consequence":{"section":{"stations":[{"coordinate":{"lat":52.3788871765137,"lng":4.90027761459351},"countryCode":"NL","name":"Amsterdam Centraal","stationCode":"ASD","uicCode":"8400058"},{"coordinate":{"lat":52.3605537414551,"lng":4.93111133575439},"countryCode":"NL","name":"Amsterdam Muiderpoort","stationCode":"ASDM","uicCode":"8400060"},{"coordinate":{"lat":52.35274,"lng":4.94855},"countryCode":"NL","name":"Amsterdam Science Park","stationCode":"ASSP","uicCode":"8400235"},{"coordinate":{"lat":52.34515,"lng":4.967566},"countryCode":"NL","name":"Diemen","stationCode":"DMN","uicCode":"8400165"},{"coordinate":{"lat":52.3127784729004,"lng":5.04305553436279},"countryCode":"NL","name":"Weesp","stationCode":"WP","uicCode":"8400685"},{"coordinate":{"lat":52.2802772521973,"lng":5.15694427490234},"countryCode":"NL","name":"Naarden-Bussum","stationCode":"NDB","uicCode":"8400452"},{"coordinate":{"lat":52.2658348083496,"lng":5.16305541992188},"countryCode":"NL","name":"Bussum Zuid","stationCode":"BSMZ","uicCode":"8400145"},{"coordinate":{"lat":52.2380561828613,"lng":5.17388868331909},"countryCode":"NL","name":"Hilversum Media Park","stationCode":"HVSM","uicCode":"8400324"},{"coordinate":{"lat":52.2258338928223,"lng":5.18194437026978},"countryCode":"NL","name":"Hilversum","stationCode":"HVS","uicCode":"8400322"},{"coordinate":{"lat":52.2083320617676,"lng":5.28083324432373},"countryCode":"NL","name":"Baarn","stationCode":"BRN","uicCode":"8400086"},{"coordinate":{"lat":52.1538887023926,"lng":5.37055540084839},"countryCode":"NL","name":"Amersfoort Centraal","stationCode":"AMF","uicCode":"8400055"}],"direction":"BOTH"},"description":"dienstregeling aangepast","level":"LESS_TRAINS"},"sectionType":"NL"},{"section":{"stations":[{"coordinate":{"lat":52.3094444274902,"lng":4.76194429397583},"countryCode":"NL","name":"Schiphol Airport","stationCode":"SHL","uicCode":"8400561"},{"coordinate":{"lat":52.338889,"lng":4.872356},"countryCode":"NL","name":"Amsterdam Zuid","stationCode":"ASDZ","uicCode":"8400061"},{"coordinate":{"lat":52.3372230529785,"lng":4.89027786254883},"countryCode":"NL","name":"Amsterdam RAI","stationCode":"RAI","uicCode":"8400056"},{"coordinate":{"lat":52.3233337402344,"lng":4.93638896942139},"countryCode":"NL","name":"Duivendrecht","stationCode":"DVD","uicCode":"8400194"},{"coordinate":{"lat":52.3302764892578,"lng":4.95583343505859},"countryCode":"NL","name":"Diemen Zuid","stationCode":"DMNZ","uicCode":"8400163"},{"coordinate":{"lat":52.3127784729004,"lng":5.04305553436279},"countryCode":"NL","name":"Weesp","stationCode":"WP","uicCode":"8400685"},{"coordinate":{"lat":52.2802772521973,"lng":5.15694427490234},"countryCode":"NL","name":"Naarden-Bussum","stationCode":"NDB","uicCode":"8400452"},{"coordinate":{"lat":52.2658348083496,"lng":5.16305541992188},"countryCode":"NL","name":"Bussum Zuid","stationCode":"BSMZ","uicCode":"8400145"},{"coordinate":{"lat":52.2380561828613,"lng":5.17388868331909},"countryCode":"NL","name":"Hilversum Media Park","stationCode":"HVSM","uicCode":"8400324"},{"coordinate":{"lat":52.2258338928223,"lng":5.18194437026978},"countryCode":"NL","name":"Hilversum","stationCode":"HVS","uicCode":"8400322"},{"coordinate":{"lat":52.2083320617676,"lng":5.28083324432373},"countryCode":"NL","name":"Baarn","stationCode":"BRN","uicCode":"8400086"},{"coordinate":{"lat":52.1538887023926,"lng":5.37055540084839},"countryCode":"NL","name":"Amersfoort Centraal","stationCode":"AMF","uicCode":"8400055"}],"direction":"BOTH"},"consequence":{"section":{"stations":[{"coordinate":{"lat":52.3094444274902,"lng":4.76194429397583},"countryCode":"NL","name":"Schiphol Airport","stationCode":"SHL","uicCode":"8400561"},{"coordinate":{"lat":52.338889,"lng":4.872356},"countryCode":"NL","name":"Amsterdam Zuid","stationCode":"ASDZ","uicCode":"8400061"},{"coordinate":{"lat":52.3372230529785,"lng":4.89027786254883},"countryCode":"NL","name":"Amsterdam RAI","stationCode":"RAI","uicCode":"8400056"},{"coordinate":{"lat":52.3233337402344,"lng":4.93638896942139},"countryCode":"NL","name":"Duivendrecht","stationCode":"DVD","uicCode":"8400194"},{"coordinate":{"lat":52.3302764892578,"lng":4.95583343505859},"countryCode":"NL","name":"Diemen Zuid","stationCode":"DMNZ","uicCode":"8400163"},{"coordinate":{"lat":52.3127784729004,"lng":5.04305553436279},"countryCode":"NL","name":"Weesp","stationCode":"WP","uicCode":"8400685"},{"coordinate":{"lat":52.2802772521973,"lng":5.15694427490234},"countryCode":"NL","name":"Naarden-Bussum","stationCode":"NDB","uicCode":"8400452"},{"coordinate":{"lat":52.2658348083496,"lng":5.16305541992188},"countryCode":"NL","name":"Bussum Zuid","stationCode":"BSMZ","uicCode":"8400145"},{"coordinate":{"lat":52.2380561828613,"lng":5.17388868331909},"countryCode":"NL","name":"Hilversum Media Park","stationCode":"HVSM","uicCode":"8400324"},{"coordinate":{"lat":52.2258338928223,"lng":5.18194437026978},"countryCode":"NL","name":"Hilversum","stationCode":"HVS","uicCode":"8400322"},{"coordinate":{"lat":52.2083320617676,"lng":5.28083324432373},"countryCode":"NL","name":"Baarn","stationCode":"BRN","uicCode":"8400086"},{"coordinate":{"lat":52.1538887023926,"lng":5.37055540084839},"countryCode":"NL","name":"Amersfoort Centraal","stationCode":"AMF","uicCode":"8400055"}],"direction":"BOTH"},"description":"dienstregeling aangepast","level":"LESS_TRAINS"},"sectionType":"NL"},{"section":{"stations":[{"coordinate":{"lat":52.0888900756836,"lng":5.11027765274048},"countryCode":"NL","name":"Utrecht Centraal","stationCode":"UT","uicCode":"8400621"},{"coordinate":{"lat":52.1100006103516,"lng":5.12472200393677},"countryCode":"NL","name":"Utrecht Overvecht","stationCode":"UTO","uicCode":"8400620"},{"coordinate":{"lat":52.1300010681152,"lng":5.20388889312744},"countryCode":"NL","name":"Bilthoven","stationCode":"BHV","uicCode":"8400114"},{"coordinate":{"lat":52.1402778625488,"lng":5.24277782440186},"countryCode":"NL","name":"Den Dolder","stationCode":"DLD","uicCode":"8400179"},{"coordinate":{"lat":52.1538887023926,"lng":5.37055540084839},"countryCode":"NL","name":"Amersfoort Centraal","stationCode":"AMF","uicCode":"8400055"},{"coordinate":{"lat":52.1748221374512,"lng":5.40388870239258},"countryCode":"NL","name":"Amersfoort Schothorst","stationCode":"AMFS","uicCode":"8400054"}],"direction":"BOTH"},"consequence":{"section":{"stations":[{"coordinate":{"lat":52.1538887023926,"lng":5.37055540084839},"countryCode":"NL","name":"Amersfoort Centraal","stationCode":"AMF","uicCode":"8400055"},{"coordinate":{"lat":52.1748221374512,"lng":5.40388870239258},"countryCode":"NL","name":"Amersfoort Schothorst","stationCode":"AMFS","uicCode":"8400054"}],"direction":"BOTH"},"description":"dienstregeling aangepast","level":"LESS_TRAINS"},"sectionType":"NL"}],"summaryAdditionalTravelTime":{"label":"U heeft geen langere reistijd.","shortLabel":"Geen extra reistijd."},"timespans":[{"start":"2024-12-14T00:50:00+0100","end":"2024-12-16T01:40:00+0100","period":"Zaterdag 14 december 0:50 uur t/m maandag 16 december 1:40 uur.","situation":{"label":"Door werkzaamheden: tussen Amsterdam Centraal en Amersfoort Centraal is de dienstregeling aangepast en tussen Schiphol Airport en Amersfoort Centraal is de dienstregeling aangepast en tussen Amersfoort Centraal en Amersfoort Schothorst is de dienstregeling aangepast."},"cause":{"label":"werkzaamheden"},"additionalTravelTime":{"label":"U heeft geen langere reistijd.","shortLabel":"Geen extra reistijd."},"advices":["Tussen Amersfoort C. en Amsterdam C./Schiphol Airport reis via Utrecht C."]}],"alternativeTransportTimespans":[]},{"type":"MAINTENANCE","id":"7005630","title":"Amsterdam - Hilversum; Utrecht - Hilversum.","isActive":false,"local":false,"titleSections":[[{"type":"STATION","value":"Amsterdam C."},{"type":"ICON","value":"MAINTENANCE"},{"type":"STATION","value":"Hilversum"}],[{"type":"STATION","value":"Utrecht C."},{"type":"ICON","value":"MAINTENANCE"},{"type":"STATION","value":"Hilversum"}]],"registrationTime":"2024-11-21T16:10:37+0100","start":"2024-12-14T01:45:00+0100","releaseTime":"2024-11-21T16:11:02+0100","end":"2024-12-15T03:50:00+0100","period":"Zaterdag 14 december 1:45 uur t/m zondag 15 december 3:50 uur.","impact":{"value":3},"publicationSections":[{"section":{"stations":[{"coordinate":{"lat":52.3788871765137,"lng":4.90027761459351},"countryCode":"NL","name":"Amsterdam Centraal","stationCode":"ASD","uicCode":"8400058"},{"coordinate":{"lat":52.3605537414551,"lng":4.93111133575439},"countryCode":"NL","name":"Amsterdam Muiderpoort","stationCode":"ASDM","uicCode":"8400060"},{"coordinate":{"lat":52.35274,"lng":4.94855},"countryCode":"NL","name":"Amsterdam Science Park","stationCode":"ASSP","uicCode":"8400235"},{"coordinate":{"lat":52.34515,"lng":4.967566},"countryCode":"NL","name":"Diemen","stationCode":"DMN","uicCode":"8400165"},{"coordinate":{"lat":52.3127784729004,"lng":5.04305553436279},"countryCode":"NL","name":"Weesp","stationCode":"WP","uicCode":"8400685"},{"coordinate":{"lat":52.2802772521973,"lng":5.15694427490234},"countryCode":"NL","name":"Naarden-Bussum","stationCode":"NDB","uicCode":"8400452"},{"coordinate":{"lat":52.2658348083496,"lng":5.16305541992188},"countryCode":"NL","name":"Bussum Zuid","stationCode":"BSMZ","uicCode":"8400145"},{"coordinate":{"lat":52.2380561828613,"lng":5.17388868331909},"countryCode":"NL","name":"Hilversum Media Park","stationCode":"HVSM","uicCode":"8400324"},{"coordinate":{"lat":52.2258338928223,"lng":5.18194437026978},"countryCode":"NL","name":"Hilversum","stationCode":"HVS","uicCode":"8400322"}],"direction":"BOTH"},"consequence":{"section":{"stations":[{"coordinate":{"lat":52.3788871765137,"lng":4.90027761459351},"countryCode":"NL","name":"Amsterdam Centraal","stationCode":"ASD","uicCode":"8400058"},{"coordinate":{"lat":52.3605537414551,"lng":4.93111133575439},"countryCode":"NL","name":"Amsterdam Muiderpoort","stationCode":"ASDM","uicCode":"8400060"},{"coordinate":{"lat":52.35274,"lng":4.94855},"countryCode":"NL","name":"Amsterdam Science Park","stationCode":"ASSP","uicCode":"8400235"},{"coordinate":{"lat":52.34515,"lng":4.967566},"countryCode":"NL","name":"Diemen","stationCode":"DMN","uicCode":"8400165"},{"coordinate":{"lat":52.3127784729004,"lng":5.04305553436279},"countryCode":"NL","name":"Weesp","stationCode":"WP","uicCode":"8400685"},{"coordinate":{"lat":52.2802772521973,"lng":5.15694427490234},"countryCode":"NL","name":"Naarden-Bussum","stationCode":"NDB","uicCode":"8400452"},{"coordinate":{"lat":52.2658348083496,"lng":5.16305541992188},"countryCode":"NL","name":"Bussum Zuid","stationCode":"BSMZ","uicCode":"8400145"},{"coordinate":{"lat":52.2380561828613,"lng":5.17388868331909},"countryCode":"NL","name":"Hilversum Media Park","stationCode":"HVSM","uicCode":"8400324"},{"coordinate":{"lat":52.2258338928223,"lng":5.18194437026978},"countryCode":"NL","name":"Hilversum","stationCode":"HVS","uicCode":"8400322"}],"direction":"BOTH"},"description":"er rijden bussen","level":"LESS_TRAINS"},"sectionType":"NL"},{"section":{"stations":[{"coordinate":{"lat":52.0888900756836,"lng":5.11027765274048},"countryCode":"NL","name":"Utrecht Centraal","stationCode":"UT","uicCode":"8400621"},{"coordinate":{"lat":52.1100006103516,"lng":5.12472200393677},"countryCode":"NL","name":"Utrecht Overvecht","stationCode":"UTO","uicCode":"8400620"},{"coordinate":{"lat":52.1777763366699,"lng":5.17916679382324},"countryCode":"NL","name":"Hollandsche Rading","stationCode":"HOR","uicCode":"8400327"},{"coordinate":{"lat":52.2161102294922,"lng":5.18722200393677},"countryCode":"NL","name":"Hilversum Sportpark","stationCode":"HVSP","uicCode":"8400570"},{"coordinate":{"lat":52.2258338928223,"lng":5.18194437026978},"countryCode":"NL","name":"Hilversum","stationCode":"HVS","uicCode":"8400322"}],"direction":"BOTH"},"consequence":{"section":{"stations":[{"coordinate":{"lat":52.0888900756836,"lng":5.11027765274048},"countryCode":"NL","name":"Utrecht Centraal","stationCode":"UT","uicCode":"8400621"},{"coordinate":{"lat":52.1100006103516,"lng":5.12472200393677},"countryCode":"NL","name":"Utrecht Overvecht","stationCode":"UTO","uicCode":"8400620"},{"coordinate":{"lat":52.1777763366699,"lng":5.17916679382324},"countryCode":"NL","name":"Hollandsche Rading","stationCode":"HOR","uicCode":"8400327"},{"coordinate":{"lat":52.2161102294922,"lng":5.18722200393677},"countryCode":"NL","name":"Hilversum Sportpark","stationCode":"HVSP","uicCode":"8400570"},{"coordinate":{"lat":52.2258338928223,"lng":5.18194437026978},"countryCode":"NL","name":"Hilversum","stationCode":"HVS","uicCode":"8400322"}],"direction":"BOTH"},"description":"er rijden bussen","level":"LESS_TRAINS"},"sectionType":"NL"}],"summaryAdditionalTravelTime":{"label":"De extra reistijd kan oplopen tot 45 minuten.","shortLabel":"Extra reistijd tot 45 min.","maximumDurationInMinutes":45},"timespans":[{"start":"2024-12-14T01:45:00+0100","end":"2024-12-15T03:50:00+0100","period":"Zaterdag 14 december 1:45 uur t/m zondag 15 december 3:50 uur.","situation":{"label":"Door werkzaamheden: tussen Amsterdam Centraal en Hilversum rijden er bussen en tussen Utrecht Centraal en Hilversum rijden er bussen."},"cause":{"label":"werkzaamheden"},"additionalTravelTime":{"label":"De extra reistijd kan oplopen tot 45 minuten.","shortLabel":"Extra reistijd tot 45 min.","maximumDurationInMinutes":45},"alternativeTransport":{"label":"er rijden bussen","shortLabel":"er rijden bussen"},"advices":[]}],"alternativeTransportTimespans":[{"start":"2024-12-14T01:45:00+0100","end":"2024-12-14T03:50:00+0100","alternativeTransport":{"location":[{"station":{"coordinate":{"lat":52.3788871765137,"lng":4.90027761459351},