[{"type":"DISRUPTION","id":"6059419","title":"Zutphen - Hengelo.","isActive":true,"topic":"disruption_6059419_nl","local":false,"titleSections":[[{"type":"STATION","value":"Zutphen"},{"type":"STATION","value":"Lochem"},{"type":"ICON","value":"DISRUPTION"},{"type":"STATION","value":"Goor"},{"type":"STATION","value":"Oldenzaal"}]],"registrationTime":"2025-10-02T06:19:05+0200","releaseTime":"2025-10-02T06:19:05+0200","start":"2025-10-02T05:58:12+0200","end":"2025-10-02T08:45:00+0200","phase":{"id":"2","label":"Impact bekend"},"impact":{"value":3},"expectedDuration":{"description":"Dit duurt tot ongeveer 8:45 uur.","endTime":"2025-10-02T08:45:00+0200"},"publicationSections":[{"section":{"stations":[{"coordinate":{"lat":52.1452789306641,"lng":6.19416666030884},"countryCode":"NL","name":"Zutphen","stationCode":"ZP","uicCode":"8400744"},{"coordinate":{"lat":52.1666679382324,"lng":6.42638874053955},"countryCode":"NL","name":"Lochem","stationCode":"LC","uicCode":"8400399"},{"coordinate":{"lat":52.2302780151367,"lng":6.58444452285767},"countryCode":"NL","name":"Goor","stationCode":"GO","uicCode":"8400254"},{"coordinate":{"lat":52.2599983215332,"lng":6.7161111831665},"countryCode":"NL","name":"Delden","stationCode":"DDN","uicCode":"8400169"},{"coordinate":{"lat":52.261667,"lng":6.767778},"countryCode":"NL","name":"Hengelo Gezondheidspark","stationCode":"HGLG","uicCode":"8400433"},{"coordinate":{"lat":52.2616653442383,"lng":6.79388904571533},"countryCode":"NL","name":"Hengelo","stationCode":"HGL","uicCode":"8400316"},{"coordinate":{"lat":52.2688903808594,"lng":6.81944465637207},"countryCode":"NL","name":"Hengelo Oost","stationCode":"HGLO","uicCode":"8400312"},{"coordinate":{"lat":52.3063888549805,"lng":6.93472242355347},"countryCode":"NL","name":"Oldenzaal","stationCode":"ODZ","uicCode":"8400483"}],"direction":"BOTH","operators":["Blauwnet"]},"consequence":{"section":{"stations":[{"coordinate":{"lat":52.1666679382324,"lng":6.42638874053955},"countryCode":"NL","name":"Lochem","stationCode":"LC","uicCode":"8400399"},{"coordinate":{"lat":52.2302780151367,"lng":6.58444452285767},"countryCode":"NL","name":"Goor","stationCode":"GO","uicCode":"8400254"}],"direction":"BOTH","operators":["Blauwnet"]},"description":"geen treinen","level":"LESS_TRAINS"},"sectionType":"NL"}],"timespans":[{"start":"2025-10-02T05:58:12+0200","end":"2025-10-02T08:45:00+0200","period":"Donderdag 2 oktober 5:58 uur t/m donderdag 2 oktober 8:45 uur.","situation":{"label":"Door een stroomstoring: tussen Lochem en Goor rijden er geen treinen."},"cause":{"label":"stroomstoring","type":"OTHER"},"advices":[]}],"alternativeTransportTimespans":[]},{"type":"DISRUPTION","id":"6059420","title":"Dordrecht - Breda.","isActive":true,"topic":"disruption_6059420_nl","local":false,"titleSections":[[{"type":"STATION","value":"Dordrecht"},{"type":"STATION","value":"Lage Zwaluwe"},{"type":"ICON","value":"DISRUPTION"},{"type":"STATION","value":"Breda"}]],"registrationTime":"2025-10-02T07:59:21+0200","releaseTime":"2025-10-02T07:59:21+0200","start":"2025-10-02T07:19:47+0200","end":"2025-10-02T08:30:00+0200","phase":{"id":"1b","label":"Gevolgen bekend"},"impact":{"value":3},"expectedDuration":{"description":"Dit duurt tot ongeveer 8:30 uur.","endTime":"2025-10-02T08:30:00+0200"},"publicationSections":[{"section":{"stations":[{"coordinate":{"lat":51.8072204589844,"lng":4.66833353042603},"countryCode":"NL","name":"Dordrecht","stationCode":"DDR","uicCode":"8400180"},{"coordinate":{"lat":51.7900009155273,"lng":4.67138910293579},"countryCode":"NL","name":"Dordrecht Zuid","stationCode":"DDZD","uicCode":"8400181"},{"coordinate":{"lat":51.6911125183105,"lng":4.66305541992188},"countryCode":"NL","name":"Lage Zwaluwe","stationCode":"ZLW","uicCode":"8400382"},{"coordinate":{"lat":51.606388092041,"lng":4.72083330154419},"countryCode":"NL","name":"Breda-Prinsenbeek","stationCode":"BDPB","uicCode":"8400132"},{"coordinate":{"lat":51.5955543518066,"lng":4.78000020980835},"countryCode":"NL","name":"Breda","stationCode":"BD","uicCode":"8400131"}],"direction":"BOTH","operators":["NS"]},"consequence":{"section":{"stations":[{"coordinate":{"lat":51.6911125183105,"lng":4.66305541992188},"countryCode":"NL","name":"Lage Zwaluwe","stationCode":"ZLW","uicCode":"8400382"},{"coordinate":{"lat":51.606388092041,"lng":4.72083330154419},"countryCode":"NL","name":"Breda-Prinsenbeek","stationCode":"BDPB","uicCode":"8400132"},{"coordinate":{"lat":51.5955543518066,"lng":4.78000020980835},"countryCode":"NL","name":"Breda","stationCode":"BD","uicCode":"8400131"}],"direction":"BOTH","operators":["NS"]},"description":"geen treinen","level":"LESS_TRAINS"},"sectionType":"NL"}],"timespans":[{"start":"2025-10-02T07:19:47+0200","end":"2025-10-02T08:30:00+0200","period":"Donderdag 2 oktober 7:19 uur t/m donderdag 2 oktober 8:30 uur.","situation":{"label":"Door inzet van de brandweer: tussen Lage Zwaluwe en Breda rijden er geen treinen."},"cause":{"label":"inzet brandweer","type":"OTHER"},"advices":[]}],"alternativeTransportTimespans":[]},{"type":"CALAMITY","id":"5e724717-23f9-493f-8588-001dc4d6a31e","title":"’s Hertogenbosch-Tilburg/Boxtel van za 4 t/m zo 19 oktober","isActive":true,"topic":"disruption_5e724717-23f9-493f-8588-001dc4d6a31e_nl","description":"Door werkzaamheden van zaterdag 4 t/m zondag 19 oktober rijden er tussen ’s Hertogenbosch en Tilburg/ Boxtel geen treinen maar bussen.","url":"https://www.ns.nl/reisinformatie/calamiteiten/s-hertogenbosch-tilburg-boxtel-van-za-4-t-m-zo-19-oktober.html","priority":"PRIO_3","lastUpdated":"2025-10-01T07:00:00+0200","bodyItems":[{"type":"TEXT","content":{"text":"<p>NS zet bussen in. Plan je reis vooraf.</p>"}}],"buttons":{"position":["TOP"],"items":[{"label":"Plan je reis","accessibilityLabel":"Plan je reis","url":"https://www.ns.nl/reisplanner/","type":"PLANNER"}]}},{"type":"MAINTENANCE","id":"7004492","title":"Groningen - Leer.","isActive":true,"local":false,"titleSections":[[{"type":"STATION","value":"Groningen"},{"type":"STATION","value":"Bad Nieuweschans"},{"type":"ICON","value":"MAINTENANCE"},{"type":"STATION","value":"Weener"},{"type":"STATION","value":"Leer (Ostfr.)"}]],"registrationTime":"2025-04-03T10:55:48+0200","start":"2024-02-01T04:00:00+0100","releaseTime":"2025-04-03T10:55:48+0200","end":"2025-12-13T23:59:00+0100","period":"Donderdag 1 februari 2024 4:00 uur t/m zaterdag 13 december 23:59 uur.","impact":{"value":3},"publicationSections":[{"section":{"stations":[{"coordinate":{"lat":53.2105560302734,"lng":6.56472206115723},"countryCode":"NL","name":"Groningen","stationCode":"GN","uicCode":"8400263"},{"coordinate":{"lat":53.20480027,"lng":6.5854178},"countryCode":"NL","name":"Groningen Europapark","stationCode":"GERP","uicCode":"8400238"},{"coordinate":{"lat":53.1617362,"lng":6.7220882},"countryCode":"NL","name":"Kropswolde","stationCode":"KW","uicCode":"8400369"},{"coordinate":{"lat":53.1607232,"lng":6.7402989},"countryCode":"NL","name":"Martenshoek","stationCode":"MTH","uicCode":"8400430"},{"coordinate":{"lat":53.1598181316756,"lng":6.77075386047363},"countryCode":"NL","name":"Hoogezand-Sappemeer","stationCode":"HGZ","uicCode":"8400331"},{"coordinate":{"lat":53.1596122800056,"lng":6.8679141998291},"countryCode":"NL","name":"Zuidbroek","stationCode":"ZB","uicCode":"8400742"},{"coordinate":{"lat":53.1655362,"lng":6.9777775},"countryCode":"NL","name":"Scheemda","stationCode":"SDA","uicCode":"8400551"},{"coordinate":{"lat":53.1392377,"lng":7.035101},"countryCode":"NL","name":"Winschoten","stationCode":"WS","uicCode":"8400696"},{"coordinate":{"lat":53.1844,"lng":7.19937},"countryCode":"NL","name":"Bad Nieuweschans","stationCode":"NSCH","uicCode":"8400457"},{"coordinate":{"lat":53.16311,"lng":7.3442},"countryCode":"D","name":"Weener","stationCode":"WR","uicCode":"8021239"},{"coordinate":{"lat":53.23165,"lng":7.465283},"countryCode":"D","name":"Leer (Ostfriesl)","stationCode":"LEER","uicCode":"8021091"}],"direction":"BOTH","operators":["Arriva"]},"consequence":{"section":{"stations":[{"coordinate":{"lat":53.1844,"lng":7.19937},"countryCode":"NL","name":"Bad Nieuweschans","stationCode":"NSCH","uicCode":"8400457"},{"coordinate":{"lat":53.16311,"lng":7.3442},"countryCode":"D","name":"Weener","stationCode":"WR","uicCode":"8021239"}],"direction":"BOTH","operators":["Arriva"]},"description":"er rijden bussen","level":"LESS_TRAINS"},"sectionType":"NEIGHBORING_COUNTRY"}],"summaryAdditionalTravelTime":{"label":"De extra reistijd kan oplopen tot 30 minuten.","shortLabel":"Extra reistijd tot 30 min.","maximumDurationInMinutes":30},"timespans":[{"start":"2024-02-01T04:00:00+0100","end":"2025-12-13T23:59:00+0100","period":"Donderdag 1 februari 2024 4:00 uur t/m zaterdag 13 december 23:59 uur.","situation":{"label":"Door een aangepaste dienstregeling: tussen Bad Nieuweschans en Weener rijden er bussen."},"cause":{"label":"aangepaste dienstregeling","type":"OTHER"},"additionalTravelTime":{"label":"De extra reistijd kan oplopen tot 30 minuten.","shortLabel":"Extra reistijd tot 30 min.","maximumDurationInMinutes":30},"alternativeTransport":{"label":"er rijden stopbussen","shortLabel":"er rijden stopbussen"},"advices":[]}],"alternativeTransportTimespans":[{"start":"2024-02-01T04:00:00+0100","end":"2025-12-13T23:59:00+0100","alternativeTransport":{"location":[{"station":{"coordinate":{"lat":53.1844,"lng":7.19937},"countryCode":"NL","name":"Bad Nieuweschans","stationCode":"NSCH","uicCode":"8400457"},"description":"vanaf de voorzijde van het station"},{"station":{"coordinate":{"lat":53.16311,"lng":7.3442},"countryCode":"D","name":"Weener","stationCode":"WR","uicCode":"8021239"},"description":"vanaf de voorzijde van het station"},{"station":{"coordinate":{"lat":53.23165,"lng":7.465283},"countryCode":"D","name":"Leer (Ostfriesl)","stationCode":"LEER","uicCode":"8021091"},"description":"vanaf het busstation"}],"label":"Er rijden stopbussen tussen Bad Nieuweschans, Weener en Leer (Ostfriesl).","shortLabel":"Er rijden stopbussen Bad Nieuweschans - Weener - Leer (Ostfr.)."}}]},{"type":"MAINTENANCE","id":"7006387","title":"Enschede - Gronau - Münster.","isActive":true,"local":false,"titleSections":[[{"type":"STATION","value":"Enschede"},{"type":"STATION","value":"Ochtrup"},{"type":"ICON","value":"MAINTENANCE"},{"type":"STATION","value":"Steinfurt-Burgst"},{"type":"STATION","value":"Münster (Westf)"}]],"registrationTime":"2025-07-19T09:04:48+0200","start":"2025-06-13T23:00:00+0200","releaseTime":"2025-07-19T09:04:48+0200","end":"2025-10-09T23:00:00+0200","period":"Vrijdag 13 juni 23:00 uur t/m donderdag 9 oktober 23:00 uur.","impact":{"value":3},"publicationSections":[{"section":{"stations":[{"coordinate":{"lat":52.2224998474121,"lng":6.8899998664856},"countryCode":"NL","name":"Enschede","stationCode":"ES","uicCode":"8400212"},{"coordinate":{"lat":52.2213897705078,"lng":6.95111131668091},"countryCode":"NL","name":"Enschede De Eschmarke","stationCode":"ESE","uicCode":"8400217"},{"coordinate":{"lat":52.2186126708984,"lng":6.97444438934326},"countryCode":"NL","name":"Glanerbrug","stationCode":"GBR","uicCode":"8400262"},{"coordinate":{"lat":52.21521,"lng":7.022109},"countryCode":"D","name":"Gronau (Westf.)","stationCode":"G","uicCode":"8021128"},{"coordinate":{"lat":52.201703,"lng":7.182643},"countryCode":"D","name":"Ochtrup","stationCode":"EOP","uicCode":"8021152"},{"coordinate":{"lat":52.162444,"lng":7.254423},"countryCode":"D","name":"Metelen Land","stationCode":"EMTE","uicCode":"8021151"},{"coordinate":{"lat":52.147384,"lng":7.32934},"countryCode":"D","name":"Steinfurt-Burgsteinfurt","stationCode":"EBFT","uicCode":"8021143"},{"coordinate":{"lat":52.118791,"lng":7.397581},"countryCode":"D","name":"Steinfurt-Borghorst","stationCode":"EBGO","uicCode":"8021150"},{"coordinate":{"lat":52.077618,"lng":7.461706},"countryCode":"D","name":"Nordwalde","stationCode":"ENOW","uicCode":"8021149"},{"coordinate":{"lat":52.05223,"lng":7.481202},"countryCode":"D","name":"Altenberge","stationCode":"EABG","uicCode":"8021148"},{"coordinate":{"lat":52.022327,"lng":7.562668},"countryCode":"D","name":"Münster-Häger","stationCode":"ENBE","uicCode":"8021147"},{"coordinate":{"lat":51.984987,"lng":7.63861},"countryCode":"D","name":"Münster (W) Zentrum Nord","stationCode":"ENHF","uicCode":"8023783"},{"coordinate":{"lat":51.956892,"lng":7.635895},"countryCode":"D","name":"Münster (Westf) Hbf","stationCode":"MUNST","uicCode":"8021011"}],"direction":"BOTH","operators":["DB"]},"consequence":{"section":{"stations":[{"coordinate":{"lat":52.201703,"lng":7.182643},"countryCode":"D","name":"Ochtrup","stationCode":"EOP","uicCode":"8021152"},{"coordinate":{"lat":52.162444,"lng":7.254423},"countryCode":"D","name":"Metelen Land","stationCode":"EMTE","uicCode":"8021151"},{"coordinate":{"lat":52.147384,"lng":7.32934},"countryCode":"D","name":"Steinfurt-Burgsteinfurt","stationCode":"EBFT","uicCode":"8021143"}],"direction":"BOTH","operators":["DB"]},"description":"er rijden bussen","level":"LESS_TRAINS"},"sectionType":"NEIGHBORING_COUNTRY"}],"summaryAdditionalTravelTime":{"label":"De extra reistijd is ongeveer 15 minuten.","shortLabel":"Extra reistijd 15 min.","minimumDurationInMinutes":15,"maximumDurationInMinutes":15},"timespans":[{"start":"2025-06-13T23:00:00+0200","end":"2025-10-09T23:00:00+0200","period":"Vrijdag 13 juni 23:00 uur t/m donderdag 9 oktober 23:00 uur.","situation":{"label":"Door werkzaamheden: tussen Ochtrup en Steinfurt-Burgsteinfurt rijden er bussen."},"cause":{"label":"werkzaamheden","type":"OTHER"},"additionalTravelTime":{"label":"De extra reistijd is ongeveer 15 minuten.","shortLabel":"Extra reistijd 15 min.","minimumDurationInMinutes":15,"maximumDurationInMinutes":15},"alternativeTransport":{"label":"maak gebruik van het vervangende vervoer","shortLabel":"gebruik het vervangende vervoer"},"advices":["Vanaf Gronau rijdt een bus via Ochtrup naar Steinfurt-Burgsteinfurt. Een taxibus rijdt van/naar Metelen Land. Raadpleeg ook zuginfo.nrw."]}],"alternativeTransportTimespans":[{"start":"2025-06-13T23:00:00+0200","end":"2025-10-09T23:00:00+0200","alternativeTransport":{"location":[{"station":{"coordinate":{"lat":52.21521,"lng":7.022109},"countryCode":"D","name":"Gronau (Westf.)","stationCode":"G","uicCode":"8021128"},"description":"volg de aanwijzingen op het station"},{"station":{"coordinate":{"lat":52.201703,"lng":7.182643},"countryCode":"D","name":"Ochtrup","stationCode":"EOP","uicCode":"8021152"},"description":"volg de aanwijzingen op het station"},{"station":{"coordinate":{"lat":52.147384,"lng":7.32934},"countryCode":"D","name":"Steinfurt-Burgsteinfurt","stationCode":"EBFT","uicCode":"8021143"},"description":"volg de aanwijzingen op het station"}],"label":"Er rijden stopbussen tussen Gronau (Westf.), Ochtrup en Steinfurt-Burgsteinfurt.","shortLabel":"Er rijden stopbussen Gronau (Westf.) - Ochtrup - Steinfurt-Burgst."}},{"start":"2025-06-13T23:00:00+0200","end":"2025-10-09T23:00:00+0200","alternativeTransport":{"location":[{"station":{"coordinate":{"lat":52.201703,"lng":7.182643},"countryCode":"D","name":"Ochtrup","stationCode":"EOP","uicCode":"8021152"},"description":"volg de aanwijzingen op het station"},{"station":{"coordinate":{"lat":52.162444,"lng":7.254423},"countryCode":"D","name":"Metelen Land","stationCode":"EMTE","uicCode":"8021151"},"description":"volg de aanwijzingen op het station"}],"label":"Er rijden taxibusjes tussen Ochtrup en Metelen Land.","shortLabel":"Er rijden taxibusjes Ochtrup - Metelen Land."}},{"start":"2025-06-13T23:00:00+0200","end":"2025-10-09T23:00:00+0200","alternativeTransport":{"location":[{"station":{"coordinate":{"lat":52.147384,"lng":7.32934},"countryCode":"D","name":"Steinfurt-Burgsteinfurt","stationCode":"EBFT","uicCode":"8021143"},"description":"volg de aanwijzingen op het station"},{"station":{"coordinate":{"lat":52.162444,"lng":7.254423},"countryCode":"D","name":"Metelen Land","stationCode":"EMTE","uicCode":"8021151"},"description":"volg de aanwijzingen op het station"}],"label":"Er rijden taxibusjes tussen Steinfurt-Burgsteinfurt en Metelen Land.","shortLabel":"Er rijden taxibusjes Steinfurt-Burgst - Metelen Land."}}]},{"type":"MAINTENANCE","id":"7006884","title":"Leiden - Den Haag; Den Haag - Rotterdam; Gouda - Den Haag.","isActive":false,"local":false,"titleSections":[[{"type":"STATION","value":"Den Haag C."},{"type":"ICON","value":"MAINTENANCE"},{"type":"STATION","value":"Den Haag HS"},{"type":"STATION","value":"Rotterdam C."}],[{"type":"STATION","value":"Gouda"},{"type":"STATION","value":"Voorburg"},{"type":"ICON","value":"MAINTENANCE"},{"type":"STATION","value":"Den Haag C."}],[{"type":"STATION","value":"Leiden C."},{"type":"STATION","value":"Laan v NOI"},{"type":"ICON","value":"MAINTENANCE"},{"type":"STATION","value":"Den Haag C."}]],"registrationTime":"2025-09-19T10:05:13+0200","start":"2025-10-03T00:45:00+0200","releaseTime":"2025-09-19T10:05:13+0200","end":"2025-10-03T05:30:00+0200","period":"Vrijdag 3 oktober 0:45 uur t/m vrijdag 3 oktober 5:30 uur.","impact":{"value":2},"publicationSections":[{"section":{"stations":[{"coordinate":{"lat":52.0802764892578,"lng":4.32499980926514},"countryCode":"NL","name":"Den Haag Centraal","stationCode":"GVC","uicCode":"8400282"},{"coordinate":{"lat":52.0697212219238,"lng":4.32250022888184},"countryCode":"NL","name":"Den Haag HS","stationCode":"GV","uicCode":"8400280"},{"coordinate":{"lat":52.0538902282715,"lng":4.3086109161377},"countryCode":"NL","name":"Den Haag Moerwijk","stationCode":"GVMW","uicCode":"8400279"},{"coordinate":{"lat":52.039722442627,"lng":4.31916666030884},"countryCode":"NL","name":"Rijswijk","stationCode":"RSW","uicCode":"8400505"},{"coordinate":{"lat":52.0066680908203,"lng":4.35638904571533},"countryCode":"NL","name":"Delft","stationCode":"DT","uicCode":"8400170"},{"coordinate":{"lat":51.9908332824707,"lng":4.36472225189209},"countryCode":"NL","name":"Delft Campus","stationCode":"DTCP","uicCode":"8400166"},{"coordinate":{"lat":51.9212438128032,"lng":4.4089937210083},"countryCode":"NL","name":"Schiedam Centrum","stationCode":"SDM","uicCode":"8400553"},{"coordinate":{"lat":51.9249992370605,"lng":4.46888875961304},"countryCode":"NL","name":"Rotterdam Centraal","stationCode":"RTD","uicCode":"8400530"}],"direction":"ONE_WAY","operators":["NS"]},"consequence":{"section":{"stations":[{"coordinate":{"lat":52.0802764892578,"lng":4.32499980926514},"countryCode":"NL","name":"Den Haag Centraal","stationCode":"GVC","uicCode":"8400282"},{"coordinate":{"lat":52.0697212219238,"lng":4.32250022888184},"countryCode":"NL","name":"Den Haag HS","stationCode":"GV","uicCode":"8400280"}],"direction":"ONE_WAY","operators":["NS"]},"description":"geen treinen","level":"LESS_TRAINS"},"sectionType":"NL"},{"section":{"stations":[{"coordinate":{"lat":52.0175018310547,"lng":4.70444440841675},"countryCode":"NL","name":"Gouda","stationCode":"GD","uicCode":"8400258"},{"coordinate":{"lat":52.042222,"lng":4.517222},"countryCode":"NL","name":"Lansingerland-Zoetermeer","stationCode":"LLZM","uicCode":"8400135"},{"coordinate":{"lat":52.0463905334473,"lng":4.49277782440186},"countryCode":"NL","name":"Zoetermeer Oost","stationCode":"ZTMO","uicCode":"8400740"},{"coordinate":{"lat":52.0475006103516,"lng":4.47722244262695},"countryCode":"NL","name":"Zoetermeer","stationCode":"ZTM","uicCode":"8400741"},{"coordinate":{"lat":52.0552787780762,"lng":4.39222240447998},"countryCode":"NL","name":"Den Haag Ypenburg","stationCode":"YPB","uicCode":"8400379"},{"coordinate":{"lat":52.0666656494141,"lng":4.3594446182251},"countryCode":"NL","name":"Voorburg","stationCode":"VB","uicCode":"8400658"},{"coordinate":{"lat":52.0802764892578,"lng":4.32499980926514},"countryCode":"NL","name":"Den Haag Centraal","stationCode":"GVC","uicCode":"8400282"}],"direction":"ONE_WAY","operators":["NS"]},"consequence":{"section":{"stations":[{"coordinate":{"lat":52.0666656494141,"lng":4.3594446182251},"countryCode":"NL","name":"Voorburg","stationCode":"VB","uicCode":"8400658"},{"coordinate":{"lat":52.0802764892578,"lng":4.32499980926514},"countryCode":"NL","name":"Den Haag Centraal","stationCode":"GVC","uicCode":"8400282"}],"direction":"ONE_WAY","operators":["NS"]},"description":"geen treinen","level":"LESS_TRAINS"},"sectionType":"NL"},{"section":{"stations":[{"coordinate":{"lat":52.1661109924316,"lng":4.48166656494141},"countryCode":"NL","name":"Leiden Centraal","stationCode":"LEDN","uicCode":"8400390"},{"coordinate":{"lat":52.1472206115723,"lng":4.4563889503479},"countryCode":"NL","name":"De Vink","stationCode":"DVNK","uicCode":"8400188"},{"coordinate":{"lat":52.1252784729004,"lng":4.43249988555908},"countryCode":"NL","name":"Voorschoten","stationCode":"VST","uicCode":"8400659"},{"coordinate":{"lat":52.0905570983887,"lng":4.36944437026978},"countryCode":"NL","name":"Den Haag Mariahoeve","stationCode":"GVM","uicCode":"8400278"},{"coordinate":{"lat":52.0786094665527,"lng":4.34277772903442},"countryCode":"NL","name":"Den Haag Laan v NOI","stationCode":"LAA","uicCode":"8400380"},{"coordinate":{"lat":52.0802764892578,"lng":4.32499980926514},"countryCode":"NL","name":"Den Haag Centraal","stationCode":"GVC","uicCode":"8400282"}],"direction":"ONE_WAY","operators":["NS"]},"consequence":{"section":{"stations":[{"coordinate":{"lat":52.0786094665527,"lng":4.34277772903442},"countryCode":"NL","name":"Den Haag Laan v NOI","stationCode":"LAA","uicCode":"8400380"},{"coordinate":{"lat":52.0802764892578,"lng":4.32499980926514},"countryCode":"NL","name":"Den Haag Centraal","stationCode":"GVC","uicCode":"8400282"}],"direction":"ONE_WAY","operators":["NS"]},"description":"geen treinen","level":"LESS_TRAINS"},"sectionType":"NL"}],"timespans":[{"start":"2025-10-03T00:45:00+0200","end":"2025-10-03T05:30:00+0200","period":"Vrijdag 3 oktober 0:45 uur t/m vrijdag 3 oktober 5:30 uur.","situation":{"label":"Door werkzaamheden: van Den Haag HS naar Den Haag Centraal rijden er geen treinen en van Voorburg naar Den Haag Centraal rijden er geen treinen en van Den Haag Laan v NOI naar Den Haag Centraal rijden er geen treinen."},"cause":{"label":"werkzaamheden","type":"OTHER"},"advices":["Laatste Sprinters naar Den Haag Centraal eindigen in Den Haag HS. Eerste Sprinters starten in Den Haag HS."]}],"alternativeTransportTimespans":[]},{"type":"MAINTENANCE","id":"7007009","title":"Hengelo - Bielefeld.","isActive":false,"local":false,"titleSections":[[{"type":"STATION","value":"Hengelo"},{"type":"ICON","value":"MAINTENANCE"},{"type":"STATION","value":"Bielefeld Hbf"}]],"registrationTime":"2025-10-01T08:56:07+0200","start":"2025-10-03T06:50:00+0200","releaseTime":"2025-10-01T08:56:07+0200","end":"2025-10-10T02:00:00+0200","period":"Vrijdag 3 oktober 6:50 uur t/m vrijdag 10 oktober 2:00 uur.","impact":{"value":4},"publicationSections":[{"section":{"stations":[{"coordinate":{"lat":52.2616653442383,"lng":6.79388904571533},"countryCode":"NL","name":"Hengelo","stationCode":"HGL","uicCode":"8400316"},{"coordinate":{"lat":52.2688903808594,"lng":6.81944465637207},"countryCode":"NL","name":"Hengelo Oost","stationCode":"HGLO","uicCode":"8400312"},{"coordinate":{"lat":52.3063888549805,"lng":6.93472242355347},"countryCode":"NL","name":"Oldenzaal","stationCode":"ODZ","uicCode":"8400483"},{"coordinate":{"lat":52.309685595156,"lng":7.15853691101074},"countryCode":"D","name":"Bad Bentheim","stationCode":"BH","uicCode":"8021156"},{"coordinate":{"lat":52.276299,"lng":7.434255},"countryCode":"D","name":"Rheine","stationCode":"RHEINE","uicCode":"8021067"},{"coordinate":{"lat":52.272851,"lng":8.061781},"countryCode":"D","name":"Osnabrück Hbf","stationCode":"OSNH","uicCode":"8021025"},{"coordinate":{"lat":52.202075,"lng":8.573876},"countryCode":"D","name":"Bünde (Westf)","stationCode":"BUENDE","uicCode":"8021173"},{"coordinate":{"lat":52.029261,"lng":8.532722},"countryCode":"D","name":"Bielefeld Hbf","stationCode":"BIELEF","uicCode":"8013597"}],"direction":"BOTH","operators":["Eurobahn"]},"consequence":{"section":{"stations":[{"coordinate":{"lat":52.2616653442383,"lng":6.79388904571533},"countryCode":"NL","name":"Hengelo","stationCode":"HGL","uicCode":"8400316"},{"coordinate":{"lat":52.2688903808594,"lng":6.81944465637207},"countryCode":"NL","name":"Hengelo Oost","stationCode":"HGLO","uicCode":"8400312"},{"coordinate":{"lat":52.3063888549805,"lng":6.93472242355347},"countryCode":"NL","name":"Oldenzaal","stationCode":"ODZ","uicCode":"8400483"},{"coordinate":{"lat":52.309685595156,"lng":7.15853691101074},"countryCode":"D","name":"Bad Bentheim","stationCode":"BH","uicCode":"8021156"},{"coordinate":{"lat":52.276299,"lng":7.434255},"countryCode":"D","name":"Rheine","stationCode":"RHEINE","uicCode":"8021067"},{"coordinate":{"lat":52.272851,"lng":8.061781},"countryCode":"D","name":"Osnabrück Hbf","stationCode":"OSNH","uicCode":"8021025"},{"coordinate":{"lat":52.202075,"lng":8.573876},"countryCode":"D","name":"Bünde (Westf)","stationCode":"BUENDE","uicCode":"8021173"},{"coordinate":{"lat":52.029261,"lng":8.532722},"countryCode":"D","name":"Bielefeld Hbf","stationCode":"BIELEF","uicCode":"8013597"}],"direction":"BOTH","operators":["Eurobahn"]},"description":"aangep. dienstregeling en businzet","level":"LESS_TRAINS"},"sectionType":"NEIGHBORING_COUNTRY"}],"summaryAdditionalTravelTime":{"label":"De extra reistijd kan oplopen tot 30 minuten.","shortLabel":"Extra reistijd tot 30 min.","maximumDurationInMinutes":30},"timespans":[{"start":"2025-10-03T06:50:00+0200","end":"2025-10-10T02:00:00+0200","period":"Vrijdag 3 oktober 6:50 uur t/m vrijdag 10 oktober 2:00 uur.","situation":{"label":"Door werkzaamheden: tussen Hengelo en Bielefeld Hbf is de dienstregeling aangepast en rijden er bussen."},"cause":{"label":"werkzaamheden","type":"OTHER"},"additionalTravelTime":{"label":"De extra reistijd kan oplopen tot 30 minuten.","shortLabel":"Extra reistijd tot 30 min.","maximumDurationInMinutes":30},"advices":["In deze periode rijden er op verschillende tijden en trajecten  bussen i.p.v. treinen. "]}],"alternativeTransportTimespans":[]},{"type":"MAINTENANCE","id":"7006798","title":"Utrecht - Woerden.","isActive":false,"local":false,"titleSections":[[{"type":"STATION","value":"Utrecht C."},{"type":"ICON","value":"MAINTENANCE"},{"type":"STATION","value":"Woerden"}]],"registrationTime":"2025-09-03T15:41:32+0200","start":"2025-10-03T21:55:00+0200","releaseTime":"2025-09-03T15:41:32+0200","end":"2025-10-04T10:15:00+0200","period":"Vrijdag 3 oktober 21:55 uur t/m zaterdag 4 oktober 10:15 uur.","impact":{"value":3},"publicationSections":[{"section":{"stations":[{"coordinate":{"lat":52.0888900756836,"lng":5.11027765274048},"countryCode":"NL","name":"Utrecht Centraal","stationCode":"UT","uicCode":"8400621"},{"coordinate":{"lat":52.09896,"lng":5.06523},"countryCode":"NL","name":"Utrecht Leidsche Rijn","stationCode":"UTLR","uicCode":"8400607"},{"coordinate":{"lat":52.1000753,"lng":5.0439547},"countryCode":"NL","name":"Utrecht Terwijde","stationCode":"UTT","uicCode":"8400614"},{"coordinate":{"lat":52.103056,"lng":5.007404},"countryCode":"NL","name":"Vleuten","stationCode":"VTN","uicCode":"8400651"},{"coordinate":{"lat":52.0849990844727,"lng":4.89361095428467},"countryCode":"NL","name":"Woerden","stationCode":"WD","uicCode":"8400702"}],"direction":"BOTH","operators":["NS"]},"consequence":{"section":{"stations":[{"coordinate":{"lat":52.0888900756836,"lng":5.11027765274048},"countryCode":"NL","name":"Utrecht Centraal","stationCode":"UT","uicCode":"8400621"},{"coordinate":{"lat":52.09896,"lng":5.06523},"countryCode":"NL","name":"Utrecht Leidsche Rijn","stationCode":"UTLR","uicCode":"8400607"},{"coordinate":{"lat":52.1000753,"lng":5.0439547},"countryCode":"NL","name":"Utrecht Terwijde","stationCode":"UTT","uicCode":"8400614"},{"coordinate":{"lat":52.103056,"lng":5.007404},"countryCode":"NL","name":"Vleuten","stationCode":"VTN","uicCode":"8400651"},{"coordinate":{"lat":52.0849990844727,"lng":4.89361095428467},"countryCode":"NL","name":"Woerden","stationCode":"WD","uicCode":"8400702"}],"direction":"BOTH","operators":["NS"]},"description":"geen Sprinters","level":"LESS_TRAINS"},"sectionType":"NL"}],"summaryAdditionalTravelTime":{"label":"De extra reistijd is ongeveer 15 minuten.","shortLabel":"Extra reistijd 15 min.","minimumDurationInMinutes":15,"maximumDurationInMinutes":15},"timespans":[{"start":"2025-10-03T21:55:00+0200","end":"2025-10-04T10:15:00+0200","period":"Vrijdag 3 oktober 21:55 uur t/m zaterdag 4 oktober 10:15 uur.","situation":{"label":"Door werkzaamheden: tussen Utrecht Centraal en Woerden rijden er geen Sprinters."},"cause":{"label":"werkzaamheden","type":"OTHER"},"additionalTravelTime":{"label":"De extra reistijd is ongeveer 15 minuten.","shortLabel":"Extra reistijd 15 min.","minimumDurationInMinutes":15,"maximumDurationInMinutes":15},"alternativeTransport":{"label":"er rijden stopbussen","shortLabel":"er rijden stopbussen"},"advices":[]}],"alternativeTransportTimespans":[{"start":"2025-10-03T21:55:00+0200","end":"2025-10-04T10:15:00+0200","alternativeTransport":{"location":[{"station":{"coordinate":{"lat":52.0888900756836,"lng":5.11027765274048},"countryCode":"NL","name":"Utrecht Centraal","stationCode":"UT","uicCode":"8400621"},"description":"vanaf de Jaarbeursplein, halte G"},{"station":{"coordinate":{"lat":52.09896,"lng":5.06523},"countryCode":"NL","name":"Utrecht Leidsche Rijn","stationCode":"UTLR","uicCode":"8400607"},"description":"vanaf het busstation"},{"station":{"coordinate":{"lat":52.1000753,"lng":5.0439547},"countryCode":"NL","name":"Utrecht Terwijde","stationCode":"UTT","uicCode":"8400614"},"description":"vanaf de bushalte"},{"station":{"coordinate":{"lat":52.0849990844727,"lng":4.89361095428467},"countryCode":"NL","name":"Woerden","stationCode":"WD","uicCode":"8400702"},"description":"vanaf het Stationsplein Zuid"}],"label":"Er rijden stopbussen tussen Utrecht Centraal, Utrecht Leidsche Rijn, Utrecht Terwijde en Woerden.","shortLabel":"Er rijden stopbussen Utrecht C. - Leidsche Rijn - Terwijde - Woerden."}}]},{"type":"MAINTENANCE","id":"7006856","title":"Zwolle - Groningen.","isActive":false,"local":false,"titleSections":[[{"type":"STATION","value":"Zwolle"},{"type":"STATION","value":"Assen"},{"type":"ICON","value":"MAINTENANCE"},{"type":"STATION","value":"Groningen"}],[{"type":"STATION","value":"Zwolle"},{"type":"ICON","value":"MAINTENANCE"},{"type":"STATION","value":"Groningen"}]],"registrationTime":"2025-09-09T15:22:40+0200","start":"2025-10-03T22:30:00+0200","releaseTime":"2025-09-09T15:22:40+0200","end":"2025-10-04T07:00:00+0200","period":"Vrijdag 3 oktober 22:30 uur t/m zaterdag 4 oktober 7:00 uur.","impact":{"value":3},"publicationSections":[{"section":{"stations":[{"coordinate":{"lat":52.5047225952148,"lng":6.09194421768188},"countryCode":"NL","name":"Zwolle","stationCode":"ZL","uicCode":"8400747"},{"coordinate":{"lat":52.6908340454102,"lng":6.19750022888184},"countryCode":"NL","name":"Meppel","stationCode":"MP","uicCode":"8400435"},{"coordinate":{"lat":52.7338905334473,"lng":6.47361087799072},"countryCode":"NL","name":"Hoogeveen","stationCode":"HGV","uicCode":"8400330"},{"coordinate":{"lat":52.8547210693359,"lng":6.52111101150513},"countryCode":"NL","name":"Beilen","stationCode":"BL","uicCode":"8400100"},{"coordinate":{"lat":52.9916648864746,"lng":6.57083320617676},"countryCode":"NL","name":"Assen","stationCode":"ASN","uicCode":"8400073"},{"coordinate":{"lat":53.1761093139648,"lng":6.61722230911255},"countryCode":"NL","name":"Haren","stationCode":"HRN","uicCode":"8400297"},{"coordinate":{"lat":53.20480027,"lng":6.5854178},"countryCode":"NL","name":"Groningen Europapark","stationCode":"GERP","uicCode":"8400238"},{"coordinate":{"lat":53.2105560302734,"lng":6.56472206115723},"countryCode":"NL","name":"Groningen","stationCode":"GN","uicCode":"8400263"}],"direction":"BOTH","operators":["NS"]},"consequence":{"section":{"stations":[{"coordinate":{"lat":52.9916648864746,"lng":6.57083320617676},"countryCode":"NL","name":"Assen","stationCode":"ASN","uicCode":"8400073"},{"coordinate":{"lat":53.1761093139648,"lng":6.61722230911255},"countryCode":"NL","name":"Haren","stationCode":"HRN","uicCode":"8400297"},{"coordinate":{"lat":53.20480027,"lng":6.5854178},"countryCode":"NL","name":"Groningen Europapark","stationCode":"GERP","uicCode":"8400238"},{"coordinate":{"lat":53.2105560302734,"lng":6.56472206115723},"countryCode":"NL","name":"Groningen","stationCode":"GN","uicCode":"8400263"}],"direction":"BOTH","operators":["NS"]},"description":"er rijden bussen","level":"LESS_TRAINS"},"sectionType":"NL"},{"section":{"stations":[{"coordinate":{"lat":52.5047225952148,"lng":6.09194421768188},"countryCode":"NL","name":"Zwolle","stationCode":"ZL","uicCode":"8400747"},{"coordinate":{"lat":52.6908340454102,"lng":6.19750022888184},"countryCode":"NL","name":"Meppel","stationCode":"MP","uicCode":"8400435"},{"coordinate":{"lat":52.7338905334473,"lng":6.47361087799072},"countryCode":"NL","name":"Hoogeveen","stationCode":"HGV","uicCode":"8400330"},{"coordinate":{"lat":52.8547210693359,"lng":6.52111101150513},"countryCode":"NL","name":"Beilen","stationCode":"BL","uicCode":"8400100"},{"coordinate":{"lat":52.9916648864746,"lng":6.57083320617676},"countryCode":"NL","name":"Assen","stationCode":"ASN","uicCode":"8400073"},{"coordinate":{"lat":53.1761093139648,"lng":6.61722230911255},"countryCode":"NL","name":"Haren","stationCode":"HRN","uicCode":"8400297"},{"coordinate":{"lat":53.20480027,"lng":6.5854178},"countryCode":"NL","name":"Groningen Europapark","stationCode":"GERP","uicCode":"8400238"},{"coordinate":{"lat":53.2105560302734,"lng":6.56472206115723},"countryCode":"NL","name":"Groningen","stationCode":"GN","uicCode":"8400263"}],"direction":"BOTH","operators":["NS"]},"consequence":{"section":{"stations":[{"coordinate":{"lat":52.5047225952148,"lng":6.09194421768188},"countryCode":"NL","name":"Zwolle","stationCode":"ZL","uicCode":"8400747"},{"coordinate":{"lat":52.6908340454102,"lng":6.19750022888184},"countryCode":"NL","name":"Meppel","stationCode":"MP","uicCode":"8400435"},{"coordinate":{"lat":52.7338905334473,"lng":6.47361087799072},"countryCode":"NL","name":"Hoogeveen","stationCode":"HGV","uicCode":"8400330"},{"coordinate":{"lat":52.8547210693359,"lng":6.52111101150513},"countryCode":"NL","name":"Beilen","stationCode":"BL","uicCode":"8400100"},{"coordinate":{"lat":52.9916648864746,"lng":6.57083320617676},"countryCode":"NL","name":"Assen","stationCode":"ASN","uicCode":"8400073"},{"coordinate":{"lat":53.1761093139648,"lng":6.61722230911255},"countryCode":"NL","name":"Haren","stationCode":"HRN","uicCode":"8400297"},{"coordinate":{"lat":53.20480027,"lng":6.5854178},"countryCode":"NL","name":"Groningen Europapark","stationCode":"GERP","uicCode":"8400238"},{"coordinate":{"lat":53.2105560302734,"lng":6.56472206115723},"countryCode":"NL","name":"Groningen","stationCode":"GN","uicCode":"8400263"}],"direction":"BOTH","operators":["NS"]},"description":"er rijden bussen","level":"LESS_TRAINS"},"sectionType":"NL"}],"summaryAdditionalTravelTime":{"label":"De extra reistijd kan oplopen tot 45 minuten.","shortLabel":"Extra reistijd tot 45 min.","minimumDurationInMinutes":45,"maximumDurationInMinutes":45},"timespans":[{"start":"2025-10-03T22:30:00+0200","end":"2025-10-04T01:00:00+0200","period":"Vrijdag 3 oktober 22:30 uur t/m zaterdag 4 oktober 1:00 uur.","situation":{"label":"Door werkzaamheden: tussen Assen en Groningen rijden er bussen."},"cause":{"label":"werkzaamheden","type":"OTHER"},"additionalTravelTime":{"label":"De extra reistijd is ongeveer 45 minuten.","shortLabel":"Extra reistijd 45 min.","minimumDurationInMinutes":45,"maximumDurationInMinutes":45},"alternativeTransport":{"label":"er rijden stop- en snelbussen","shortLabel":"er rijden stop- en snelbussen"},"advices":[]},{"start":"2025-10-04T01:01:00+0200","end":"2025-10-04T07:00:00+0200","period":"Zaterdag 4 oktober 1:01 uur t/m zaterdag 4 oktober 7:00 uur.","situation":{"label":"Door werkzaamheden: tussen Zwolle en Groningen rijden er bussen."},"cause":{"label":"werkzaamheden","type":"OTHER"},"additionalTravelTime":{"label":"De extra reistijd is ongeveer 45 minuten.","shortLabel":"Extra reistijd 45 min.","minimumDurationInMinutes":45,"maximumDurationInMinutes":45},"alternativeTransport":{"label":"er rijden stop- en snelbussen","shortLabel":"er rijden stop- en snelbussen"},"advices":[]}],"alternativeTransportTimespans":[{"start":"2025-10-03T22:30:00+0200","end":"2025-10-04T01:00:00+0200","alternativeTransport":{"location":[{"station":{"coordinate":{"lat":52.9916648864746,"lng":6.57083320617676},"countryCode":"NL","name":"Assen","stationCode":"ASN","uicCode":"8400073"},"description":"vanaf het busstation"},{"station":{"coordinate":{"lat":53.1761093139648,"lng":6.61722230911255},"countryCode":"NL","name":"Haren","stationCode":"HRN","uicCode":"8400297"},"description":"vanaf de doorgaande weg"},{"station":{"coordinate":{"lat":53.20480027,"lng":6.5854178},"countryCode":"NL","name":"Groningen Europapark","stationCode":"GERP","uicCode":"8400238"},"description":"vanaf de bushalte"},{"station":{"coordinate":{"lat":53.2105560302734,"lng":6.56472206115723},"countryCode":"NL","name":"Groningen","stationCode":"GN","uicCode":"8400263"},"description":"vanaf de voorzijde van het station"}],"label":"Er rijden stopbussen tussen Assen, Haren, Groningen Europapark en Groningen.","shortLabel":"Er rijden stopbussen Assen - Haren - Europapark - Groningen."}},{"start":"2025-10-03T22:30:00+0200","end":"2025-10-04T01:00:00+0200","alternativeTransport":{"location":[{"station":{"coordinate":{"lat":52.9916648864746,"lng":6.57083320617676},"countryCode":"NL","name":"Assen","stationCode":"ASN","uicCode":"8400073"},"description":"vanaf het busstation"},{"station":{"coordinate":{"lat":53.2105560302734,"lng":6.56472206115723},"countryCode":"NL","name":"Groningen","stationCode":"GN","uicCode":"8400263"},"description":"vanaf de voorzijde van het station"}],"label":"Er rijden snelbussen tussen Assen en Groningen.","shortLabel":"Er rijden snelbussen Assen - Groningen."}},{"start":"2025-10-04T01:01:00+0200","end":"2025-10-04T03:10:00+0200","alternativeTransport":{"location":[{"station":{"coordinate":{"lat":52.6908340454102,"lng":6.19750022888184},"countryCode":"NL","name":"Meppel","stationCode":"MP","uicCode":"8400435"},"description":"vanaf de voorzijde van het station"},{"station":{"coordinate":{"lat":52.7338905334473,"lng":6.47361087799072},"countryCode":"NL","name":"Hoogeveen","stationCode":"HGV","uicCode":"8400330"},"description":"vanaf de voorzijde van het station"},{"station":{"coordinate":{"lat":52.8547210693359,"lng":6.52111101150513},"countryCode":"NL","name":"Beilen","stationCode":"BL","uicCode":"8400100"},"description":"vanaf de voorzijde van het station"},{"station":{"coordinate":{"lat":52.9916648864746,"lng":6.57083320617676},"countryCode":"NL","name":"Assen","stationCode":"ASN","uicCode":"8400073"},"description":"vanaf het busstation"},{"station":{"coordinate":{"lat":53.1761093139648,"lng":6.61722230911255},"countryCode":"NL","name":"Haren","stationCode":"HRN","uicCode":"8400297"},"description":"vanaf de doorgaande weg"},{"station":{"coordinate":{"lat":53.20480027,"lng":6.5854178},"countryCode":"NL","name":"Groningen Europapark","stationCode":"GERP","uicCode":"8400238"},"description":"vanaf de bushalte"},{"station":{"coordinate":{"lat":53.2105560302734,"lng":6.56472206115723},"countryCode":"NL","name":"Groningen","stationCode":"GN","uicCode":"8400263"},"description":"volg de aanwijzingen op het station"}],"label":"Er rijden stopbussen van Meppel, Hoogeveen, Beilen, Assen, Haren, Groningen Europapark naar Groningen.","shortLabel":"Er rijden stopbussen Meppel -> Hoogeveen -> Beilen -> Assen -> Haren -> Europapark -> Groningen."}},{"start":"2025-10-04T01:01:00+0200","end":"2025-10-04T03:10:00+0200","alternativeTransport":{"location":[{"station":{"coordinate":{"lat":52.5047225952148,"lng":6.09194421768188},"countryCode":"NL","name":"Zwolle","stationCode":"ZL","uicCode":"8400747"},"description":"vanaf de Hanzelaan, aan de zuidzijde van het station"},{"station":{"coordinate":{"lat":52.6908340454102,"lng":6.19750022888184},"countryCode":"NL","name":"Meppel","stationCode":"MP","uicCode":"8400435"},"description":"vanaf de voorzijde van het station"},{"station":{"coordinate":{"lat":52.9916648864746,"lng":6.57083320617676},"countryCode":"NL","name":"Assen","stationCode":"ASN","uicCode":"8400073"},"description":"vanaf het busstation"},{"station":{"coordinate":{"lat":53.2105560302734,"lng":6.56472206115723},"countryCode":"NL","name":"Groningen","stationCode":"GN","uicCode":"8400263"},"description":"volg de aanwijzingen op het station"}],"label":"Er rijden snelbussen van Zwolle, Meppel, Assen naar Groningen.","shortLabel":"Er rijden snelbussen Zwolle -> Meppel -> Assen -> Groningen."}},{"start":"2025-10-04T01:30:00+0200","end":"2025-10-04T04:05:00+0200","alternativeTransport":{"location":[{"station":{"coordinate":{"lat":52.5047225952148,"lng":6.09194421768188},"countryCode":"NL","name":"Zwolle","stationCode":"ZL","uicCode":"8400747"},"description":"vanaf de Hanzelaan, aan de zuidzijde van het station"},{"station":{"coordinate":{"lat":52.6908340454102,"lng":6.19750022888184},"countryCode":"NL","name":"Meppel","stationCode":"MP","uicCode":"8400435"},"description":"vanaf de voorzijde van het station"},{"station":{"coordinate":{"lat":52.7338905334473,"lng":6.47361087799072},"countryCode":"NL","name":"Hoogeveen","stationCode":"HGV","uicCode":"8400330"},"description":"vanaf de voorzijde van het station"},{"station":{"coordinate":{"lat":52.8547210693359,"lng":6.52111101150513},"countryCode":"NL","name":"Beilen","stationCode":"BL","uicCode":"8400100"},"description":"vanaf de voorzijde van het station"},{"station":{"coordinate":{"lat":52.9916648864746,"lng":6.57083320617676},"countryCode":"NL","name":"Assen","stationCode":"ASN","uicCode":"8400073"},"description":"vanaf het busstation"},{"station":{"coordinate":{"lat":53.1761093139648,"lng":6.61722230911255},"countryCode":"NL","name":"Haren","stationCode":"HRN","uicCode":"8400297"},"description":"vanaf de doorgaande weg"},{"station":{"coordinate":{"lat":53.20480027,"lng":6.5854178},"countryCode":"NL","name":"Groningen Europapark","stationCode":"GERP","uicCode":"8400238"},"description":"vanaf de voorzijde van het station"},{"station":{"coordinate":{"lat":53.2105560302734,"lng":6.56472206115723},"countryCode":"NL","name":"Groningen","stationCode":"GN","uicCode":"8400263"},"description":"volg de aanwijzingen op het station"}],"label":"Er rijden stopbussen van Zwolle, Meppel, Hoogeveen, Beilen, Assen, Haren, Groningen Europapark naar Groningen.","shortLabel":"Er rijden stopbussen Zwolle -> Meppel -> Hoogeveen -> Beilen -> Assen -> Haren -> Europapark -> Groningen."}},{"start":"2025-10-04T06:00:00+0200","end":"2025-10-04T07:00:00+0200","alternativeTransport":{"location":[{"station":{"coordinate":{"lat":52.9916648864746,"lng":6.57083320617676},"countryCode":"NL","name":"Assen","stationCode":"ASN","uicCode":"8400073"},"description":"vanaf het busstation"},{"station":{"coordinate":{"lat":53.2105560302734,"lng":6.56472206115723},"countryCode":"NL","name":"Groningen","stationCode":"GN","uicCode":"8400263"},"description":"volg de aanwijzingen op het station"}],"label":"Er rijden snelbussen van Assen naar Groningen.","shortLabel":"Er rijden snelbussen Assen -> Groningen."}},{"start":"2025-10-04T06:00:00+0200","end":"2025-10-04T07:00:00+0200","alternativeTransport":{"location":[{"station":{"coordinate":{"lat":53.2105560302734,"lng":6.56472206115723},"countryCode":"NL","name":"Groningen","stationCode":"GN","uicCode":"8400263"},"description":"vanaf de voorzijde van het station"},{"station":{"coordinate":{"lat":52.9916648864746,"lng":6.57083320617676},"countryCode":"NL","name":"Assen","stationCode":"ASN","uicCode":"8400073"},"description":"volg de aanwijzingen op het station"}],"label":"Er rijden stopbussen tussen Groningen en Assen.","shortLabel":"Er rijden stopbussen Groningen - Assen."}}]},{"type":"MAINTENANCE","id":"7006779","title":"Groningen - Bad Nieuweschans; Groningen - Veendam; Groningen - Leer.","isActive":false,"local":false,"titleSections":[[{"type":"STATION","value":"Groningen"},{"type":"ICON","value":"MAINTENANCE"},{"type":"STATION","value":"Europapark"},{"type":"STATION","value":"Bad Nieuweschans"}],[{"type":"STATION","value":"Groningen"},{"type":"ICON","value":"MAINTENANCE"},{"type":"STATION","value":"Europapark"},{"type":"STATION","value":"Veendam"}],[{"type":"STATION","value":"Groningen"},{"type":"ICON","value":"MAINTENANCE"},{"type":"STATION","value":"Europapark"},{"type":"STATION","value":"Leer (Ostfr.)"}]],"registrationTime":"2025-09-22T09:09:46+0200","start":"2025-10-03T23:00:00+0200","releaseTime":"2025-09-22T09:09:46+0200","end":"2025-10-04T07:00:00+0200","period":"Vrijdag 3 oktober 23:00 uur t/m zaterdag 4 oktober 7:00 uur.","impact":{"value":3},"publicationSections":[{"section":{"stations":[{"coordinate":{"lat":53.2105560302734,"lng":6.56472206115723},"countryCode":"NL","name":"Groningen","stationCode":"GN","uicCode":"8400263"},{"coordinate":{"lat":53.20480027,"lng":6.5854178},"countryCode":"NL","name":"Groningen Europapark","stationCode":"GERP","uicCode":"8400238"},{"coordinate":{"lat":53.1617362,"lng":6.7220882},"countryCode":"NL","name":"Kropswolde","stationCode":"KW","uicCode":"8400369"},{"coordinate":{"lat":53.1607232,"lng":6.7402989},"countryCode":"NL","name":"Martenshoek","stationCode":"MTH","uicCode":"8400430"},{"coordinate":{"lat":53.1598181316756,"lng":6.77075386047363},"countryCode":"NL","name":"Hoogezand-Sappemeer","stationCode":"HGZ","uicCode":"8400331"},{"coordinate":{"lat":53.1596122800056,"lng":6.8679141998291},"countryCode":"NL","name":"Zuidbroek","stationCode":"ZB","uicCode":"8400742"},{"coordinate":{"lat":53.1655362,"lng":6.9777775},"countryCode":"NL","name":"Scheemda","stationCode":"SDA","uicCode":"8400551"},{"coordinate":{"lat":53.1392377,"lng":7.035101},"countryCode":"NL","name":"Winschoten","stationCode":"WS","uicCode":"8400696"},{"coordinate":{"lat":53.1844,"lng":7.19937},"countryCode":"NL","name":"Bad Nieuweschans","stationCode":"NSCH","uicCode":"8400457"}],"direction":"BOTH","operators":["Arriva"]},"consequence":{"section":{"stations":[{"coordinate":{"lat":53.2105560302734,"lng":6.56472206115723},"countryCode":"NL","name":"Groningen","stationCode":"GN","uicCode":"8400263"},{"coordinate":{"lat":53.20480027,"lng":6.5854178},"countryCode":"NL","name":"Groningen Europapark","stationCode":"GERP","uicCode":"8400238"}],"direction":"BOTH","operators":["Arriva"]},"description":"dienstregeling aangepast","level":"LESS_TRAINS"},"sectionType":"NL"},{"section":{"stations":[{"coordinate":{"lat":53.2105560302734,"lng":6.56472206115723},"countryCode":"NL","name":"Groningen","stationCode":"GN","uicCode":"8400263"},{"coordinate":{"lat":53.20480027,"lng":6.5854178},"countryCode":"NL","name":"Groningen Europapark","stationCode":"GERP","uicCode":"8400238"},{"coordinate":{"lat":53.1617362,"lng":6.7220882},"countryCode":"NL","name":"Kropswolde","stationCode":"KW","uicCode":"8400369"},{"coordinate":{"lat":53.1607232,"lng":6.7402989},"countryCode":"NL","name":"Martenshoek","stationCode":"MTH","uicCode":"8400430"},{"coordinate":{"lat":53.1598181316756,"lng":6.77075386047363},"countryCode":"NL","name":"Hoogezand-Sappemeer","stationCode":"HGZ","uicCode":"8400331"},{"coordinate":{"lat":53.1596122800056,"lng":6.8679141998291},"countryCode":"NL","name":"Zuidbroek","stationCode":"ZB","uicCode":"8400742"},{"coordinate":{"lat":53.10324,"lng":6.88475},"countryCode":"NL","name":"Veendam","stationCode":"VDM","uicCode":"8400636"}],"direction":"BOTH","operators":["Arriva"]},"consequence":{"section":{"stations":[{"coordinate":{"lat":53.2105560302734,"lng":6.56472206115723},"countryCode":"NL","name":"Groningen","stationCode":"GN","uicCode":"8400263"},{"coordinate":{"lat":53.20480027,"lng":6.5854178},"countryCode":"NL","name":"Groningen Europapark","stationCode":"GERP","uicCode":"8400238"}],"direction":"BOTH","operators":["Arriva"]},"description":"dienstregeling aangepast","level":"LESS_TRAINS"},"sectionType":"NL"},{"section":{"stations":[{"coordinate":{"lat":53.2105560302734,"lng":6.56472206115723},"countryCode":"NL","name":"Groningen","stationCode":"GN","uicCode":"8400263"},{"coordinate":{"lat":53.20480027,"lng":6.5854178},"countryCode":"NL","name":"Groningen Europapark","stationCode":"GERP","uicCode":"8400238"},{"coordinate":{"lat":53.1617362,"lng":6.7220882},"countryCode":"NL","name":"Kropswolde","stationCode":"KW","uicCode":"8400369"},{"coordinate":{"lat":53.1607232,"lng":6.7402989},"countryCode":"NL","name":"Martenshoek","stationCode":"MTH","uicCode":"8400430"},{"coordinate":{"lat":53.1598181316756,"lng":6.77075386047363},"countryCode":"NL","name":"Hoogezand-Sappemeer","stationCode":"HGZ","uicCode":"8400331"},{"coordinate":{"lat":53.1596122800056,"lng":6.8679141998291},"countryCode":"NL","name":"Zuidbroek","stationCode":"ZB","uicCode":"8400742"},{"coordinate":{"lat":53.1655362,"lng":6.9777775},"countryCode":"NL","name":"Scheemda","stationCode":"SDA","uicCode":"8400551"},{"coordinate":{"lat":53.1392377,"lng":7.035101},"countryCode":"NL","name":"Winschoten","stationCode":"WS","uicCode":"8400696"},{"coordinate":{"lat":53.1844,"lng":7.19937},"countryCode":"NL","name":"Bad Nieuweschans","stationCode":"NSCH","uicCode":"8400457"},{"coordinate":{"lat":53.16311,"lng":7.3442},"countryCode":"D","name":"Weener","stationCode":"WR","uicCode":"8021239"},{"coordinate":{"lat":53.23165,"lng":7.465283},"countryCode":"D","name":"Leer (Ostfriesl)","stationCode":"LEER","uicCode":"8021091"}],"direction":"BOTH","operators":["Arriva"]},"consequence":{"section":{"stations":[{"coordinate":{"lat":53.2105560302734,"lng":6.56472206115723},"countryCode":"NL","name":"Groningen","stationCode":"GN","uicCode":"8400263"},{"coordinate":{"lat":53.20480027,"lng":6.5854178},"countryCode":"NL","name":"Groningen Europapark","stationCode":"GERP","uicCode":"8400238"}],"direction":"BOTH","operators":["Arriva"]},"description":"dienstregeling aangepast","level":"LESS_TRAINS"},"sectionType":"NEIGHBORING_COUNTRY"}],"summaryAdditionalTravelTime":{"label":"De extra reistijd kan oplopen tot 15 minuten.","shortLabel":"Extra reistijd tot 15 min.","maximumDurationInMinutes":15},"timespans":[{"start":"2025-10-03T23:00:00+0200","end":"2025-10-04T07:00:00+0200","period":"Vrijdag 3 oktober 23:00 uur t/m zaterdag 4 oktober 7:00 uur.","situation":{"label":"Door werkzaamheden: tussen Groningen en Groningen Europapark is de dienstregeling aangepast."},"cause":{"label":"werkzaamheden","type":"OTHER"},"additionalTravelTime":{"label":"De extra reistijd kan oplopen tot 15 minuten.","shortLabel":"Extra reistijd tot 15 min.","maximumDurationInMinutes":15},"advices":[]}],"alternativeTransportTimespans":[]},{"type":"MAINTENANCE","id":"7006715","title":"'s-Hertogenbosch - Eindhoven; 's-Hertogenbosch - Tilburg.; Utrecht - 's-Hertogenbosch; 's-Hertogenbosch - Tilburg; 's-Hertogenbosch - Oss.","isActive":false,"local":false,"titleSections":[[{"type":"STATION","value":"'s-Hertogenbosch"},{"type":"ICON","value":"MAINTENANCE"},{"type":"STATION","value":"Boxtel"},{"type":"STATION","value":"Eindhoven C."}],[{"type":"STATION","value":"'s-Hertogenbosch"},{"type":"ICON","value":"MAINTENANCE"},{"type":"STATION","value":"Tilburg"}],[{"type":"STATION","value":"Utrecht C."},{"type":"STATION","value":"Geldermalsen"},{"type":"ICON","value":"MAINTENANCE"},{"type":"STATION","value":"'s-Hertogenbosch"}],[{"type":"STATION","value":"'s-Hertogenbosch"},{"type":"ICON","value":"MAINTENANCE"},{"type":"STATION","value":"Oss"}]],"registrationTime":"2025-09-25T11:31:57+0200","start":"2025-10-04T00:55:54+0200","releaseTime":"2025-09-25T11:31:57+0200","end":"2025-10-20T02:00:34+0200","period":"Zaterdag 4 oktober 0:55 uur t/m maandag 20 oktober 2:00 uur.","impact":{"value":5},"publicationSections":[{"section":{"stations":[{"coordinate":{"lat":51.69048,"lng":5.29362},"countryCode":"NL","name":"'s-Hertogenbosch","stationCode":"HT","uicCode":"8400319"},{"coordinate":{"lat":51.6555557250977,"lng":5.29194450378418},"countryCode":"NL","name":"Vught","stationCode":"VG","uicCode":"8400667"},{"coordinate":{"lat":51.58433,"lng":5.31912},"countryCode":"NL","name":"Boxtel","stationCode":"BTL","uicCode":"8400129"},{"coordinate":{"lat":51.5099983215332,"lng":5.38916683197022},"countryCode":"NL","name":"Best","stationCode":"BET","uicCode":"8400112"},{"coordinate":{"lat":51.4511108398438,"lng":5.45583343505859},"countryCode":"NL","name":"Eindhoven Strijp-S","stationCode":"EHS","uicCode":"8400196"},{"coordinate":{"lat":51.4433326721191,"lng":5.48138904571533},"countryCode":"NL","name":"Eindhoven Centraal","stationCode":"EHV","uicCode":"8400206"}],"direction":"BOTH","operators":["NS"]},"consequence":{"section":{"stations":[{"coordinate":{"lat":51.69048,"lng":5.29362},"countryCode":"NL","name":"'s-Hertogenbosch","stationCode":"HT","uicCode":"8400319"},{"coordinate":{"lat":51.6555557250977,"lng":5.29194450378418},"countryCode":"NL","name":"Vught","stationCode":"VG","uicCode":"8400667"},{"coordinate":{"lat":51.58433,"lng":5.31912},"countryCode":"NL","name":"Boxtel","stationCode":"BTL","uicCode":"8400129"}],"direction":"BOTH","operators":["NS"]},"description":"er rijden bussen","level":"LESS_TRAINS"},"sectionType":"NL"},{"section":{"stations":[{"coordinate":{"lat":51.69048,"lng":5.29362},"countryCode":"NL","name":"'s-Hertogenbosch","stationCode":"HT","uicCode":"8400319"},{"coordinate":{"lat":51.5605545043945,"lng":5.08361101150513},"countryCode":"NL","name":"Tilburg","stationCode":"TB","uicCode":"8400597"}],"direction":"BOTH","operators":["NS"]},"consequence":{"section":{"stations":[{"coordinate":{"lat":51.69048,"lng":5.29362},"countryCode":"NL","name":"'s-Hertogenbosch","stationCode":"HT","uicCode":"8400319"},{"coordinate":{"lat":51.5605545043945,"lng":5.08361101150513},"countryCode":"NL","name":"Tilburg","stationCode":"TB","uicCode":"8400597"}],"direction":"BOTH","operators":["NS"]},"description":"er rijden bussen","level":"LESS_TRAINS"},"sectionType":"NL"},{"section":{"stations":[{"coordinate":{"lat":52.0888900756836,"lng":5.11027765274048},"countryCode":"NL","name":"Utrecht Centraal","stationCode":"UT","uicCode":"8400621"},{"coordinate":{"lat":52.078889,"lng":5.121667},"countryCode":"NL","name":"Utrecht Vaartsche Rijn","stationCode":"UTVR","uicCode":"8400606"},{"coordinate":{"lat":52.0655555725098,"lng":5.14416646957397},"countryCode":"NL","name":"Utrecht Lunetten","stationCode":"UTLN","uicCode":"8400623"},{"coordinate":{"lat":52.03402,"lng":5.16821},"countryCode":"NL","name":"Houten","stationCode":"HTN","uicCode":"8400340"},{"coordinate":{"lat":52.01701,"lng":5.17949},"countryCode":"NL","name":"Houten Castellum","stationCode":"HTNC","uicCode":"8400335"},{"coordinate":{"lat":51.9466667175293,"lng":5.22694444656372},"countryCode":"NL","name":"Culemborg","stationCode":"CL","uicCode":"8400154"},{"coordinate":{"lat":51.88301,"lng":5.27127},"countryCode":"NL","name":"Geldermalsen","stationCode":"GDM","uicCode":"8400244"},{"coordinate":{"lat":51.8088874816895,"lng":5.26333332061768},"countryCode":"NL","name":"Zaltbommel","stationCode":"ZBM","uicCode":"8400732"},{"coordinate":{"lat":51.69048,"lng":5.29362},"countryCode":"NL","name":"'s-Hertogenbosch","stationCode":"HT","uicCode":"8400319"}],"direction":"BOTH","operators":["NS"]},"consequence":{"section":{"stations":[{"coordinate":{"lat":51.88301,"lng":5.27127},"countryCode":"NL","name":"Geldermalsen","stationCode":"GDM","uicCode":"8400244"},{"coordinate":{"lat":51.8088874816895,"lng":5.26333332061768},"countryCode":"NL","name":"Zaltbommel","stationCode":"ZBM","uicCode":"8400732"},{"coordinate":{"lat":51.69048,"lng":5.29362},"countryCode":"NL","name":"'s-Hertogenbosch","stationCode":"HT","uicCode":"8400319"}],"direction":"BOTH","operators":["NS"]},"description":"er rijden bussen","level":"LESS_TRAINS"},"sectionType":"NL"},{"section":{"stations":[{"coordinate":{"lat":51.69048,"lng":5.29362},"countryCode":"NL","name":"'s-Hertogenbosch","stationCode":"HT","uicCode":"8400319"},{"coordinate":{"lat":51.700553894043,"lng":5.3183331489563},"countryCode":"NL","name":"'s-Hertogenbosch Oost","stationCode":"HTO","uicCode":"8400320"},{"coordinate":{"lat":51.7147216796875,"lng":5.36805534362793},"countryCode":"NL","name":"Rosmalen","stationCode":"RS","uicCode":"8400524"},{"coordinate":{"lat":51.758056640625,"lng":5.50555562973022},"countryCode":"NL","name":"Oss West","stationCode":"OW","uicCode":"8400496"},{"coordinate":{"lat":51.7655563354492,"lng":5.53222227096558},"countryCode":"NL","name":"Oss","stationCode":"O","uicCode":"8400495"}],"direction":"BOTH","operators":["NS"]},"consequence":{"section":{"stations":[{"coordinate":{"lat":51.69048,"lng":5.29362},"countryCode":"NL","name":"'s-Hertogenbosch","stationCode":"HT","uicCode":"8400319"},{"coordinate":{"lat":51.700553894043,"lng":5.3183331489563},"countryCode":"NL","name":"'s-Hertogenbosch Oost","stationCode":"HTO","uicCode":"8400320"},{"coordinate":{"lat":51.7147216796875,"lng":5.36805534362793},"countryCode":"NL","name":"Rosmalen","stationCode":"RS","uicCode":"8400524"},{"coordinate":{"lat":51.758056640625,"lng":5.50555562973022},"countryCode":"NL","name":"Oss West","stationCode":"OW","uicCode":"8400496"},{"coordinate":{"lat":51.7655563354492,"lng":5.53222227096558},"countryCode":"NL","name":"Oss","stationCode":"O","uicCode":"8400495"}],"direction":"BOTH","operators":["NS"]},"description":"er rijden bussen","level":"LESS_TRAINS"},"sectionType":"NL"}],"summaryAdditionalTravelTime":{"label":"De extra reistijd kan oplopen tot 30 minuten.","shortLabel":"Extra reistijd tot 30 min.","maximumDurationInMinutes":30},"timespans":[{"start":"2025-10-04T00:55:54+0200","end":"2025-10-10T20:15:00+0200","period":"Zaterdag 4 oktober 0:55 uur t/m vrijdag 10 oktober 20:15 uur.","situation":{"label":"Door werkzaamheden: tussen 's-Hertogenbosch en Boxtel rijden er bussen en tussen 's-Hertogenbosch en Tilburg rijden er bussen."},"cause":{"label":"werkzaamheden","type":"OTHER"},"additionalTravelTime":{"label":"De extra reistijd kan oplopen tot 30 minuten.","shortLabel":"Extra reistijd tot 30 min.","maximumDurationInMinutes":30},"alternativeTransport":{"label":"er rijden stop- en snelbussen","shortLabel":"er rijden stop- en snelbussen"},"advices":["Vermijd drukte tussen 07:30-09:00 uur en 17:00-18:00 uur. Er rijdt beperkt een extra intercity Heerlen - Eindhoven-Rotterdam C. - Breda- Utrecht C.","Tussen Utrecht C. en Eindhoven C. reis via Rotterdam C."]},{"start":"2025-10-10T20:16:00+0200","end":"2025-10-12T04:00:53+0200","period":"Vrijdag 10 oktober 20:16 uur t/m zondag 12 oktober 4:00 uur.","situation":{"label":"Door werkzaamheden: tussen 's-Hertogenbosch en Tilburg rijden er bussen en tussen 's-Hertogenbosch en Boxtel rijden er bussen en tussen Geldermalsen en 's-Hertogenbosch rijden er bussen en tussen 's-Hertogenbosch en Oss rijden er bussen."},"cause":{"label":"werkzaamheden","type":"OTHER"},"additionalTravelTime":{"label":"De extra reistijd is ongeveer 30 minuten.","shortLabel":"Extra reistijd 30 min.","minimumDurationInMinutes":30,"maximumDurationInMinutes":30},"alternativeTransport":{"label":"er rijden stop- en snelbussen","shortLabel":"er rijden stop- en snelbussen"},"advices":["Geen treinverkeer van en naar 's-Hertogenbosch.","Tussen Utrecht C. en Eindhoven C. reis via Rotterdam C."]},{"start":"2025-10-12T04:01:17+0200","end":"2025-10-20T02:00:34+0200","period":"Zondag 12 oktober 4:01 uur t/m maandag 20 oktober 2:00 uur.","situation":{"label":"Door werkzaamheden: tussen 's-Hertogenbosch en Boxtel rijden er bussen en tussen 's-Hertogenbosch en Tilburg rijden er bussen."},"cause":{"label":"werkzaamheden","type":"OTHER"},"additionalTravelTime":{"label":"De extra reistijd is ongeveer 30 minuten.","shortLabel":"Extra reistijd 30 min.","minimumDurationInMinutes":30,"maximumDurationInMinutes":30},"alternativeTransport":{"label":"er rijden stop- en snelbussen","shortLabel":"er rijden stop- en snelbussen"},"advices":["Vermijd drukte tussen 07:30-09:00 uur en 17:00-18:00 uur.","Tussen Utrecht C. en Eindhoven C. reis via Rotterdam C."]}],"alternativeTransportTimespans":[{"start":"2025-10-04T00:55:54+0200","end":"2025-10-10T20:15:00+0200","alternativeTransport":{"location":[{"station":{"coordinate":{"lat":51.69048,"lng":5.29362},"countryCode":"NL","name":"'s-Hertogenbosch","stationCode":"HT","uicCode":"8400319"},"description":"vanaf de Magistratenlaan aan de achterzijde van het station"},{"station":{"coordinate":{"lat":51.5605545043945,"lng":5.08361101150513},"countryCode":"NL","name":"Tilburg","stationCode":"TB","uicCode":"8400597"},"description":"vanaf het P3 terrein"}],"label":"Er rijden snelbussen tussen 's-Hertogenbosch en Tilburg.","shortLabel":"Er rijden snelbussen 's-Hertogenbosch - Tilburg."}},{"start":"2025-10-04T00:55:54+0200","end":"2025-10-10T20:15:00+0200","alternativeTransport":{"location":[{"station":{"coordinate":{"lat":51.69048,"lng":5.29362},"countryCode":"NL","name":"'s-Hertogenbosch","stationCode":"HT","uicCode":"8400319"},"description":"vanaf de Magistratenlaan aan de achterzijde van het station"},{"station":{"coordinate":{"lat":51.6555557250977,"lng":5.29194450378418},"countryCode":"NL","name":"Vught","stationCode":"VG","uicCode":"8400667"},"description":"vanaf de OV-halte Secr. Van Rooijstraat"},{"station":{"coordinate":{"lat":51.58433,"lng":5.31912},"countryCode":"NL","name":"Boxtel","stationCode":"BTL","uicCode":"8400129"},"description":"vanaf de NS bushalte aan de van Salmstraat"}],"label":"Er rijden stopbussen tussen 's-Hertogenbosch, Vught en Boxtel.","shortLabel":"Er rijden stopbussen 's-Hertogenbosch - Vught - Boxtel."}},{"start":"2025-10-04T00:55:54+0200","end":"2025-10-10T20:15:00+0200","alternativeTransport":{"location":[{"station":{"coordinate":{"lat":51.69048,"lng":5.29362},"countryCode":"NL","name":"'s-Hertogenbosch","stationCode":"HT","uicCode":"8400319"},"description":"vanaf de Magistratenlaan aan de achterzijde van het station"},{"station":{"coordinate":{"lat":51.58433,"lng":5.31912},"countryCode":"NL","name":"Boxtel","stationCode":"BTL","uicCode":"8400129"},"description":"vanaf de NS bushalte aan de van Salmstraat"}],"label":"Er rijden snelbussen tussen 's-Hertogenbosch en Boxtel.","shortLabel":"Er rijden snelbussen 's-Hertogenbosch - Boxtel."}},{"start":"2025-10-04T00:56:00+0200","end":"2025-10-04T01:35:00+0200","alternativeTransport":{"location":[{"station":{"coordinate":{"lat":51.69048,"lng":5.29362},"countryCode":"NL","name":"'s-Hertogenbosch","stationCode":"HT","uicCode":"8400319"},"description":"vanaf de Magistratenlaan aan de achterzijde van het station"},{"station":{"coordinate":{"lat":51.4433326721191,"lng":5.48138904571533},"countryCode":"NL","name":"Eindhoven Centraal","stationCode":"EHV","uicCode":"8400206"},"description":"vanaf de achterzijde van het station"}],"label":"Er rijden snelbussen tussen 's-Hertogenbosch en Eindhoven Centraal.","shortLabel":"Er rijden snelbussen 's-Hertogenbosch - Eindhoven C."}},{"start":"2025-10-04T00:56:00+0200","end":"2025-10-04T01:35:00+0200","alternativeTransport":{"location":[{"station":{"coordinate":{"lat":51.69048,"lng":5.29362},"countryCode":"NL","name":"'s-Hertogenbosch","stationCode":"HT","uicCode":"8400319"},"description":"vanaf de Magistratenlaan aan de achterzijde van het station"},{"station":{"coordinate":{"lat":51.5605545043945,"lng":5.08361101150513},"countryCode":"NL","name":"Tilburg","stationCode":"TB","uicCode":"8400597"},"description":"vanaf het P3 terrein"}],"label":"Er rijden snelbussen tussen 's-Hertogenbosch en Tilburg.","shortLabel":"Er rijden snelbussen 's-Hertogenbosch - Tilburg."}},{"start":"2025-10-05T00:20:00+0200","end":"2025-10-05T01:35:00+0200","alternativeTransport":{"location":[{"station":{"coordinate":{"lat":51.69048,"lng":5.29362},"countryCode":"NL","name":"'s-Hertogenbosch","stationCode":"HT","uicCode":"8400319"},"description":"vanaf de Magistratenlaan aan de achterzijde van het station"},{"station":{"coordinate":{"lat":51.4433326721191,"lng":5.48138904571533},"countryCode":"NL","name":"Eindhoven Centraal","stationCode":"EHV","uicCode":"8400206"},"description":"vanaf de achterzijde van het station"}],"label":"Er rijden snelbussen tussen 's-Hertogenbosch en Eindhoven Centraal.","shortLabel":"Er rijden snelbussen 's-Hertogenbosch - Eindhoven C."}},{"start":"2025-10-05T00:20:00+0200","end":"2025-10-05T01:35:00+0200","alternativeTransport":{"location":[{"station":{"coordinate":{"lat":51.69048,"lng":5.29362},"countryCode":"NL","name":"'s-Hertogenbosch","stationCode":"HT","uicCode":"8400319"},"description":"vanaf de Magistratenlaan aan de achterzijde van het station"},{"station":{"coordinate":{"lat":51.5605545043945,"lng":5.08361101150513},"countryCode":"NL","name":"Tilburg","stationCode":"TB","uicCode":"8400597"},"description":"vanaf het P3 terrein"}],"label":"Er rijden snelbussen tussen 's-Hertogenbosch en Tilburg.","shortLabel":"Er rijden snelbussen 's-Hertogenbosch - Tilburg."}},{"start":"2025-10-10T20:16:00+0200","end":"2025-10-12T04:00:53+0200","alternativeTransport":{"location":[{"station":{"coordinate":{"lat":51.88301,"lng":5.27127},"countryCode":"NL","name":"Geldermalsen","stationCode":"GDM","uicCode":"8400244"},"description":"vanaf de bushalte"},{"station":{"coordinate":{"lat":51.69048,"lng":5.29362},"countryCode":"NL","name":"'s-Hertogenbosch","stationCode":"HT","uicCode":"8400319"},"description":"vanaf de Magistratenlaan aan de achterzijde van het station"},{"station":{"coordinate":{"lat":51.58433,"lng":5.31912},"countryCode":"NL","name":"Boxtel","stationCode":"BTL","uicCode":"8400129"},"description":"vanaf de NS bushalte aan de van Salmstraat"}],"label":"Er rijden snelbussen tussen Geldermalsen, 's-Hertogenbosch en Boxtel.","shortLabel":"Er rijden snelbussen Geldermalsen - 's-Hertogenbosch - Boxtel."}},{"start":"2025-10-10T20:16:00+0200","end":"2025-10-12T04:00:53+0200","alternativeTransport":{"location":[{"station":{"coordinate":{"lat":51.7655563354492,"lng":5.53222227096558},"countryCode":"NL","name":"Oss","stationCode":"O","uicCode":"8400495"},"description":"vanaf de voorzijde van het station"},{"station":{"coordinate":{"lat":51.69048,"lng":5.29362},"countryCode":"NL","name":"'s-Hertogenbosch","stationCode":"HT","uicCode":"8400319"},"description":"vanaf de Magistratenlaan aan de achterzijde van het station"},{"station":{"coordinate":{"lat":51.5605545043945,"lng":5.08361101150513},"countryCode":"NL","name":"Tilburg","stationCode":"TB","uicCode":"8400597"},"description":"vanaf het P3 terrein"}],"label":"Er rijden snelbussen tussen Oss, 's-Hertogenbosch en Tilburg.","shortLabel":"Er rijden snelbussen Oss - 's-Hertogenbosch - Tilburg."}},{"start":"2025-10-10T20:16:00+0200","end":"2025-10-12T04:00:53+0200","alternativeTransport":{"location":[{"station":{"coordinate":{"lat":51.88301,"lng":5.27127},"countryCode":"NL","name":"Geldermalsen","stationCode":"GDM","uicCode":"8400244"},"description":"vanaf de bushalte"},{"station":{"coordinate":{"lat":51.8088874816895,"lng":5.26333332061768},"countryCode":"NL","name":"Zaltbommel","stationCode":"ZBM","uicCode":"8400732"},"description":"vanaf de voorzijde van het station"},{"station":{"coordinate":{"lat":51.69048,"lng":5.29362},"countryCode":"NL","name":"'s-Hertogenbosch","stationCode":"HT","uicCode":"8400319"},"description":"vanaf de Magistratenlaan aan de achterzijde van het station"},{"station":{"coordinate":{"lat":51.6555557250977,"lng":5.29194450378418},"countryCode":"NL","name":"Vught","stationCode":"VG","uicCode":"8400667"},"description":"vanaf de OV-halte Secr. Van Rooijstraat"},{"station":{"coordinate":{"lat":51.58433,"lng":5.31912},"countryCode":"NL","name":"Boxtel","stationCode":"BTL","uicCode":"8400129"},"description":"vanaf de NS bushalte aan de van Salmstraat"}],"label":"Er rijden stopbussen tussen Geldermalsen, Zaltbommel, 's-Hertogenbosch, Vught en Boxtel.","shortLabel":"Er rijden stopbussen Geldermalsen - Zaltbommel - 's-Hertogenbosch - Vught - Boxtel."}},{"start":"2025-10-10T20:16:00+0200","end":"2025-10-12T04:00:53+0200","alternativeTransport":{"location":[{"station":{"coordinate":{"lat":51.7655563354492,"lng":5.53222227096558},"countryCode":"NL","name":"Oss","stationCode":"O","uicCode":"8400495"},"description":"vanaf de voorzijde van het station"},{"station":{"coordinate":{"lat":51.758056640625,"lng":5.50555562973022},"countryCode":"NL","name":"Oss West","stationCode":"OW","uicCode":"8400496"},"description":"vanaf de voorzijde van het station"},{"station":{"coordinate":{"lat":51.7147216796875,"lng":5.36805534362793},"countryCode":"NL","name":"Rosmalen","stationCode":"RS","uicCode":"8400524"},"description":"vanaf de OV halte aan de Deken van Roestellaan"},{"station":{"coordinate":{"lat":51.700553894043,"lng":5.3183331489563},"countryCode":"NL","name":"'s-Hertogenbosch Oost","stationCode":"HTO","uicCode":"8400320"},"description":"vanaf de bushalte"},{"station":{"coordinate":{"lat":51.69048,"lng":5.29362},"countryCode":"NL","name":"'s-Hertogenbosch","stationCode":"HT","uicCode":"8400319"},"description":"vanaf de Magistratenlaan aan de achterzijde van het station"},{"station":{"coordinate":{"lat":51.5605545043945,"lng":5.08361101150513},"countryCode":"NL","name":"Tilburg","stationCode":"TB","uicCode":"8400597"},"description":"vanaf het P3 terrein"}],"label":"Er rijden stopbussen tussen Oss, Oss West, Rosmalen, 's-Hertogenbosch Oost, 's-Hertogenbosch en Tilburg.","shortLabel":"Er rijden stopbussen Oss - Oss West - Rosmalen - 's-Hertogenb. O. - 's-Hertogenbosch - Tilburg."}},{"start":"2025-10-11T00:20:00+0200","end":"2025-10-11T02:10:00+0200","alternativeTransport":{"location":[{"station":{"coordinate":{"lat":52.0888900756836,"lng":5.11027765274048},"countryCode":"NL","name":"Utrecht Centraal","stationCode":"UT","uicCode":"8400621"},"description":"vanaf de Jaarbeursplein, halte G"},{"station":{"coordinate":{"lat":51.69048,"lng":5.29362},"countryCode":"NL","name":"'s-Hertogenbosch","stationCode":"HT","uicCode":"8400319"},"description":"vanaf de Magistratenlaan aan de achterzijde van het station"},{"station":{"coordinate":{"lat":51.4433326721191,"lng":5.48138904571533},"countryCode":"NL","name":"Eindhoven Centraal","stationCode":"EHV","uicCode":"8400206"},"description":"vanaf de achterzijde van het station"}],"label":"Er rijden snelbussen tussen Utrecht Centraal, 's-Hertogenbosch en Eindhoven Centraal.","shortLabel":"Er rijden snelbussen Utrecht C. - 's-Hertogenbosch - Eindhoven C."}},{"start":"2025-10-11T00:20:00+0200","end":"2025-10-11T02:10:00+0200","alternativeTransport":{"location":[{"station":{"coordinate":{"lat":51.69048,"lng":5.29362},"countryCode":"NL","name":"'s-Hertogenbosch","stationCode":"HT","uicCode":"8400319"},"description":"vanaf de Magistratenlaan aan de achterzijde van het station"},{"station":{"coordinate":{"lat":51.5605545043945,"lng":5.08361101150513},"countryCode":"NL","name":"Tilburg","stationCode":"TB","uicCode":"8400597"},"description":"vanaf het P3 terrein"}],"label":"Er rijden snelbussen tussen 's-Hertogenbosch en Tilburg.","shortLabel":"Er rijden snelbussen 's-Hertogenbosch - Tilburg."}},{"start":"2025-10-12T00:20:00+0200","end":"2025-10-12T02:10:00+0200","alternativeTransport":{"location":[{"station":{"coordinate":{"lat":52.0888900756836,"lng":5.11027765274048},"countryCode":"NL","name":"Utrecht Centraal","stationCode":"UT","uicCode":"8400621"},"description":"vanaf de Jaarbeursplein, halte G"},{"station":{"coordinate":{"lat":51.69048,"lng":5.29362},"countryCode":"NL","name":"'s-Hertogenbosch","stationCode":"HT","uicCode":"8400319"},"description":"vanaf de Magistratenlaan aan de achterzijde van het station"},{"station":{"coordinate":{"lat":51.4433326721191,"lng":5.48138904571533},"countryCode":"NL","name":"Eindhoven Centraal","stationCode":"EHV","uicCode":"8400206"},"description":"vanaf de achterzijde van het station"}],"label":"Er rijden snelbussen tussen Utrecht Centraal, 's-Hertogenbosch en Eindhoven Centraal.","shortLabel":"Er rijden snelbussen Utrecht C. - 's-Hertogenbosch - Eindhoven C."}},{"start":"2025-10-12T00:20:00+0200","end":"2025-10-12T02:10:00+0200","alternativeTransport":{"location":[{"station":{"coordinate":{"lat":51.69048,"lng":5.29362},"countryCode":"NL","name":"'s-Hertogenbosch","stationCode":"HT","uicCode":"8400319"},"description":"vanaf de Magistratenlaan aan de achterzijde van het station"},{"station":{"coordinate":{"lat":51.5605545043945,"lng":5.08361101150513},"countryCode":"NL","name":"Tilburg","stationCode":"TB","uicCode":"8400597"},"description":"vanaf het P3 terrein"}],"label":"Er rijden snelbussen tussen 's-Hertogenbosch en Tilburg.","shortLabel":"Er rijden snelbussen 's-Hertogenbosch - Tilburg."}},{"start":"2025-10-12T04:01:17+0200","end":"2025-10-20T02:00:34+0200","alternativeTransport":{"location":[{"station":{"coordinate":{"lat":51.69048,"lng":5.29362},"countryCode":"NL","name":"'s-Hertogenbosch","stationCode":"HT","uicCode":"8400319"},"description":"vanaf de Magistratenlaan aan de achterzijde van het station"},{"station":{"coordinate":{"lat":51.5605545043945,"lng":5.08361101150513},"countryCode":"NL","name":"Tilburg","stationCode":"TB","uicCode":"8400597"},"description":"vanaf het P3 terrein"}],"label":"Er rijden snelbussen tussen 's-Hertogenbosch en Tilburg.","shortLabel":"Er rijden snelbussen 's-Hertogenbosch - Tilburg."}},{"start":"2025-10-12T04:01:17+0200","end":"2025-10-20T02:00:34+0200","alternativeTransport":{"location":[{"station":{"coordinate":{"lat":51.69048,"lng":5.29362},"countryCode":"NL","name":"'s-Hertogenbosch","stationCode":"HT","uicCode":"8400319"},"description":"vanaf de Magistratenlaan aan de achterzijde van het station"},{"station":{"coordinate":{"lat":51.6555557250977,"lng":5.29194450378418},"countryCode":"NL","name":"Vught","stationCode":"VG","uicCode":"8400667"},"description":"vanaf de OV-halte Secr. Van Rooijstraat"},{"station":{"coordinate":{"lat":51.58433,"lng":5.31912},"countryCode":"NL","name":"Boxtel","stationCode":"BTL","uicCode":"8400129"},"description":"vanaf de NS bushalte aan de van Salmstraat"}],"label":"Er rijden stopbussen tussen 's-Hertogenbosch, Vught en Boxtel.","shortLabel":"Er rijden stopbussen 's-Hertogenbosch - Vught - Boxtel."}},{"start":"2025-10-12T04:01:17+0200","end":"2025-10-20T02:00:34+0200","alternativeTransport":{"location":[{"station":{"coordinate":{"lat":51.69048,"lng":5.29362},"countryCode":"NL","name":"'s-Hertogenbosch","stationCode":"HT","uicCode":"8400319"},"description":"vanaf de Magistratenlaan aan de achterzijde van het station"},{"station":{"coordinate":{"lat":51.58433,"lng":5.31912},"countryCode":"NL","name":"Boxtel","stationCode":"BTL","uicCode":"8400129"},"description":"vanaf de NS bushalte aan de van Salmstraat"}],"label":"Er rijden snelbussen tussen 's-Hertogenbosch en Boxtel.","shortLabel":"Er rijden snelbussen 's-Hertogenbosch - Boxtel."}},{"start":"2025-10-18T00:56:00+0200","end":"2025-10-18T01:35:00+0200","alternativeTransport":{"location":[{"station":{"coordinate":{"lat":51.69048,"lng":5.29362},"countryCode":"NL","name":"'s-Hertogenbosch","stationCode":"HT","uicCode":"8400319"},"description":"vanaf de Magistratenlaan aan de achterzijde van het station"},{"station":{"coordinate":{"lat":51.4433326721191,"lng":5.48138904571533},"countryCode":"NL","name":"Eindhoven Centraal","stationCode":"EHV","uicCode":"8400206"},"description":"vanaf de achterzijde van het station"}],"label":"Er rijden snelbussen tussen 's-Hertogenbosch en Eindhoven Centraal.","shortLabel":"Er rijden snelbussen 's-Hertogenbosch - Eindhoven C."}},{"start":"2025-10-19T00:20:00+0200","end":"2025-10-19T01:35:00+0200","alternativeTransport":{"location":[{"station":{"coordinate":{"lat":51.69048,"lng":5.29362},"countryCode":"NL","name":"'s-Hertogenbosch","stationCode":"HT","uicCode":"8400319"},"description":"vanaf de Magistratenlaan aan de achterzijde van het station"},{"station":{"coordinate":{"lat":51.4433326721191,"lng":5.48138904571533},"countryCode":"NL","name":"Eindhoven Centraal","stationCode":"EHV","uicCode":"8400206"},"description":"vanaf de achterzijde van het station"}],"label":"Er rijden snelbussen tussen 's-Hertogenbosch en Eindhoven Centraal.","shortLabel":"Er rijden snelbussen 's-Hertogenbosch - Eindhoven C."}},{"start":"2025-10-19T00:20:00+0200","end":"2025-10-19T01:35:00+0200","alternativeTransport":{"location":[{"station":{"coordinate":{"lat":51.69048,"lng":5.29362},"countryCode":"NL","name":"'s-Hertogenbosch","stationCode":"HT","uicCode":"8400319"},"description":"vanaf de Magistratenlaan aan de achterzijde van het station"},{"station":{"coordinate":{"lat":51.5605545043945,"lng":5.08361101150513},"countryCode":"NL","name":"Tilburg","stationCode":"TB","uicCode":"8400597"},"description":"vanaf het P3 terrein"}],"label":"Er rijden snelbussen tussen 's-Hertogenbosch en Tilburg.","shortLabel":"Er rijden snelbussen 's-Hertogenbosch - Tilburg."}}]},{"type":"MAINTENANCE","id":"7006855","title":"Amersfoort - Deventer.","isActive":false,"local":false,"titleSections":[[{"type":"STATION","value":"Amersfoort C."},{"type":"ICON","value":"MAINTENANCE"},{"type":"STATION","value":"Deventer"}]],"registrationTime":"2025-09-09T15:05:08+0200","start":"2025-10-04T01:00:00+0200","releaseTime":"2025-09-09T15:05:08+0200","end":"2025-10-04T02:30:00+0200","period":"Zaterdag 4 oktober 1:00 uur t/m zaterdag 4 oktober 2:30 uur.","impact":{"value":3},"publicationSections":[{"section":{"stations":[{"coordinate":{"lat":52.1538887023926,"lng":5.37055540084839},"countryCode":"NL","name":"Amersfoort Centraal","stationCode":"AMF","uicCode":"8400055"},{"coordinate":{"lat":52.16652,"lng":5.45718},"countryCode":"NL","name":"Hoevelaken","stationCode":"HVL","uicCode":"8400490"},{"coordinate":{"lat":52.2091674804687,"lng":5.97027778625488},"countryCode":"NL","name":"Apeldoorn","stationCode":"APD","uicCode":"8400066"},{"coordinate":{"lat":52.2152786254883,"lng":6.00444459915161},"countryCode":"NL","name":"Apeldoorn Osseveld","stationCode":"APDO","uicCode":"8400229"},{"coordinate":{"lat":52.2377777099609,"lng":6.09861087799072},"countryCode":"NL","name":"Twello","stationCode":"TWL","uicCode":"8400599"},{"coordinate":{"lat":52.2574996948242,"lng":6.16055536270142},"countryCode":"NL","name":"Deventer","stationCode":"DV","uicCode":"8400173"}],"direction":"ONE_WAY","operators":["NS"]},"consequence":{"section":{"stations":[{"coordinate":{"lat":52.1538887023926,"lng":5.37055540084839},"countryCode":"NL","name":"Amersfoort Centraal","stationCode":"AMF","uicCode":"8400055"},{"coordinate":{"lat":52.16652,"lng":5.45718},"countryCode":"NL","name":"Hoevelaken","stationCode":"HVL","uicCode":"8400490"},{"coordinate":{"lat":52.2091674804687,"lng":5.97027778625488},"countryCode":"NL","name":"Apeldoorn","stationCode":"APD","uicCode":"8400066"},{"coordinate":{"lat":52.2152786254883,"lng":6.00444459915161},"countryCode":"NL","name":"Apeldoorn Osseveld","stationCode":"APDO","uicCode":"8400229"},{"coordinate":{"lat":52.2377777099609,"lng":6.09861087799072},"countryCode":"NL","name":"Twello","stationCode":"TWL","uicCode":"8400599"},{"coordinate":{"lat":52.2574996948242,"lng":6.16055536270142},"countryCode":"NL","name":"Deventer","stationCode":"DV","uicCode":"8400173"}],"direction":"ONE_WAY","operators":["NS"]},"description":"er rijden bussen","level":"LESS_TRAINS"},"sectionType":"NL"}],"summaryAdditionalTravelTime":{"label":"De extra reistijd is ongeveer 45 minuten.","shortLabel":"Extra reistijd 45 min.","minimumDurationInMinutes":45,"maximumDurationInMinutes":45},"timespans":[{"start":"2025-10-04T01:00:00+0200","end":"2025-10-04T02:30:00+0200","period":"Zaterdag 4 oktober 1:00 uur t/m zaterdag 4 oktober 2:30 uur.","situation":{"label":"Door werkzaamheden: van Amersfoort Centraal naar Deventer rijden er bussen."},"cause":{"label":"werkzaamheden","type":"OTHER"},"additionalTravelTime":{"label":"De extra reistijd is ongeveer 45 minuten.","shortLabel":"Extra reistijd 45 min.","minimumDurationInMinutes":45,"maximumDurationInMinutes":45},"alternativeTransport":{"label":"er rijden snelbussen","shortLabel":"er rijden snelbussen"},"advices":[]}],"alternativeTransportTimespans":[{"start":"2025-10-04T01:00:00+0200","end":"2025-10-04T02:30:00+0200","alternativeTransport":{"location":[{"station":{"coordinate":{"lat":52.1538887023926,"lng":5.37055540084839},"countryCode":"NL","name":"Amersfoort Centraal","stationCode":"AMF","uicCode":"8400055"},"description":"vanaf het busstation, centrumzijde"},{"station":{"coordinate":{"lat":52.2091674804687,"lng":5.97027778625488},"countryCode":"NL","name":"Apeldoorn","stationCode":"APD","uicCode":"8400066"},"description":"vanaf de voorzijde van het station"},{"station":{"coordinate":{"lat":52.2574996948242,"lng":6.16055536270142},"countryCode":"NL","name":"Deventer","stationCode":"DV","uicCode":"8400173"},"description":"volg de aanwijzingen op het station"}],"label":"Er rijden snelbussen van Amersfoort Centraal, Apeldoorn naar Deventer.","shortLabel":"Er rijden snelbussen Amersfoort C. -> Apeldoorn -> Deventer."}}]},{"type":"MAINTENANCE","id":"7006780","title":"Groningen - Delfzijl.","isActive":false,"local":false,"titleSections":[[{"type":"STATION","value":"Groningen"},{"type":"STATION","value":"Stedum"},{"type":"ICON","value":"MAINTENANCE"},{"type":"STATION","value":"Delfzijl"}]],"registrationTime":"2025-09-02T08:40:26+0200","start":"2025-10-04T01:20:48+0200","releaseTime":"2025-09-02T08:41:09+0200","end":"2025-10-09T05:20:16+0200","period":"Zaterdag 4 oktober 1:20 uur t/m donderdag 9 oktober 5:20 uur.","impact":{"value":3},"publicationSections":[{"section":{"stations":[{"coordinate":{"lat":53.2105560302734,"lng":6.56472206115723},"countryCode":"NL","name":"Groningen","stationCode":"GN","uicCode":"8400263"},{"coordinate":{"lat":53.2301469,"lng":6.5563172},"countryCode":"NL","name":"Groningen Noord","stationCode":"GNN","uicCode":"8400264"},{"coordinate":{"lat":53.29113,"lng":6.5404},"countryCode":"NL","name":"Sauwerd","stationCode":"SWD","uicCode":"8400547"},{"coordinate":{"lat":53.3068857,"lng":6.593054},"countryCode":"NL","name":"Bedum","stationCode":"BDM","uicCode":"8400094"},{"coordinate":{"lat":53.3262092,"lng":6.6875551},"countryCode":"NL","name":"Stedum","stationCode":"STM","uicCode":"8400576"},{"coordinate":{"lat":53.3347145,"lng":6.7472625},"countryCode":"NL","name":"Loppersum","stationCode":"LP","uicCode":"8400403"},{"coordinate":{"lat":53.3258135,"lng":6.8619577},"countryCode":"NL","name":"Appingedam","stationCode":"APG","uicCode":"8400067"},{"coordinate":{"lat":53.3320834,"lng":6.9069092},"countryCode":"NL","name":"Delfzijl West","stationCode":"DZW","uicCode":"8400175"},{"coordinate":{"lat":53.3336625,"lng":6.9240797},"countryCode":"NL","name":"Delfzijl","stationCode":"DZ","uicCode":"8400171"}],"direction":"BOTH","operators":["Arriva"]},"consequence":{"section":{"stations":[{"coordinate":{"lat":53.3262092,"lng":6.6875551},"countryCode":"NL","name":"Stedum","stationCode":"STM","uicCode":"8400576"},{"coordinate":{"lat":53.3347145,"lng":6.7472625},"countryCode":"NL","name":"Loppersum","stationCode":"LP","uicCode":"8400403"},{"coordinate":{"lat":53.3258135,"lng":6.8619577},"countryCode":"NL","name":"Appingedam","stationCode":"APG","uicCode":"8400067"},{"coordinate":{"lat":53.3320834,"lng":6.9069092},"countryCode":"NL","name":"Delfzijl West","stationCode":"DZW","uicCode":"8400175"},{"coordinate":{"lat":53.3336625,"lng":6.9240797},"countryCode":"NL","name":"Delfzijl","stationCode":"DZ","uicCode":"8400171"}],"direction":"BOTH","operators":["Arriva"]},"description":"er rijden bussen","level":"LESS_TRAINS"},"sectionType":"NL"}],"summaryAdditionalTravelTime":{"label":"De extra reistijd kan oplopen tot 30 minuten.","shortLabel":"Extra reistijd tot 30 min.","maximumDurationInMinutes":30},"timespans":[{"start":"2025-10-04T01:20:48+0200","end":"2025-10-09T05:20:16+0200","period":"Zaterdag 4 oktober 1:20 uur t/m donderdag 9 oktober 5:20 uur.","situation":{"label":"Door werkzaamheden: tussen Stedum en Delfzijl rijden er bussen."},"cause":{"label":"werkzaamheden","type":"OTHER"},"additionalTravelTime":{"label":"De extra reistijd kan oplopen tot 30 minuten.","shortLabel":"Extra reistijd tot 30 min.","maximumDurationInMinutes":30},"alternativeTransport":{"label":"er rijden stopbussen","shortLabel":"er rijden stopbussen"},"advices":[]}],"alternativeTransportTimespans":[{"start":"2025-10-04T01:20:48+0200","end":"2025-10-09T05:20:16+0200","alternativeTransport":{"location":[{"station":{"coordinate":{"lat":53.3262092,"lng":6.6875551},"countryCode":"NL","name":"Stedum","stationCode":"STM","uicCode":"8400576"},"description":"vanaf de voorzijde van het station"},{"station":{"coordinate":{"lat":53.3347145,"lng":6.7472625},"countryCode":"NL","name":"Loppersum","stationCode":"LP","uicCode":"8400403"},"description":"vanaf het busstation"},{"station":{"coordinate":{"lat":53.3258135,"lng":6.8619577},"countryCode":"NL","name":"Appingedam","stationCode":"APG","uicCode":"8400067"},"description":"vanaf het busstation"},{"station":{"coordinate":{"lat":53.3320834,"lng":6.9069092},"countryCode":"NL","name":"Delfzijl West","stationCode":"DZW","uicCode":"8400175"},"description":"vanaf de bushalte"},{"station":{"coordinate":{"lat":53.3336625,"lng":6.9240797},"countryCode":"NL","name":"Delfzijl","stationCode":"DZ","uicCode":"8400171"},"description":"vanaf het busstation"}],"label":"Er rijden stopbussen tussen Stedum, Loppersum, Appingedam, Delfzijl West en Delfzijl.","shortLabel":"Er rijden stopbussen Stedum - Loppersum - Appingedam - Delfzijl West - Delfzijl."}}]},{"type":"MAINTENANCE","id":"7006797","title":"Groningen - Bad Nieuweschans; Groningen - Leer.","isActive":false,"local":false,"titleSections":[[{"type":"STATION","value":"Groningen"},{"type":"STATION","value":"Winschoten"},{"type":"ICON","value":"MAINTENANCE"},{"type":"STATION","value":"Bad Nieuweschans"}],[{"type":"STATION","value":"Groningen"},{"type":"STATION","value":"Winschoten"},{"type":"ICON","value":"MAINTENANCE"},{"type":"STATION","value":"Bad Nieuweschans"},{"type":"STATION","value":"Leer (Ostfr.)"}]],"registrationTime":"2025-09-03T10:31:44+0200","start":"2025-10-04T02:00:02+0200","releaseTime":"2025-09-03T10:32:40+0200","end":"2025-10-05T06:00:10+0200","period":"Zaterdag 4 oktober 2:00 uur t/m zondag 5 oktober 6:00 uur.","impact":{"value":3},"publicationSections":[{"section":{"stations":[{"coordinate":{"lat":53.2105560302734,"lng":6.56472206115723},"countryCode":"NL","name":"Groningen","stationCode":"GN","uicCode":"8400263"},{"coordinate":{"lat":53.20480027,"lng":6.5854178},"countryCode":"NL","name":"Groningen Europapark","stationCode":"GERP","uicCode":"8400238"},{"coordinate":{"lat":53.1617362,"lng":6.7220882},"countryCode":"NL","name":"Kropswolde","stationCode":"KW","uicCode":"8400369"},{"coordinate":{"lat":53.1607232,"lng":6.7402989},"countryCode":"NL","name":"Martenshoek","stationCode":"MTH","uicCode":"8400430"},{"coordinate":{"lat":53.1598181316756,"lng":6.77075386047363},"countryCode":"NL","name":"Hoogezand-Sappemeer","stationCode":"HGZ","uicCode":"8400331"},{"coordinate":{"lat":53.1596122800056,"lng":6.8679141998291},"countryCode":"NL","name":"Zuidbroek","stationCode":"ZB","uicCode":"8400742"},{"coordinate":{"lat":53.1655362,"lng":6.9777775},"countryCode":"NL","name":"Scheemda","stationCode":"SDA","uicCode":"8400551"},{"coordinate":{"lat":53.1392377,"lng":7.035101},"countryCode":"NL","name":"Winschoten","stationCode":"WS","uicCode":"8400696"},{"coordinate":{"lat":53.1844,"lng":7.19937},"countryCode":"NL","name":"Bad Nieuweschans","stationCode":"NSCH","uicCode":"8400457"}],"direction":"BOTH","operators":["Arriva"]},"consequence":{"section":{"stations":[{"coordinate":{"lat":53.1392377,"lng":7.035101},"countryCode":"NL","name":"Winschoten","stationCode":"WS","uicCode":"8400696"},{"coordinate":{"lat":53.1844,"lng":7.19937},"countryCode":"NL","name":"Bad Nieuweschans","stationCode":"NSCH","uicCode":"8400457"}],"direction":"BOTH","operators":["Arriva"]},"description":"er rijden bussen","level":"LESS_TRAINS"},"sectionType":"NL"},{"section":{"stations":[{"coordinate":{"lat":53.2105560302734,"lng":6.56472206115723},"countryCode":"NL","name":"Groningen","stationCode":"GN","uicCode":"8400263"},{"coordinate":{"lat":53.20480027,"lng":6.5854178},"countryCode":"NL","name":"Groningen Europapark","stationCode":"GERP","uicCode":"8400238"},{"coordinate":{"lat":53.1617362,"lng":6.7220882},"countryCode":"NL","name":"Kropswolde","stationCode":"KW","uicCode":"8400369"},{"coordinate":{"lat":53.1607232,"lng":6.7402989},"countryCode":"NL","name":"Martenshoek","stationCode":"MTH","uicCode":"8400430"},{"coordinate":{"lat":53.1598181316756,"lng":6.77075386047363},"countryCode":"NL","name":"Hoogezand-Sappemeer","stationCode":"HGZ","uicCode":"8400331"},{"coordinate":{"lat":53.1596122800056,"lng":6.8679141998291},"countryCode":"NL","name":"Zuidbroek","stationCode":"ZB","uicCode":"8400742"},{"coordinate":{"lat":53.1655362,"lng":6.9777775},"countryCode":"NL","name":"Scheemda","stationCode":"SDA","uicCode":"8400551"},{"coordinate":{"lat":53.1392377,"lng":7.035101},"countryCode":"NL","name":"Winschoten","stationCode":"WS","uicCode":"8400696"},{"coordinate":{"lat":53.1844,"lng":7.19937},"countryCode":"NL","name":"Bad Nieuweschans","stationCode":"NSCH","uicCode":"8400457"},{"coordinate":{"lat":53.16311,"lng":7.3442},"countryCode":"D","name":"Weener","stationCode":"WR","uicCode":"8021239"},{"coordinate":{"lat":53.23165,"lng":7.465283},"countryCode":"D","name":"Leer (Ostfriesl)","stationCode":"LEER","uicCode":"8021091"}],"direction":"BOTH","operators":["Arriva"]},"consequence":{"section":{"stations":[{"coordinate":{"lat":53.1392377,"lng":7.035101},"countryCode":"NL","name":"Winschoten","stationCode":"WS","uicCode":"8400696"},{"coordinate":{"lat":53.1844,"lng":7.19937},"countryCode":"NL","name":"Bad Nieuweschans","stationCode":"NSCH","uicCode":"8400457"}],"direction":"BOTH","operators":["Arriva"]},"description":"er rijden bussen","level":"LESS_TRAINS"},"sectionType":"NEIGHBORING_COUNTRY"}],"summaryAdditionalTravelTime":{"label":"De extra reistijd kan oplopen tot 15 minuten.","shortLabel":"Extra reistijd tot 15 min.","maximumDurationInMinutes":15},"timespans":[{"start":"2025-10-04T02:00:02+0200","end":"2025-10-05T06:00:10+0200","period":"Zaterdag 4 oktober 2:00 uur t/m zondag 5 oktober 6:00 uur.","situation":{"label":"Door werkzaamheden: tussen Winschoten en Bad Nieuweschans rijden er bussen."},"cause":{"label":"werkzaamheden","type":"OTHER"},"additionalTravelTime":{"label":"De extra reistijd kan oplopen tot 15 minuten.","shortLabel":"Extra reistijd tot 15 min.","maximumDurationInMinutes":15},"alternativeTransport":{"label":"er rijden stopbussen","shortLabel":"er rijden stopbussen"},"advices":[]}],"alternativeTransportTimespans":[{"start":"2025-10-04T02:00:02+0200","end":"2025-10-05T06:00:10+0200","alternativeTransport":{"location":[{"station":{"coordinate":{"lat":53.1392377,"lng":7.035101},"countryCode":"NL","name":"Winschoten","stationCode":"WS","uicCode":"8400696"},"description":"vanaf het busstation"},{"station":{"coordinate":{"lat":53.1844,"lng":7.19937},"countryCode":"NL","name":"Bad Nieuweschans","stationCode":"NSCH","uicCode":"8400457"},"description":"vanaf de voorzijde van het station"}],"label":"Er rijden stopbussen tussen Winschoten en Bad Nieuweschans.","shortLabel":"Er rijden stopbussen Winschoten - Bad Nieuweschans."}}]},{"type":"MAINTENANCE","id":"7006765","title":"Haarlem - Alkmaar.","isActive":false,"local":false,"titleSections":[[{"type":"STATION","value":"Haarlem"},{"type":"STATION","value":"Beverwijk"},{"type":"ICON","value":"MAINTENANCE"},{"type":"STATION","value":"Uitgeest"},{"type":"STATION","value":"Alkmaar"}]],"registrationTime":"2025-08-28T13:30:23+0200","start":"2025-10-04T04:56:46+0200","releaseTime":"2025-08-28T13:30:23+0200","end":"2025-10-06T02:57:10+0200","period":"Zaterdag 4 oktober 4:56 uur t/m maandag 6 oktober 2:57 uur.","impact":{"value":3},"publicationSections":[{"section":{"stations":[{"coordinate":{"lat":52.3877792358398,"lng":4.63833332061768},"countryCode":"NL","name":"Haarlem","stationCode":"HLM","uicCode":"8400285"},{"coordinate":{"lat":52.404167175293,"lng":4.62750005722046},"countryCode":"NL","name":"Bloemendaal","stationCode":"BLL","uicCode":"8400118"},{"coordinate":{"lat":52.4197235107422,"lng":4.63138866424561},"countryCode":"NL","name":"Santpoort Zuid","stationCode":"SPTZ","uicCode":"8400544"},{"coordinate":{"lat":52.4338874816895,"lng":4.63250017166138},"countryCode":"NL","name":"Santpoort Noord","stationCode":"SPTN","uicCode":"8400543"},{"coordinate":{"lat":52.4425010681152,"lng":4.63805532455444},"countryCode":"NL","name":"Driehuis","stationCode":"DRH","uicCode":"8400183"},{"coordinate":{"lat":52.4783325195313,"lng":4.65666675567627},"countryCode":"NL","name":"Beverwijk","stationCode":"BV","uicCode":"8400113"},{"coordinate":{"lat":52.4952774047852,"lng":4.68694448471069},"countryCode":"NL","name":"Heemskerk","stationCode":"HK","uicCode":"8400317"},{"coordinate":{"lat":52.5216674804687,"lng":4.70166683197022},"countryCode":"NL","name":"Uitgeest","stationCode":"UTG","uicCode":"8400615"},{"coordinate":{"lat":52.5458335876465,"lng":4.65861129760742},"countryCode":"NL","name":"Castricum","stationCode":"CAS","uicCode":"8400151"},{"coordinate":{"lat":52.5994453430176,"lng":4.70055532455444},"countryCode":"NL","name":"Heiloo","stationCode":"HLO","uicCode":"8400309"},{"coordinate":{"lat":52.6377792358398,"lng":4.73972225189209},"countryCode":"NL","name":"Alkmaar","stationCode":"AMR","uicCode":"8400050"}],"direction":"BOTH","operators":["NS"]},"consequence":{"section":{"stations":[{"coordinate":{"lat":52.4783325195313,"lng":4.65666675567627},"countryCode":"NL","name":"Beverwijk","stationCode":"BV","uicCode":"8400113"},{"coordinate":{"lat":52.4952774047852,"lng":4.68694448471069},"countryCode":"NL","name":"Heemskerk","stationCode":"HK","uicCode":"8400317"},{"coordinate":{"lat":52.5216674804687,"lng":4.70166683197022},"countryCode":"NL","name":"Uitgeest","stationCode":"UTG","uicCode":"8400615"}],"direction":"BOTH","operators":["NS"]},"description":"er rijden bussen","level":"LESS_TRAINS"},"sectionType":"NL"}],"summaryAdditionalTravelTime":{"label":"De extra reistijd is ongeveer 15 minuten.","shortLabel":"Extra reistijd 15 min.","minimumDurationInMinutes":15,"maximumDurationInMinutes":15},"timespans":[{"start":"2025-10-04T04:56:46+0200","end":"2025-10-06T02:57:10+0200","period":"Zaterdag 4 oktober 4:56 uur t/m maandag 6 oktober 2:57 uur.","situation":{"label":"Door werkzaamheden: tussen Beverwijk en Uitgeest rijden er bussen."},"cause":{"label":"werkzaamheden","type":"OTHER"},"additionalTravelTime":{"label":"De extra reistijd is ongeveer 15 minuten.","shortLabel":"Extra reistijd 15 min.","minimumDurationInMinutes":15,"maximumDurationInMinutes":15},"alternativeTransport":{"label":"er rijden stopbussen","shortLabel":"er rijden stopbussen"},"advices":["Tussen Haarlem en Uitgeest reis via Sloterdijk."]}],"alternativeTransportTimespans":[{"start":"2025-10-04T04:56:46+0200","end":"2025-10-06T02:57:10+0200","alternativeTransport":{"location":[{"station":{"coordinate":{"lat":52.4783325195313,"lng":4.65666675567627},"countryCode":"NL","name":"Beverwijk","stationCode":"BV","uicCode":"8400113"},"description":"vanaf het busstation"},{"station":{"coordinate":{"lat":52.4952774047852,"lng":4.68694448471069},"countryCode":"NL","name":"Heemskerk","stationCode":"HK","uicCode":"8400317"},"description":"vanaf de voorzijde van het station"},{"station":{"coordinate":{"lat":52.5216674804687,"lng":4.70166683197022},"countryCode":"NL","name":"Uitgeest","stationCode":"UTG","uicCode":"8400615"},"description":"vanaf de achterzijde van het station"}],"label":"Er rijden stopbussen tussen Beverwijk, Heemskerk en Uitgeest.","shortLabel":"Er rijden stopbussen Beverwijk - Heemskerk - Uitgeest."}}]},{"type":"MAINTENANCE","id":"7006901","title":"Amsterdam - Hannover - Berlin.","isActive":false,"local":false,"titleSections":[[{"type":"STATION","value":"Amsterdam C."},{"type":"ICON","value":"MAINTENANCE"},{"type":"STATION","value":"Berlin Hbf"}]],"registrationTime":"2025-09-23T11:07:20+0200","start":"2025-10-04T06:00:00+0200","releaseTime":"2025-09-23T11:07:20+0200","end":"2025-10-05T02:00:00+0200","period":"Zaterdag 4 oktober 6:00 uur t/m zondag 5 oktober 2:00 uur.","impact":{"value":2},"publicationSections":[{"section":{"stations":[{"coordinate":{"lat":52.3788871765137,"lng":4.90027761459351},"countryCode":"NL","name":"Amsterdam Centraal","stationCode":"ASD","uicCode":"8400058"},{"coordinate":{"lat":52.3605537414551,"lng":4.93111133575439},"countryCode":"NL","name":"Amsterdam Muiderpoort","stationCode":"ASDM","uicCode":"8400060"},{"coordinate":{"lat":52.35274,"lng":4.94855},"countryCode":"NL","name":"Amsterdam Science Park","stationCode":"ASSP","uicCode":"8400235"},{"coordinate":{"lat":52.34515,"lng":4.967566},"countryCode":"NL","name":"Diemen","stationCode":"DMN","uicCode":"8400165"},{"coordinate":{"lat":52.3127784729004,"lng":5.04305553436279},"countryCode":"NL","name":"Weesp","stationCode":"WP","uicCode":"8400685"},{"coordinate":{"lat":52.2802772521973,"lng":5.15694427490234},"countryCode":"NL","name":"Naarden-Bussum","stationCode":"NDB","uicCode":"8400452"},{"coordinate":{"lat":52.2658348083496,"lng":5.16305541992188},"countryCode":"NL","name":"Bussum Zuid","stationCode":"BSMZ","uicCode":"8400145"},{"coordinate":{"lat":52.2380561828613,"lng":5.17388868331909},"countryCode":"NL","name":"Hilversum Media Park","stationCode":"HVSM","uicCode":"8400324"},{"coordinate":{"lat":52.2258338928223,"lng":5.18194437026978},"countryCode":"NL","name":"Hilversum","stationCode":"HVS","uicCode":"8400322"},{"coordinate":{"lat":52.2083320617676,"lng":5.28083324432373},"countryCode":"NL","name":"Baarn","stationCode":"BRN","uicCode":"8400086"},{"coordinate":{"lat":52.1538887023926,"lng":5.37055540084839},"countryCode":"NL","name":"Amersfoort Centraal","stationCode":"AMF","uicCode":"8400055"},{"coordinate":{"lat":52.16652,"lng":5.45718},"countryCode":"NL","name":"Hoevelaken","stationCode":"HVL","uicCode":"8400490"},{"coordinate":{"lat":52.2091674804687,"lng":5.97027778625488},"countryCode":"NL","name":"Apeldoorn","stationCode":"APD","uicCode":"8400066"},{"coordinate":{"lat":52.2152786254883,"lng":6.00444459915161},"countryCode":"NL","name":"Apeldoorn Osseveld","stationCode":"APDO","uicCode":"8400229"},{"coordinate":{"lat":52.2377777099609,"lng":6.09861087799072},"countryCode":"NL","name":"Twello","stationCode":"TWL","uicCode":"8400599"},{"coordinate":{"lat":52.2574996948242,"lng":6.16055536270142},"countryCode":"NL","name":"Deventer","stationCode":"DV","uicCode":"8400173"},{"coordinate":{"lat":52.2502784729004,"lng":6.21444463729858},"countryCode":"NL","name":"Deventer Colmschate","stationCode":"DVC","uicCode":"8400185"},{"coordinate":{"lat":52.2838897705078,"lng":6.42027759552002},"countryCode":"NL","name":"Holten","stationCode":"HON","uicCode":"8400328"},{"coordinate":{"lat":52.3122215270996,"lng":6.52027797698975},"countryCode":"NL","name":"Rijssen","stationCode":"RSN","uicCode":"8400538"},{"coordinate":{"lat":52.3613891601562,"lng":6.59166669845581},"countryCode":"NL","name":"Wierden","stationCode":"WDN","uicCode":"8400691"},{"coordinate":{"lat":52.3580551147461,"lng":6.65388870239258},"countryCode":"NL","name":"Almelo","stationCode":"AML","uicCode":"8400051"},{"coordinate":{"lat":52.3419456481934,"lng":6.66666650772095},"countryCode":"NL","name":"Almelo de Riet","stationCode":"AMRI","uicCode":"8400520"},{"coordinate":{"lat":52.2988891601562,"lng":6.74805545806885},"countryCode":"NL","name":"Borne","stationCode":"BN","uicCode":"8400124"},{"coordinate":{"lat":52.2616653442383,"lng":6.79388904571533},"countryCode":"NL","name":"Hengelo","stationCode":"HGL","uicCode":"8400316"},{"coordinate":{"lat":52.2688903808594,"lng":6.81944465637207},"countryCode":"NL","name":"Hengelo Oost","stationCode":"HGLO","uicCode":"8400312"},{"coordinate":{"lat":52.3063888549805,"lng":6.93472242355347},"countryCode":"NL","name":"Oldenzaal","stationCode":"ODZ","uicCode":"8400483"},{"coordinate":{"lat":52.309685595156,"lng":7.15853691101074},"countryCode":"D","name":"Bad Bentheim","stationCode":"BH","uicCode":"8021156"},{"coordinate":{"lat":52.276299,"lng":7.434255},