[{"type":"DISRUPTION","id":"6031277","title":"Maastricht-Liège / Luik","isActive":true,"topic":"disruption_6031277_nl","local":false,"titleSections":[[{"type":"STATION","value":"Maastricht"},{"type":"STATION","value":"Randwyck"},{"type":"ICON","value":"DISRUPTION"},{"type":"STATION","value":"Visé"},{"type":"STATION","value":"Liège-Guillemins"}]],"registrationTime":"2024-05-23T16:30:06+0200","releaseTime":"2024-05-23T16:30:06+0200","start":"2024-05-17T22:00:02+0200","end":"2024-06-03T05:00:00+0200","phase":{"id":"3","label":"Vervangend vervoer"},"impact":{"value":3},"expectedDuration":{"description":"Dit duurt ten minste tot maandag 3 juni 05:00 uur.","endTime":"2024-06-03T05:00:00+0200"},"publicationSections":[{"section":{"stations":[{"coordinate":{"lat":50.8502769470215,"lng":5.70555543899536},"countryCode":"NL","name":"Maastricht","stationCode":"MT","uicCode":"8400424"},{"coordinate":{"lat":50.8386116027832,"lng":5.71722221374512},"countryCode":"NL","name":"Maastricht Randwyck","stationCode":"MTR","uicCode":"8400426"},{"coordinate":{"lat":50.7719459533691,"lng":5.71000003814697},"countryCode":"NL","name":"Eijsden","stationCode":"EDN","uicCode":"8400219"},{"coordinate":{"lat":50.73781,"lng":5.69232},"countryCode":"B","name":"Visé","stationCode":"FVS","uicCode":"8846201"},{"coordinate":{"lat":50.643829,"lng":5.6112542},"countryCode":"B","name":"Bressoux","stationCode":"BRESSX","uicCode":"8843901"},{"coordinate":{"lat":50.62436,"lng":5.56648},"countryCode":"B","name":"Liège-Guillemins","stationCode":"LUIK","uicCode":"8841004"}],"direction":"BOTH"},"consequence":{"section":{"stations":[{"coordinate":{"lat":50.8386116027832,"lng":5.71722221374512},"countryCode":"NL","name":"Maastricht Randwyck","stationCode":"MTR","uicCode":"8400426"},{"coordinate":{"lat":50.7719459533691,"lng":5.71000003814697},"countryCode":"NL","name":"Eijsden","stationCode":"EDN","uicCode":"8400219"},{"coordinate":{"lat":50.73781,"lng":5.69232},"countryCode":"B","name":"Visé","stationCode":"FVS","uicCode":"8846201"}],"direction":"ONE_WAY"},"description":"geen treinen","level":"LESS_TRAINS"},"sectionType":"NEIGHBORING_COUNTRY"}],"summaryAdditionalTravelTime":{"label":"De extra reistijd is meer dan 30 minuten.","shortLabel":"Extra reistijd meer dan 30 min.","minimumDurationInMinutes":30},"timespans":[{"start":"2024-05-17T22:00:02+0200","end":"2024-06-03T05:00:00+0200","situation":{"label":"Tussen Maastricht Randwyck en Visé rijden er geen treinen door wateroverlast."},"cause":{"label":"Wateroverlast"},"additionalTravelTime":{"label":"De extra reistijd is meer dan 30 minuten.","shortLabel":"Extra reistijd meer dan 30 min.","minimumDurationInMinutes":30},"alternativeTransport":{"label":"Er rijden stopbussen.","shortLabel":"Er rijden stopbussen"},"advices":["De reisplanner wordt per dag bijgewerkt."]}],"alternativeTransportTimespans":[{"start":"2024-05-17T22:00:02+0200","end":"2024-06-03T05:00:00+0200","alternativeTransport":{"location":[{"station":{"coordinate":{"lat":50.8502769470215,"lng":5.70555543899536},"countryCode":"NL","name":"Maastricht","stationCode":"MT","uicCode":"8400424"},"description":"vanaf de taxi-standplaats, centrumzijde"},{"station":{"coordinate":{"lat":50.8386116027832,"lng":5.71722221374512},"countryCode":"NL","name":"Maastricht Randwyck","stationCode":"MTR","uicCode":"8400426"},"description":"onder het viaduct"},{"station":{"coordinate":{"lat":50.7719459533691,"lng":5.71000003814697},"countryCode":"NL","name":"Eijsden","stationCode":"EDN","uicCode":"8400219"},"description":"vanaf de voorzijde van het station"},{"station":{"coordinate":{"lat":50.73781,"lng":5.69232},"countryCode":"B","name":"Visé","stationCode":"FVS","uicCode":"8846201"},"description":"vanaf de bushalte"}],"label":"Er rijden stopbussen tussen Maastricht, Maastricht Randwyck, Eijsden en Visé.","shortLabel":"Er rijden stopbussen: Maastricht, Randwyck, Eijsden, Visé"}}]},{"type":"DISRUPTION","id":"6031527","title":"Amsterdam-Utrecht","isActive":true,"topic":"disruption_6031527_nl","local":false,"titleSections":[[{"type":"STATION","value":"Amsterdam C."},{"type":"ICON","value":"DISRUPTION"},{"type":"STATION","value":"Utrecht C."}]],"registrationTime":"2024-05-30T16:10:35+0200","releaseTime":"2024-05-30T16:10:35+0200","start":"2024-05-30T13:32:08+0200","end":"2024-05-30T16:30:00+0200","phase":{"id":"4","label":"Storing voorbij"},"impact":{"value":2},"expectedDuration":{"description":"De treinen rijden weer normaal rond 16:30 uur.","endTime":"2024-05-30T16:30:00+0200"},"publicationSections":[{"section":{"stations":[{"coordinate":{"lat":52.3788871765137,"lng":4.90027761459351},"countryCode":"NL","name":"Amsterdam Centraal","stationCode":"ASD","uicCode":"8400058"},{"coordinate":{"lat":52.3605537414551,"lng":4.93111133575439},"countryCode":"NL","name":"Amsterdam Muiderpoort","stationCode":"ASDM","uicCode":"8400060"},{"coordinate":{"lat":52.3466682434082,"lng":4.91777801513672},"countryCode":"NL","name":"Amsterdam Amstel","stationCode":"ASA","uicCode":"8400057"},{"coordinate":{"lat":52.3233337402344,"lng":4.93638896942139},"countryCode":"NL","name":"Duivendrecht","stationCode":"DVD","uicCode":"8400194"},{"coordinate":{"lat":52.3122215270996,"lng":4.94694423675537},"countryCode":"NL","name":"Amsterdam Bijlmer ArenA","stationCode":"ASB","uicCode":"8400074"},{"coordinate":{"lat":52.29844,"lng":4.95972},"countryCode":"NL","name":"Amsterdam Holendrecht","stationCode":"ASHD","uicCode":"8400231"},{"coordinate":{"lat":52.2785,"lng":4.977},"countryCode":"NL","name":"Abcoude","stationCode":"AC","uicCode":"8400047"},{"coordinate":{"lat":52.17149,"lng":4.9906},"countryCode":"NL","name":"Breukelen","stationCode":"BKL","uicCode":"8400133"},{"coordinate":{"lat":52.1352767944336,"lng":5.03361129760742},"countryCode":"NL","name":"Maarssen","stationCode":"MAS","uicCode":"8400419"},{"coordinate":{"lat":52.103055,"lng":5.09},"countryCode":"NL","name":"Utrecht Zuilen","stationCode":"UTZL","uicCode":"8400613"},{"coordinate":{"lat":52.0888900756836,"lng":5.11027765274048},"countryCode":"NL","name":"Utrecht Centraal","stationCode":"UT","uicCode":"8400621"}],"direction":"BOTH"},"consequence":{"section":{"stations":[{"coordinate":{"lat":52.3788871765137,"lng":4.90027761459351},"countryCode":"NL","name":"Amsterdam Centraal","stationCode":"ASD","uicCode":"8400058"},{"coordinate":{"lat":52.3605537414551,"lng":4.93111133575439},"countryCode":"NL","name":"Amsterdam Muiderpoort","stationCode":"ASDM","uicCode":"8400060"},{"coordinate":{"lat":52.3466682434082,"lng":4.91777801513672},"countryCode":"NL","name":"Amsterdam Amstel","stationCode":"ASA","uicCode":"8400057"},{"coordinate":{"lat":52.3233337402344,"lng":4.93638896942139},"countryCode":"NL","name":"Duivendrecht","stationCode":"DVD","uicCode":"8400194"},{"coordinate":{"lat":52.3122215270996,"lng":4.94694423675537},"countryCode":"NL","name":"Amsterdam Bijlmer ArenA","stationCode":"ASB","uicCode":"8400074"},{"coordinate":{"lat":52.29844,"lng":4.95972},"countryCode":"NL","name":"Amsterdam Holendrecht","stationCode":"ASHD","uicCode":"8400231"},{"coordinate":{"lat":52.2785,"lng":4.977},"countryCode":"NL","name":"Abcoude","stationCode":"AC","uicCode":"8400047"},{"coordinate":{"lat":52.17149,"lng":4.9906},"countryCode":"NL","name":"Breukelen","stationCode":"BKL","uicCode":"8400133"},{"coordinate":{"lat":52.1352767944336,"lng":5.03361129760742},"countryCode":"NL","name":"Maarssen","stationCode":"MAS","uicCode":"8400419"},{"coordinate":{"lat":52.103055,"lng":5.09},"countryCode":"NL","name":"Utrecht Zuilen","stationCode":"UTZL","uicCode":"8400613"},{"coordinate":{"lat":52.0888900756836,"lng":5.11027765274048},"countryCode":"NL","name":"Utrecht Centraal","stationCode":"UT","uicCode":"8400621"}],"direction":"ONE_WAY"},"description":"beperkingen voorbij","level":"LESS_TRAINS"},"sectionType":"NL"}],"summaryAdditionalTravelTime":{"label":"De vertraging neemt af.","shortLabel":"Vertraging neemt af"},"timespans":[{"start":"2024-05-30T13:32:08+0200","end":"2024-05-30T16:30:00+0200","situation":{"label":"Tussen Amsterdam Centraal en Utrecht Centraal zijn de beperkingen voorbij."},"cause":{"label":"Hulpdiensten"},"additionalTravelTime":{"label":"De vertraging neemt af.","shortLabel":"Vertraging neemt af"},"advices":[]}],"alternativeTransportTimespans":[]},{"type":"DISRUPTION","id":"6031530","title":"Schiphol-Utrecht","isActive":true,"topic":"disruption_6031530_nl","local":false,"titleSections":[[{"type":"STATION","value":"Schiphol Airport"},{"type":"ICON","value":"DISRUPTION"},{"type":"STATION","value":"Utrecht C."}]],"registrationTime":"2024-05-30T15:55:45+0200","releaseTime":"2024-05-30T15:55:45+0200","start":"2024-05-30T13:32:08+0200","end":"2024-05-30T17:00:00+0200","phase":{"id":"2","label":"Impact bekend"},"impact":{"value":2},"expectedDuration":{"description":"Dit duurt tot ongeveer 17:00 uur.","endTime":"2024-05-30T17:00:00+0200"},"publicationSections":[{"section":{"stations":[{"coordinate":{"lat":52.3094444274902,"lng":4.76194429397583},"countryCode":"NL","name":"Schiphol Airport","stationCode":"SHL","uicCode":"8400561"},{"coordinate":{"lat":52.338889,"lng":4.872356},"countryCode":"NL","name":"Amsterdam Zuid","stationCode":"ASDZ","uicCode":"8400061"},{"coordinate":{"lat":52.3372230529785,"lng":4.89027786254883},"countryCode":"NL","name":"Amsterdam RAI","stationCode":"RAI","uicCode":"8400056"},{"coordinate":{"lat":52.3122215270996,"lng":4.94694423675537},"countryCode":"NL","name":"Amsterdam Bijlmer ArenA","stationCode":"ASB","uicCode":"8400074"},{"coordinate":{"lat":52.29844,"lng":4.95972},"countryCode":"NL","name":"Amsterdam Holendrecht","stationCode":"ASHD","uicCode":"8400231"},{"coordinate":{"lat":52.2785,"lng":4.977},"countryCode":"NL","name":"Abcoude","stationCode":"AC","uicCode":"8400047"},{"coordinate":{"lat":52.17149,"lng":4.9906},"countryCode":"NL","name":"Breukelen","stationCode":"BKL","uicCode":"8400133"},{"coordinate":{"lat":52.1352767944336,"lng":5.03361129760742},"countryCode":"NL","name":"Maarssen","stationCode":"MAS","uicCode":"8400419"},{"coordinate":{"lat":52.103055,"lng":5.09},"countryCode":"NL","name":"Utrecht Zuilen","stationCode":"UTZL","uicCode":"8400613"},{"coordinate":{"lat":52.0888900756836,"lng":5.11027765274048},"countryCode":"NL","name":"Utrecht Centraal","stationCode":"UT","uicCode":"8400621"}],"direction":"BOTH"},"consequence":{"section":{"stations":[{"coordinate":{"lat":52.3094444274902,"lng":4.76194429397583},"countryCode":"NL","name":"Schiphol Airport","stationCode":"SHL","uicCode":"8400561"},{"coordinate":{"lat":52.338889,"lng":4.872356},"countryCode":"NL","name":"Amsterdam Zuid","stationCode":"ASDZ","uicCode":"8400061"},{"coordinate":{"lat":52.3372230529785,"lng":4.89027786254883},"countryCode":"NL","name":"Amsterdam RAI","stationCode":"RAI","uicCode":"8400056"},{"coordinate":{"lat":52.3122215270996,"lng":4.94694423675537},"countryCode":"NL","name":"Amsterdam Bijlmer ArenA","stationCode":"ASB","uicCode":"8400074"},{"coordinate":{"lat":52.29844,"lng":4.95972},"countryCode":"NL","name":"Amsterdam Holendrecht","stationCode":"ASHD","uicCode":"8400231"},{"coordinate":{"lat":52.2785,"lng":4.977},"countryCode":"NL","name":"Abcoude","stationCode":"AC","uicCode":"8400047"},{"coordinate":{"lat":52.17149,"lng":4.9906},"countryCode":"NL","name":"Breukelen","stationCode":"BKL","uicCode":"8400133"},{"coordinate":{"lat":52.1352767944336,"lng":5.03361129760742},"countryCode":"NL","name":"Maarssen","stationCode":"MAS","uicCode":"8400419"},{"coordinate":{"lat":52.103055,"lng":5.09},"countryCode":"NL","name":"Utrecht Zuilen","stationCode":"UTZL","uicCode":"8400613"},{"coordinate":{"lat":52.0888900756836,"lng":5.11027765274048},"countryCode":"NL","name":"Utrecht Centraal","stationCode":"UT","uicCode":"8400621"}],"direction":"ONE_WAY"},"description":"geen Intercity's","level":"LESS_TRAINS"},"sectionType":"NL"}],"timespans":[{"start":"2024-05-30T13:32:08+0200","end":"2024-05-30T17:00:00+0200","situation":{"label":"Tussen Schiphol Airport en Utrecht Centraal rijden er geen Intercity's door inzet van hulpdiensten."},"cause":{"label":"Hulpdiensten"},"advices":[]}],"alternativeTransportTimespans":[]},{"type":"DISRUPTION","id":"6031524","title":"Utrecht-Arnhem; Breukelen-Utrecht-Veenendaal","isActive":true,"topic":"disruption_6031524_nl","local":false,"titleSections":[[{"type":"STATION","value":"Breukelen"},{"type":"STATION","value":"Utrecht C."},{"type":"ICON","value":"DISRUPTION"},{"type":"STATION","value":"Driebergen-Zeist"},{"type":"STATION","value":"Veenendaal C."}],[{"type":"STATION","value":"Utrecht C."},{"type":"ICON","value":"DISRUPTION"},{"type":"STATION","value":"Driebergen-Zeist"},{"type":"STATION","value":"Arnhem C."}]],"registrationTime":"2024-05-30T15:55:30+0200","releaseTime":"2024-05-30T15:55:30+0200","start":"2024-05-30T13:32:08+0200","end":"2024-05-30T17:00:00+0200","phase":{"id":"2","label":"Impact bekend"},"impact":{"value":4},"expectedDuration":{"description":"Dit duurt tot ongeveer 17:00 uur.","endTime":"2024-05-30T17:00:00+0200"},"publicationSections":[{"section":{"stations":[{"coordinate":{"lat":52.17149,"lng":4.9906},"countryCode":"NL","name":"Breukelen","stationCode":"BKL","uicCode":"8400133"},{"coordinate":{"lat":52.1352767944336,"lng":5.03361129760742},"countryCode":"NL","name":"Maarssen","stationCode":"MAS","uicCode":"8400419"},{"coordinate":{"lat":52.103055,"lng":5.09},"countryCode":"NL","name":"Utrecht Zuilen","stationCode":"UTZL","uicCode":"8400613"},{"coordinate":{"lat":52.0888900756836,"lng":5.11027765274048},"countryCode":"NL","name":"Utrecht Centraal","stationCode":"UT","uicCode":"8400621"},{"coordinate":{"lat":52.078889,"lng":5.121667},"countryCode":"NL","name":"Utrecht Vaartsche Rijn","stationCode":"UTVR","uicCode":"8400606"},{"coordinate":{"lat":52.0630569458008,"lng":5.19444465637207},"countryCode":"NL","name":"Bunnik","stationCode":"BNK","uicCode":"8400141"},{"coordinate":{"lat":52.0652770996094,"lng":5.25861120223999},"countryCode":"NL","name":"Driebergen-Zeist","stationCode":"DB","uicCode":"8400182"},{"coordinate":{"lat":52.0641670227051,"lng":5.36999988555908},"countryCode":"NL","name":"Maarn","stationCode":"MRN","uicCode":"8400417"},{"coordinate":{"lat":52.0280570983887,"lng":5.53138875961304},"countryCode":"NL","name":"Veenendaal West","stationCode":"VNDW","uicCode":"8400628"},{"coordinate":{"lat":52.0200004577637,"lng":5.54861116409302},"countryCode":"NL","name":"Veenendaal Centrum","stationCode":"VNDC","uicCode":"8400627"}],"direction":"BOTH"},"consequence":{"section":{"stations":[{"coordinate":{"lat":52.0888900756836,"lng":5.11027765274048},"countryCode":"NL","name":"Utrecht Centraal","stationCode":"UT","uicCode":"8400621"},{"coordinate":{"lat":52.078889,"lng":5.121667},"countryCode":"NL","name":"Utrecht Vaartsche Rijn","stationCode":"UTVR","uicCode":"8400606"},{"coordinate":{"lat":52.0630569458008,"lng":5.19444465637207},"countryCode":"NL","name":"Bunnik","stationCode":"BNK","uicCode":"8400141"},{"coordinate":{"lat":52.0652770996094,"lng":5.25861120223999},"countryCode":"NL","name":"Driebergen-Zeist","stationCode":"DB","uicCode":"8400182"}],"direction":"ONE_WAY"},"description":"geen treinen","level":"LESS_TRAINS"},"sectionType":"NL"},{"section":{"stations":[{"coordinate":{"lat":52.0888900756836,"lng":5.11027765274048},"countryCode":"NL","name":"Utrecht Centraal","stationCode":"UT","uicCode":"8400621"},{"coordinate":{"lat":52.078889,"lng":5.121667},"countryCode":"NL","name":"Utrecht Vaartsche Rijn","stationCode":"UTVR","uicCode":"8400606"},{"coordinate":{"lat":52.0630569458008,"lng":5.19444465637207},"countryCode":"NL","name":"Bunnik","stationCode":"BNK","uicCode":"8400141"},{"coordinate":{"lat":52.0652770996094,"lng":5.25861120223999},"countryCode":"NL","name":"Driebergen-Zeist","stationCode":"DB","uicCode":"8400182"},{"coordinate":{"lat":52.0641670227051,"lng":5.36999988555908},"countryCode":"NL","name":"Maarn","stationCode":"MRN","uicCode":"8400417"},{"coordinate":{"lat":52.0458335876465,"lng":5.57388877868652},"countryCode":"NL","name":"Veenendaal-De Klomp","stationCode":"KLP","uicCode":"8400637"},{"coordinate":{"lat":52.0277786254883,"lng":5.67305564880371},"countryCode":"NL","name":"Ede-Wageningen","stationCode":"ED","uicCode":"8400200"},{"coordinate":{"lat":52.0055541992188,"lng":5.7936110496521},"countryCode":"NL","name":"Wolfheze","stationCode":"WF","uicCode":"8400704"},{"coordinate":{"lat":51.9949989318848,"lng":5.84000015258789},"countryCode":"NL","name":"Oosterbeek","stationCode":"OTB","uicCode":"8400489"},{"coordinate":{"lat":51.9850006103516,"lng":5.89916658401489},"countryCode":"NL","name":"Arnhem Centraal","stationCode":"AH","uicCode":"8400071"}],"direction":"BOTH"},"consequence":{"section":{"stations":[{"coordinate":{"lat":52.0888900756836,"lng":5.11027765274048},"countryCode":"NL","name":"Utrecht Centraal","stationCode":"UT","uicCode":"8400621"},{"coordinate":{"lat":52.078889,"lng":5.121667},"countryCode":"NL","name":"Utrecht Vaartsche Rijn","stationCode":"UTVR","uicCode":"8400606"},{"coordinate":{"lat":52.0630569458008,"lng":5.19444465637207},"countryCode":"NL","name":"Bunnik","stationCode":"BNK","uicCode":"8400141"},{"coordinate":{"lat":52.0652770996094,"lng":5.25861120223999},"countryCode":"NL","name":"Driebergen-Zeist","stationCode":"DB","uicCode":"8400182"}],"direction":"ONE_WAY"},"description":"geen treinen","level":"LESS_TRAINS"},"sectionType":"NL"}],"timespans":[{"start":"2024-05-30T13:32:08+0200","end":"2024-05-30T17:00:00+0200","situation":{"label":"Tussen Utrecht Centraal en Driebergen-Zeist rijden er geen treinen door inzet van hulpdiensten."},"cause":{"label":"Hulpdiensten"},"advices":[]}],"alternativeTransportTimespans":[]},{"type":"DISRUPTION","id":"6031532","title":"Amersfoort-Ede-Wageningen","isActive":true,"topic":"disruption_6031532_nl","local":false,"titleSections":[[{"type":"STATION","value":"Amersfoort C."},{"type":"ICON","value":"DISRUPTION"},{"type":"STATION","value":"Ede-Wageningen"}]],"registrationTime":"2024-05-30T15:55:56+0200","releaseTime":"2024-05-30T15:55:56+0200","start":"2024-05-30T13:32:08+0200","end":"2024-05-30T17:00:00+0200","phase":{"id":"1b","label":"Gevolgen bekend"},"impact":{"value":1},"expectedDuration":{"description":"Dit duurt tot ongeveer 17:00 uur.","endTime":"2024-05-30T17:00:00+0200"},"publicationSections":[{"section":{"stations":[{"coordinate":{"lat":52.1538887023926,"lng":5.37055540084839},"countryCode":"NL","name":"Amersfoort Centraal","stationCode":"AMF","uicCode":"8400055"},{"coordinate":{"lat":52.16652,"lng":5.45718},"countryCode":"NL","name":"Hoevelaken","stationCode":"HVL","uicCode":"8400490"},{"coordinate":{"lat":52.1613883972168,"lng":5.59805536270142},"countryCode":"NL","name":"Barneveld Noord","stationCode":"BNN","uicCode":"8400092"},{"coordinate":{"lat":52.1399993896484,"lng":5.59027767181396},"countryCode":"NL","name":"Barneveld Centrum","stationCode":"BNC","uicCode":"8400091"},{"coordinate":{"lat":52.128853,"lng":5.60246},"countryCode":"NL","name":"Barneveld Zuid","stationCode":"BNZ","uicCode":"8400115"},{"coordinate":{"lat":52.085277557373,"lng":5.62444448471069},"countryCode":"NL","name":"Lunteren","stationCode":"LTN","uicCode":"8400405"},{"coordinate":{"lat":52.0436096191406,"lng":5.66833353042603},"countryCode":"NL","name":"Ede Centrum","stationCode":"EDC","uicCode":"8400201"},{"coordinate":{"lat":52.0277786254883,"lng":5.67305564880371},"countryCode":"NL","name":"Ede-Wageningen","stationCode":"ED","uicCode":"8400200"}],"direction":"BOTH"},"consequence":{"section":{"stations":[{"coordinate":{"lat":52.1538887023926,"lng":5.37055540084839},"countryCode":"NL","name":"Amersfoort Centraal","stationCode":"AMF","uicCode":"8400055"},{"coordinate":{"lat":52.16652,"lng":5.45718},"countryCode":"NL","name":"Hoevelaken","stationCode":"HVL","uicCode":"8400490"},{"coordinate":{"lat":52.1613883972168,"lng":5.59805536270142},"countryCode":"NL","name":"Barneveld Noord","stationCode":"BNN","uicCode":"8400092"},{"coordinate":{"lat":52.1399993896484,"lng":5.59027767181396},"countryCode":"NL","name":"Barneveld Centrum","stationCode":"BNC","uicCode":"8400091"},{"coordinate":{"lat":52.128853,"lng":5.60246},"countryCode":"NL","name":"Barneveld Zuid","stationCode":"BNZ","uicCode":"8400115"},{"coordinate":{"lat":52.085277557373,"lng":5.62444448471069},"countryCode":"NL","name":"Lunteren","stationCode":"LTN","uicCode":"8400405"},{"coordinate":{"lat":52.0436096191406,"lng":5.66833353042603},"countryCode":"NL","name":"Ede Centrum","stationCode":"EDC","uicCode":"8400201"},{"coordinate":{"lat":52.0277786254883,"lng":5.67305564880371},"countryCode":"NL","name":"Ede-Wageningen","stationCode":"ED","uicCode":"8400200"}],"direction":"ONE_WAY"},"description":"extra drukte vanwege een omreisroute","level":"LESS_TRAINS"},"sectionType":"NL"}],"timespans":[{"start":"2024-05-30T13:32:08+0200","end":"2024-05-30T17:00:00+0200","situation":{"label":"Tussen Amersfoort Centraal en Ede-Wageningen zijn er volle treinen en mogelijk een langere reistijd door een verstoring elders."},"cause":{"label":"Een verstoring elders"},"advices":[]}],"alternativeTransportTimespans":[]},{"type":"CALAMITY","id":"7d5d5466-bde3-4edc-858f-87824c23e6b8","title":"Werkzaamheden: Nijmegen-Venlo","isActive":true,"topic":"disruption_7d5d5466-bde3-4edc-858f-87824c23e6b8_nl","description":"Door werkzaamheden rijden van zaterdag 1 t/m zondag 9 juni geen treinen tussen Nijmegen/Boxmeer en Venlo.\r\nEr rijden Arriva-bussen. Plan je reis vooraf.","url":"https://www.ns.nl/reisinformatie/calamiteiten/werkzaamheden-nijmegen-venlo.html","priority":"PRIO_3","lastUpdated":"2024-05-29T02:00:00+0200","bodyItems":[],"buttons":{"position":["BOTTOM"],"items":[{"label":"Plan je reis","accessibilityLabel":"Plan je reis","url":"https://www.ns.nl/reisplanner","type":"PLANNER"}]}},{"type":"MAINTENANCE","id":"7004492","title":"Groningen - Leer.","isActive":true,"local":false,"titleSections":[[{"type":"STATION","value":"Groningen"},{"type":"STATION","value":"Bad Nieuweschans"},{"type":"ICON","value":"MAINTENANCE"},{"type":"STATION","value":"Weener"},{"type":"STATION","value":"Leer (Ostfr.)"}]],"registrationTime":"2024-05-24T11:02:19+0200","start":"2024-02-01T04:00:00+0100","releaseTime":"2024-05-24T11:02:19+0200","end":"2024-12-14T23:59:00+0100","period":"Donderdag 1 februari 4:00 uur t/m zaterdag 14 december 23:59 uur.","impact":{"value":3},"publicationSections":[{"section":{"stations":[{"coordinate":{"lat":53.2105560302734,"lng":6.56472206115723},"countryCode":"NL","name":"Groningen","stationCode":"GN","uicCode":"8400263"},{"coordinate":{"lat":53.20480027,"lng":6.5854178},"countryCode":"NL","name":"Groningen Europapark","stationCode":"GERP","uicCode":"8400238"},{"coordinate":{"lat":53.1617362,"lng":6.7220882},"countryCode":"NL","name":"Kropswolde","stationCode":"KW","uicCode":"8400369"},{"coordinate":{"lat":53.1607232,"lng":6.7402989},"countryCode":"NL","name":"Martenshoek","stationCode":"MTH","uicCode":"8400430"},{"coordinate":{"lat":53.1598181316756,"lng":6.77075386047363},"countryCode":"NL","name":"Hoogezand-Sappemeer","stationCode":"HGZ","uicCode":"8400331"},{"coordinate":{"lat":53.1596122800056,"lng":6.8679141998291},"countryCode":"NL","name":"Zuidbroek","stationCode":"ZB","uicCode":"8400742"},{"coordinate":{"lat":53.1655362,"lng":6.9777775},"countryCode":"NL","name":"Scheemda","stationCode":"SDA","uicCode":"8400551"},{"coordinate":{"lat":53.1392377,"lng":7.035101},"countryCode":"NL","name":"Winschoten","stationCode":"WS","uicCode":"8400696"},{"coordinate":{"lat":53.1844,"lng":7.19937},"countryCode":"NL","name":"Bad Nieuweschans","stationCode":"NSCH","uicCode":"8400457"},{"coordinate":{"lat":53.16311,"lng":7.3442},"countryCode":"D","name":"Weener","stationCode":"WR","uicCode":"8021239"},{"coordinate":{"lat":53.23165,"lng":7.465283},"countryCode":"D","name":"Leer (Ostfriesl)","stationCode":"LEER","uicCode":"8021091"}],"direction":"BOTH"},"consequence":{"section":{"stations":[{"coordinate":{"lat":53.1844,"lng":7.19937},"countryCode":"NL","name":"Bad Nieuweschans","stationCode":"NSCH","uicCode":"8400457"},{"coordinate":{"lat":53.16311,"lng":7.3442},"countryCode":"D","name":"Weener","stationCode":"WR","uicCode":"8021239"}],"direction":"ONE_WAY"},"description":"rijden bussen","level":"LESS_TRAINS"},"sectionType":"NEIGHBORING_COUNTRY"}],"summaryAdditionalTravelTime":{"label":"De extra reistijd kan oplopen tot 30 minuten.","shortLabel":"extra reistijd tot 30 min.","maximumDurationInMinutes":30},"timespans":[{"start":"2024-02-01T04:00:00+0100","end":"2024-12-14T23:59:00+0100","period":"Donderdag 1 februari 4:00 uur t/m zaterdag 14 december 23:59 uur.","situation":{"label":"Door werkzaamheden: tussen Bad Nieuweschans en Weener rijden er bussen."},"cause":{"label":"werkzaamheden"},"additionalTravelTime":{"label":"De extra reistijd kan oplopen tot 30 minuten.","shortLabel":"extra reistijd tot 30 min.","maximumDurationInMinutes":30},"alternativeTransport":{"label":"er rijden stopbussen","shortLabel":"er rijden stopbussen"},"advices":["Op dit moment is er nog geen exacte einddatum bekend."]}],"alternativeTransportTimespans":[{"start":"2024-02-01T04:00:00+0100","end":"2024-12-14T23:59:00+0100","alternativeTransport":{"location":[{"station":{"coordinate":{"lat":53.1844,"lng":7.19937},"countryCode":"NL","name":"Bad Nieuweschans","stationCode":"NSCH","uicCode":"8400457"},"description":"vanaf de voorzijde van het station"},{"station":{"coordinate":{"lat":53.16311,"lng":7.3442},"countryCode":"D","name":"Weener","stationCode":"WR","uicCode":"8021239"},"description":"vanaf de voorzijde van het station"},{"station":{"coordinate":{"lat":53.23165,"lng":7.465283},"countryCode":"D","name":"Leer (Ostfriesl)","stationCode":"LEER","uicCode":"8021091"},"description":"vanaf het busstation"}],"label":"Er rijden stopbussen tussen Bad Nieuweschans, Weener en Leer (Ostfriesl).","shortLabel":"er rijden stopbussen Bad Nieuweschans - Weener - Leer (Ostfr.)"}}]},{"type":"MAINTENANCE","id":"7004920","title":"Arnhem - Duisburg - Düsseldorf.","isActive":true,"local":false,"titleSections":[[{"type":"STATION","value":"Arnhem C."},{"type":"ICON","value":"MAINTENANCE"},{"type":"STATION","value":"Oberhausen Hbf"},{"type":"STATION","value":"Düsseldorf Hbf"}]],"registrationTime":"2024-05-13T12:32:50+0200","start":"2024-05-14T00:05:00+0200","releaseTime":"2024-05-13T12:32:50+0200","end":"2024-06-15T02:00:00+0200","period":"Dinsdag 14 mei 0:05 uur t/m zaterdag 15 juni 2:00 uur.","impact":{"value":4},"publicationSections":[{"section":{"stations":[{"coordinate":{"lat":51.9850006103516,"lng":5.89916658401489},"countryCode":"NL","name":"Arnhem Centraal","stationCode":"AH","uicCode":"8400071"},{"coordinate":{"lat":51.985279083252,"lng":5.91944456100464},"countryCode":"NL","name":"Arnhem Velperpoort","stationCode":"AHP","uicCode":"8400072"},{"coordinate":{"lat":51.96286,"lng":5.9695},"countryCode":"NL","name":"Westervoort","stationCode":"WTV","uicCode":"8400688"},{"coordinate":{"lat":51.9433326721191,"lng":6.01472234725952},"countryCode":"NL","name":"Duiven","stationCode":"DVN","uicCode":"8400193"},{"coordinate":{"lat":51.9230537414551,"lng":6.07194423675537},"countryCode":"NL","name":"Zevenaar","stationCode":"ZV","uicCode":"8400735"},{"coordinate":{"lat":51.8743,"lng":6.15417},"countryCode":"D","name":"Emmerich-Elten","stationCode":"EL","uicCode":"8033415"},{"coordinate":{"lat":51.834283,"lng":6.255718},"countryCode":"D","name":"Emmerich","stationCode":"EM","uicCode":"8010288"},{"coordinate":{"lat":51.655833,"lng":6.627222},"countryCode":"D","name":"Wesel","stationCode":"WESEL","uicCode":"8010275"},{"coordinate":{"lat":51.47512,"lng":6.852038},"countryCode":"D","name":"Oberhausen Hbf","stationCode":"OBERH","uicCode":"8010263"},{"coordinate":{"lat":51.4297785713316,"lng":6.77590370178222},"countryCode":"D","name":"Duisburg Hbf","stationCode":"DUISB","uicCode":"8010316"},{"coordinate":{"lat":51.292009,"lng":6.786836},"countryCode":"D","name":"Düsseldorf Flughafen","stationCode":"KDFFH","uicCode":"8039904"},{"coordinate":{"lat":51.220146,"lng":6.793137},"countryCode":"D","name":"Düsseldorf Hbf","stationCode":"DUSSEL","uicCode":"8008094"}],"direction":"BOTH"},"consequence":{"section":{"stations":[{"coordinate":{"lat":51.9850006103516,"lng":5.89916658401489},"countryCode":"NL","name":"Arnhem Centraal","stationCode":"AH","uicCode":"8400071"},{"coordinate":{"lat":51.985279083252,"lng":5.91944456100464},"countryCode":"NL","name":"Arnhem Velperpoort","stationCode":"AHP","uicCode":"8400072"},{"coordinate":{"lat":51.96286,"lng":5.9695},"countryCode":"NL","name":"Westervoort","stationCode":"WTV","uicCode":"8400688"},{"coordinate":{"lat":51.9433326721191,"lng":6.01472234725952},"countryCode":"NL","name":"Duiven","stationCode":"DVN","uicCode":"8400193"},{"coordinate":{"lat":51.9230537414551,"lng":6.07194423675537},"countryCode":"NL","name":"Zevenaar","stationCode":"ZV","uicCode":"8400735"},{"coordinate":{"lat":51.8743,"lng":6.15417},"countryCode":"D","name":"Emmerich-Elten","stationCode":"EL","uicCode":"8033415"},{"coordinate":{"lat":51.834283,"lng":6.255718},"countryCode":"D","name":"Emmerich","stationCode":"EM","uicCode":"8010288"},{"coordinate":{"lat":51.655833,"lng":6.627222},"countryCode":"D","name":"Wesel","stationCode":"WESEL","uicCode":"8010275"},{"coordinate":{"lat":51.47512,"lng":6.852038},"countryCode":"D","name":"Oberhausen Hbf","stationCode":"OBERH","uicCode":"8010263"}],"direction":"ONE_WAY"},"description":"rijden bussen","level":"LESS_TRAINS"},"sectionType":"NEIGHBORING_COUNTRY"}],"summaryAdditionalTravelTime":{"label":"De extra reistijd kan oplopen tot 90 minuten.","shortLabel":"extra reistijd tot 90 min.","maximumDurationInMinutes":90},"timespans":[{"start":"2024-05-14T00:05:00+0200","end":"2024-06-15T02:00:00+0200","period":"Dinsdag 14 mei 0:05 uur t/m zaterdag 15 juni 2:00 uur.","situation":{"label":"Door werkzaamheden: tussen Arnhem Centraal en Oberhausen Hbf rijden er bussen."},"cause":{"label":"werkzaamheden"},"additionalTravelTime":{"label":"De extra reistijd kan oplopen tot 90 minuten.","shortLabel":"extra reistijd tot 90 min.","maximumDurationInMinutes":90},"alternativeTransport":{"label":"er rijden stopbussen","shortLabel":"er rijden stopbussen"},"advices":["Dit kan gevolgen hebben voor uw reis. Plan uw reis in de (Internationale) app."]}],"alternativeTransportTimespans":[{"start":"2024-05-14T00:05:00+0200","end":"2024-06-15T02:00:00+0200","alternativeTransport":{"location":[{"station":{"coordinate":{"lat":51.9850006103516,"lng":5.89916658401489},"countryCode":"NL","name":"Arnhem Centraal","stationCode":"AH","uicCode":"8400071"},"description":"vanaf bushalte L of H"},{"station":{"coordinate":{"lat":51.9230537414551,"lng":6.07194423675537},"countryCode":"NL","name":"Zevenaar","stationCode":"ZV","uicCode":"8400735"},"description":"vanaf het stationsplein bij de Kiss & Ride plaatsen, aan beide zijden van de weg"},{"station":{"coordinate":{"lat":51.8743,"lng":6.15417},"countryCode":"D","name":"Emmerich-Elten","stationCode":"EL","uicCode":"8033415"},"description":"volg de aanwijzingen op het station"},{"station":{"coordinate":{"lat":51.834283,"lng":6.255718},"countryCode":"D","name":"Emmerich","stationCode":"EM","uicCode":"8010288"},"description":"volg de aanwijzingen op het station"}],"label":"Er rijden stopbussen tussen Arnhem Centraal, Zevenaar, Emmerich-Elten en Emmerich.","shortLabel":"er rijden stopbussen Arnhem C. - Zevenaar - Emmerich-Elten - Emmerich"}}]},{"type":"MAINTENANCE","id":"7004928","title":"Den Haag - Rotterdam.","isActive":true,"local":false,"titleSections":[[{"type":"STATION","value":"Den Haag C."},{"type":"ICON","value":"MAINTENANCE"},{"type":"STATION","value":"Den Haag HS"},{"type":"STATION","value":"Rotterdam C."}]],"registrationTime":"2024-05-24T12:08:04+0200","start":"2024-05-27T05:30:00+0200","releaseTime":"2024-05-24T12:08:04+0200","end":"2024-05-31T01:00:00+0200","period":"Maandag 27 mei 5:30 uur t/m vrijdag 31 mei 1:00 uur.","impact":{"value":2},"publicationSections":[{"section":{"stations":[{"coordinate":{"lat":52.0802764892578,"lng":4.32499980926514},"countryCode":"NL","name":"Den Haag Centraal","stationCode":"GVC","uicCode":"8400282"},{"coordinate":{"lat":52.0697212219238,"lng":4.32250022888184},"countryCode":"NL","name":"Den Haag HS","stationCode":"GV","uicCode":"8400280"},{"coordinate":{"lat":52.0538902282715,"lng":4.3086109161377},"countryCode":"NL","name":"Den Haag Moerwijk","stationCode":"GVMW","uicCode":"8400279"},{"coordinate":{"lat":52.039722442627,"lng":4.31916666030884},"countryCode":"NL","name":"Rijswijk","stationCode":"RSW","uicCode":"8400505"},{"coordinate":{"lat":52.0066680908203,"lng":4.35638904571533},"countryCode":"NL","name":"Delft","stationCode":"DT","uicCode":"8400170"},{"coordinate":{"lat":51.9908332824707,"lng":4.36472225189209},"countryCode":"NL","name":"Delft Campus","stationCode":"DTCP","uicCode":"8400166"},{"coordinate":{"lat":51.9212438128032,"lng":4.4089937210083},"countryCode":"NL","name":"Schiedam Centrum","stationCode":"SDM","uicCode":"8400553"},{"coordinate":{"lat":51.9249992370605,"lng":4.46888875961304},"countryCode":"NL","name":"Rotterdam Centraal","stationCode":"RTD","uicCode":"8400530"}],"direction":"BOTH"},"consequence":{"section":{"stations":[{"coordinate":{"lat":52.0802764892578,"lng":4.32499980926514},"countryCode":"NL","name":"Den Haag Centraal","stationCode":"GVC","uicCode":"8400282"},{"coordinate":{"lat":52.0697212219238,"lng":4.32250022888184},"countryCode":"NL","name":"Den Haag HS","stationCode":"GV","uicCode":"8400280"}],"direction":"ONE_WAY"},"description":"minder treinen","level":"LESS_TRAINS"},"sectionType":"NL"}],"summaryAdditionalTravelTime":{"label":"De extra reistijd is ongeveer 15 minuten.","shortLabel":"extra reistijd 15 min.","minimumDurationInMinutes":15,"maximumDurationInMinutes":15},"timespans":[{"start":"2024-05-27T05:30:00+0200","end":"2024-05-31T01:00:00+0200","period":"Maandag 27 mei 5:30 uur t/m vrijdag 31 mei 1:00 uur.","situation":{"label":"Door een defect wissel: tussen Den Haag Centraal en Den Haag HS rijden er minder treinen."},"cause":{"label":"defect wissel"},"additionalTravelTime":{"label":"De extra reistijd is ongeveer 15 minuten.","shortLabel":"extra reistijd 15 min.","minimumDurationInMinutes":15,"maximumDurationInMinutes":15},"advices":["Intercity's Den Haag C -Eindhoven C rijden niet tussen Den Haag Centraal en Den Haag HS. De reisplanner wordt dagelijks bijgewerkt."]}],"alternativeTransportTimespans":[]},{"type":"MAINTENANCE","id":"7004970","title":"Den Haag - Gouda Goverwelle.","isActive":true,"local":false,"titleSections":[[{"type":"STATION","value":"Den Haag C."},{"type":"ICON","value":"MAINTENANCE"},{"type":"STATION","value":"Goverwelle"}]],"registrationTime":"2024-05-28T21:16:21+0200","start":"2024-05-27T06:15:00+0200","releaseTime":"2024-05-28T21:16:21+0200","end":"2024-05-30T18:30:00+0200","period":"Maandag 27 mei 6:15 uur t/m donderdag 30 mei 18:30 uur.","impact":{"value":2},"publicationSections":[{"section":{"stations":[{"coordinate":{"lat":52.0802764892578,"lng":4.32499980926514},"countryCode":"NL","name":"Den Haag Centraal","stationCode":"GVC","uicCode":"8400282"},{"coordinate":{"lat":52.0666656494141,"lng":4.3594446182251},"countryCode":"NL","name":"Voorburg","stationCode":"VB","uicCode":"8400658"},{"coordinate":{"lat":52.0552787780762,"lng":4.39222240447998},"countryCode":"NL","name":"Den Haag Ypenburg","stationCode":"YPB","uicCode":"8400379"},{"coordinate":{"lat":52.0475006103516,"lng":4.47722244262695},"countryCode":"NL","name":"Zoetermeer","stationCode":"ZTM","uicCode":"8400741"},{"coordinate":{"lat":52.0463905334473,"lng":4.49277782440186},"countryCode":"NL","name":"Zoetermeer Oost","stationCode":"ZTMO","uicCode":"8400740"},{"coordinate":{"lat":52.042222,"lng":4.517222},"countryCode":"NL","name":"Lansingerland-Zoetermeer","stationCode":"LLZM","uicCode":"8400135"},{"coordinate":{"lat":52.0175018310547,"lng":4.70444440841675},"countryCode":"NL","name":"Gouda","stationCode":"GD","uicCode":"8400258"},{"coordinate":{"lat":52.0149993896484,"lng":4.7408332824707},"countryCode":"NL","name":"Gouda Goverwelle","stationCode":"GDG","uicCode":"8400257"}],"direction":"BOTH"},"consequence":{"section":{"stations":[{"coordinate":{"lat":52.0802764892578,"lng":4.32499980926514},"countryCode":"NL","name":"Den Haag Centraal","stationCode":"GVC","uicCode":"8400282"},{"coordinate":{"lat":52.0666656494141,"lng":4.3594446182251},"countryCode":"NL","name":"Voorburg","stationCode":"VB","uicCode":"8400658"},{"coordinate":{"lat":52.0552787780762,"lng":4.39222240447998},"countryCode":"NL","name":"Den Haag Ypenburg","stationCode":"YPB","uicCode":"8400379"},{"coordinate":{"lat":52.0475006103516,"lng":4.47722244262695},"countryCode":"NL","name":"Zoetermeer","stationCode":"ZTM","uicCode":"8400741"},{"coordinate":{"lat":52.0463905334473,"lng":4.49277782440186},"countryCode":"NL","name":"Zoetermeer Oost","stationCode":"ZTMO","uicCode":"8400740"},{"coordinate":{"lat":52.042222,"lng":4.517222},"countryCode":"NL","name":"Lansingerland-Zoetermeer","stationCode":"LLZM","uicCode":"8400135"},{"coordinate":{"lat":52.0175018310547,"lng":4.70444440841675},"countryCode":"NL","name":"Gouda","stationCode":"GD","uicCode":"8400258"},{"coordinate":{"lat":52.0149993896484,"lng":4.7408332824707},"countryCode":"NL","name":"Gouda Goverwelle","stationCode":"GDG","uicCode":"8400257"}],"direction":"ONE_WAY"},"description":"minder Sprinters","level":"LESS_TRAINS"},"sectionType":"NL"}],"summaryAdditionalTravelTime":{"label":"De extra reistijd is ongeveer 15 minuten.","shortLabel":"extra reistijd 15 min.","minimumDurationInMinutes":15,"maximumDurationInMinutes":15},"timespans":[{"start":"2024-05-27T06:15:00+0200","end":"2024-05-30T18:30:00+0200","period":"Maandag 27 mei 6:15 uur t/m donderdag 30 mei 18:30 uur.","situation":{"label":"Door een defect wissel: tussen Den Haag Centraal en Gouda Goverwelle rijden er minder Sprinters."},"cause":{"label":"defect wissel"},"additionalTravelTime":{"label":"De extra reistijd is ongeveer 15 minuten.","shortLabel":"extra reistijd 15 min.","minimumDurationInMinutes":15,"maximumDurationInMinutes":15},"advices":["Tussen 06:15 en 09:30 uur en tussen 15:15 en 18:30 uur rijden er minder Sprinters. De reisplanner wordt dagelijks aangepast."]}],"alternativeTransportTimespans":[]},{"type":"MAINTENANCE","id":"7004935","title":"Amsterdam Bijlmer ArenA.","isActive":true,"local":false,"titleSections":[[{"type":"STATION","value":"Bijlmer ArenA"}]],"registrationTime":"2024-05-14T14:35:43+0200","start":"2024-05-28T01:00:00+0200","releaseTime":"2024-05-14T14:35:43+0200","end":"2024-06-01T02:00:00+0200","period":"Dinsdag 28 mei 1:00 uur t/m zaterdag 1 juni 2:00 uur.","impact":{"value":3},"publicationSections":[{"section":{"stations":[{"coordinate":{"lat":52.3788871765137,"lng":4.90027761459351},"countryCode":"NL","name":"Amsterdam Centraal","stationCode":"ASD","uicCode":"8400058"},{"coordinate":{"lat":52.3605537414551,"lng":4.93111133575439},"countryCode":"NL","name":"Amsterdam Muiderpoort","stationCode":"ASDM","uicCode":"8400060"},{"coordinate":{"lat":52.3466682434082,"lng":4.91777801513672},"countryCode":"NL","name":"Amsterdam Amstel","stationCode":"ASA","uicCode":"8400057"},{"coordinate":{"lat":52.3233337402344,"lng":4.93638896942139},"countryCode":"NL","name":"Duivendrecht","stationCode":"DVD","uicCode":"8400194"},{"coordinate":{"lat":52.3122215270996,"lng":4.94694423675537},"countryCode":"NL","name":"Amsterdam Bijlmer ArenA","stationCode":"ASB","uicCode":"8400074"},{"coordinate":{"lat":52.29844,"lng":4.95972},"countryCode":"NL","name":"Amsterdam Holendrecht","stationCode":"ASHD","uicCode":"8400231"},{"coordinate":{"lat":52.2785,"lng":4.977},"countryCode":"NL","name":"Abcoude","stationCode":"AC","uicCode":"8400047"},{"coordinate":{"lat":52.17149,"lng":4.9906},"countryCode":"NL","name":"Breukelen","stationCode":"BKL","uicCode":"8400133"},{"coordinate":{"lat":52.1352767944336,"lng":5.03361129760742},"countryCode":"NL","name":"Maarssen","stationCode":"MAS","uicCode":"8400419"},{"coordinate":{"lat":52.103055,"lng":5.09},"countryCode":"NL","name":"Utrecht Zuilen","stationCode":"UTZL","uicCode":"8400613"},{"coordinate":{"lat":52.0888900756836,"lng":5.11027765274048},"countryCode":"NL","name":"Utrecht Centraal","stationCode":"UT","uicCode":"8400621"}],"direction":"BOTH"},"consequence":{"section":{"stations":[{"coordinate":{"lat":52.3122215270996,"lng":4.94694423675537},"countryCode":"NL","name":"Amsterdam Bijlmer ArenA","stationCode":"ASB","uicCode":"8400074"}],"direction":"ONE_WAY"},"description":"geen treinen","level":"LESS_TRAINS"},"sectionType":"NL"}],"timespans":[{"start":"2024-05-31T01:00:00+0200","end":"2024-05-31T02:00:00+0200","period":"Vrijdag 31 mei 1:00 uur t/m vrijdag 31 mei 2:00 uur.","situation":{"label":"Door werkzaamheden: van, via en naar Amsterdam Bijlmer ArenA rijden er geen treinen."},"cause":{"label":"werkzaamheden"},"additionalTravelTime":{"label":"De extra reistijd is ongeveer 0 minuten.","shortLabel":"extra reistijd 0 min.","minimumDurationInMinutes":0,"maximumDurationInMinutes":0},"advices":["Het nachtnet rijdt via een andere route en zal niet stoppen op Amsterdam Bijlmer ArenA."]},{"start":"2024-06-01T01:00:00+0200","end":"2024-06-01T02:00:00+0200","period":"Zaterdag 1 juni 1:00 uur t/m zaterdag 1 juni 2:00 uur.","situation":{"label":"Door werkzaamheden: van, via en naar Amsterdam Bijlmer ArenA rijden er geen treinen."},"cause":{"label":"werkzaamheden"},"additionalTravelTime":{"label":"De extra reistijd is ongeveer 0 minuten.","shortLabel":"extra reistijd 0 min.","minimumDurationInMinutes":0,"maximumDurationInMinutes":0},"advices":["Het nachtnet rijdt via een andere route en zal niet stoppen op Amsterdam Bijlmer ArenA."]}],"alternativeTransportTimespans":[]},{"type":"MAINTENANCE","id":"7005024","title":"Amsterdam - Enkhuizen.","isActive":true,"local":false,"titleSections":[[{"type":"STATION","value":"Amsterdam C."},{"type":"ICON","value":"MAINTENANCE"},{"type":"STATION","value":"Enkhuizen"}]],"registrationTime":"2024-05-28T11:15:52+0200","start":"2024-05-28T16:30:00+0200","releaseTime":"2024-05-28T11:15:52+0200","end":"2024-05-30T18:45:00+0200","period":"Dinsdag 28 mei 16:30 uur t/m donderdag 30 mei 18:45 uur.","impact":{"value":2},"publicationSections":[{"section":{"stations":[{"coordinate":{"lat":52.3788871765137,"lng":4.90027761459351},"countryCode":"NL","name":"Amsterdam Centraal","stationCode":"ASD","uicCode":"8400058"},{"coordinate":{"lat":52.3888893127441,"lng":4.83777761459351},"countryCode":"NL","name":"Amsterdam Sloterdijk","stationCode":"ASS","uicCode":"8400059"},{"coordinate":{"lat":52.4388885498047,"lng":4.81361103057861},"countryCode":"NL","name":"Zaandam","stationCode":"ZD","uicCode":"8400731"},{"coordinate":{"lat":52.4566650390625,"lng":4.82027769088745},"countryCode":"NL","name":"Zaandam Kogerveld","stationCode":"ZDK","uicCode":"8400728"},{"coordinate":{"lat":52.4965906325416,"lng":4.93562936782836},"countryCode":"NL","name":"Purmerend Weidevenne","stationCode":"PMW","uicCode":"8400499"},{"coordinate":{"lat":52.5030555725098,"lng":4.95361089706421},"countryCode":"NL","name":"Purmerend","stationCode":"PMR","uicCode":"8400508"},{"coordinate":{"lat":52.5113906860352,"lng":4.96833324432373},"countryCode":"NL","name":"Purmerend Overwhere","stationCode":"PMO","uicCode":"8400506"},{"coordinate":{"lat":52.6447219848633,"lng":5.05555534362793},"countryCode":"NL","name":"Hoorn","stationCode":"HN","uicCode":"8400337"},{"coordinate":{"lat":52.6536102294922,"lng":5.08555555343628},"countryCode":"NL","name":"Hoorn Kersenboogerd","stationCode":"HNK","uicCode":"8400336"},{"coordinate":{"lat":52.6905555725098,"lng":5.18388891220093},"countryCode":"NL","name":"Hoogkarspel","stationCode":"HKS","uicCode":"8400334"},{"coordinate":{"lat":52.6949996948242,"lng":5.23777770996094},"countryCode":"NL","name":"Bovenkarspel-Grootebroek","stationCode":"BKG","uicCode":"8400127"},{"coordinate":{"lat":52.6961097717285,"lng":5.25277757644653},"countryCode":"NL","name":"Bovenkarspel Flora","stationCode":"BKF","uicCode":"8400230"},{"coordinate":{"lat":52.6991653442383,"lng":5.28638887405396},"countryCode":"NL","name":"Enkhuizen","stationCode":"EKZ","uicCode":"8400210"}],"direction":"BOTH"},"consequence":{"section":{"stations":[{"coordinate":{"lat":52.3788871765137,"lng":4.90027761459351},"countryCode":"NL","name":"Amsterdam Centraal","stationCode":"ASD","uicCode":"8400058"},{"coordinate":{"lat":52.3888893127441,"lng":4.83777761459351},"countryCode":"NL","name":"Amsterdam Sloterdijk","stationCode":"ASS","uicCode":"8400059"},{"coordinate":{"lat":52.4388885498047,"lng":4.81361103057861},"countryCode":"NL","name":"Zaandam","stationCode":"ZD","uicCode":"8400731"},{"coordinate":{"lat":52.4566650390625,"lng":4.82027769088745},"countryCode":"NL","name":"Zaandam Kogerveld","stationCode":"ZDK","uicCode":"8400728"},{"coordinate":{"lat":52.4965906325416,"lng":4.93562936782836},"countryCode":"NL","name":"Purmerend Weidevenne","stationCode":"PMW","uicCode":"8400499"},{"coordinate":{"lat":52.5030555725098,"lng":4.95361089706421},"countryCode":"NL","name":"Purmerend","stationCode":"PMR","uicCode":"8400508"},{"coordinate":{"lat":52.5113906860352,"lng":4.96833324432373},"countryCode":"NL","name":"Purmerend Overwhere","stationCode":"PMO","uicCode":"8400506"},{"coordinate":{"lat":52.6447219848633,"lng":5.05555534362793},"countryCode":"NL","name":"Hoorn","stationCode":"HN","uicCode":"8400337"},{"coordinate":{"lat":52.6536102294922,"lng":5.08555555343628},"countryCode":"NL","name":"Hoorn Kersenboogerd","stationCode":"HNK","uicCode":"8400336"},{"coordinate":{"lat":52.6905555725098,"lng":5.18388891220093},"countryCode":"NL","name":"Hoogkarspel","stationCode":"HKS","uicCode":"8400334"},{"coordinate":{"lat":52.6949996948242,"lng":5.23777770996094},"countryCode":"NL","name":"Bovenkarspel-Grootebroek","stationCode":"BKG","uicCode":"8400127"},{"coordinate":{"lat":52.6961097717285,"lng":5.25277757644653},"countryCode":"NL","name":"Bovenkarspel Flora","stationCode":"BKF","uicCode":"8400230"},{"coordinate":{"lat":52.6991653442383,"lng":5.28638887405396},"countryCode":"NL","name":"Enkhuizen","stationCode":"EKZ","uicCode":"8400210"}],"direction":"ONE_WAY"},"description":"minder Intercity's","level":"LESS_TRAINS"},"sectionType":"NL"}],"summaryAdditionalTravelTime":{"label":"De extra reistijd is ongeveer 15 minuten.","shortLabel":"extra reistijd 15 min.","minimumDurationInMinutes":15,"maximumDurationInMinutes":15},"timespans":[{"start":"2024-05-28T16:30:00+0200","end":"2024-05-30T18:45:00+0200","period":"Dinsdag 28 mei 16:30 uur t/m donderdag 30 mei 18:45 uur.","situation":{"label":"Door werkzaamheden: tussen Amsterdam Centraal en Enkhuizen rijden er minder Intercity's."},"cause":{"label":"werkzaamheden"},"additionalTravelTime":{"label":"De extra reistijd is ongeveer 15 minuten.","shortLabel":"extra reistijd 15 min.","minimumDurationInMinutes":15,"maximumDurationInMinutes":15},"advices":["Tussen 06:45 en 08:30 uur en tussen 16.45 en 18.45 uur rijden er minder Intercity's."]}],"alternativeTransportTimespans":[]},{"type":"MAINTENANCE","id":"7005001","title":"Venlo - Mönchengladbach - Düsseldorf.","isActive":false,"local":false,"titleSections":[[{"type":"STATION","value":"Venlo"},{"type":"STATION","value":"Mönchengladbach"},{"type":"ICON","value":"MAINTENANCE"},{"type":"STATION","value":"Düsseldorf Hbf"}]],"registrationTime":"2024-05-23T11:20:28+0200","start":"2024-05-30T21:00:00+0200","releaseTime":"2024-05-23T11:20:28+0200","end":"2024-05-30T23:00:00+0200","period":"Donderdag 30 mei 21:00 uur t/m donderdag 30 mei 23:00 uur.","impact":{"value":3},"publicationSections":[{"section":{"stations":[{"coordinate":{"lat":51.3636093139648,"lng":6.17277765274048},"countryCode":"NL","name":"Venlo","stationCode":"VL","uicCode":"8400644"},{"coordinate":{"lat":51.327184,"lng":6.203225},"countryCode":"D","name":"Kaldenkirchen","stationCode":"KN","uicCode":"8015130"},{"coordinate":{"lat":51.294615,"lng":6.241174},"countryCode":"D","name":"Breyell","stationCode":"KBRY","uicCode":"8015129"},{"coordinate":{"lat":51.274323,"lng":6.274591},"countryCode":"D","name":"Boisheim","stationCode":"KBOI","uicCode":"8015128"},{"coordinate":{"lat":51.257149,"lng":6.33793},"countryCode":"D","name":"Dülken","stationCode":"KDUL","uicCode":"8015125"},{"coordinate":{"lat":51.25516,"lng":6.40388},"countryCode":"D","name":"Viersen","stationCode":"VIERS","uicCode":"8015122"},{"coordinate":{"lat":51.196583,"lng":6.446111},"countryCode":"D","name":"Mönchengladbach Hbf","stationCode":"MCGB","uicCode":"8015165"},{"coordinate":{"lat":51.20444,"lng":6.68468},"countryCode":"D","name":"Neuss Hbf","stationCode":"NEUSS","uicCode":"8015149"},{"coordinate":{"lat":51.220146,"lng":6.793137},"countryCode":"D","name":"Düsseldorf Hbf","stationCode":"DUSSEL","uicCode":"8008094"}],"direction":"BOTH"},"consequence":{"section":{"stations":[{"coordinate":{"lat":51.196583,"lng":6.446111},"countryCode":"D","name":"Mönchengladbach Hbf","stationCode":"MCGB","uicCode":"8015165"},{"coordinate":{"lat":51.20444,"lng":6.68468},"countryCode":"D","name":"Neuss Hbf","stationCode":"NEUSS","uicCode":"8015149"},{"coordinate":{"lat":51.220146,"lng":6.793137},"countryCode":"D","name":"Düsseldorf Hbf","stationCode":"DUSSEL","uicCode":"8008094"}],"direction":"ONE_WAY"},"description":"rijden bussen","level":"LESS_TRAINS"},"sectionType":"NEIGHBORING_COUNTRY"}],"summaryAdditionalTravelTime":{"label":"De extra reistijd kan oplopen tot 30 minuten.","shortLabel":"extra reistijd tot 30 min.","maximumDurationInMinutes":30},"timespans":[{"start":"2024-05-30T21:00:00+0200","end":"2024-05-30T23:00:00+0200","period":"Donderdag 30 mei 21:00 uur t/m donderdag 30 mei 23:00 uur.","situation":{"label":"Door werkzaamheden: tussen Mönchengladbach Hbf en Düsseldorf Hbf rijden er bussen."},"cause":{"label":"werkzaamheden"},"additionalTravelTime":{"label":"De extra reistijd kan oplopen tot 30 minuten.","shortLabel":"extra reistijd tot 30 min.","maximumDurationInMinutes":30},"alternativeTransport":{"label":"er rijden stopbussen","shortLabel":"er rijden stopbussen"},"advices":["Dit kan gevolgen hebben voor uw reis. Plan uw reis in de (Internationale) app."]}],"alternativeTransportTimespans":[{"start":"2024-05-30T21:00:00+0200","end":"2024-05-30T23:00:00+0200","alternativeTransport":{"location":[{"station":{"coordinate":{"lat":51.196583,"lng":6.446111},"countryCode":"D","name":"Mönchengladbach Hbf","stationCode":"MCGB","uicCode":"8015165"},"description":"volg de aanwijzingen op het station"},{"station":{"coordinate":{"lat":51.20444,"lng":6.68468},"countryCode":"D","name":"Neuss Hbf","stationCode":"NEUSS","uicCode":"8015149"},"description":"volg de aanwijzingen op het station"},{"station":{"coordinate":{"lat":51.220146,"lng":6.793137},"countryCode":"D","name":"Düsseldorf Hbf","stationCode":"DUSSEL","uicCode":"8008094"},"description":"volg de aanwijzingen op het station"}],"label":"Er rijden stopbussen tussen Mönchengladbach Hbf, Neuss Hbf en Düsseldorf Hbf.","shortLabel":"er rijden stopbussen Mönchengladbach - Neuss Hbf - Düsseldorf Hbf"}}]},{"type":"MAINTENANCE","id":"7004966","title":"Lelystad - Zwolle.","isActive":false,"local":false,"titleSections":[[{"type":"STATION","value":"Lelystad C."},{"type":"STATION","value":"Kampen Zuid"},{"type":"ICON","value":"MAINTENANCE"},{"type":"STATION","value":"Zwolle"}]],"registrationTime":"2024-05-15T20:52:07+0200","start":"2024-05-30T23:30:00+0200","releaseTime":"2024-05-15T20:52:07+0200","end":"2024-05-31T02:00:00+0200","period":"Donderdag 30 mei 23:30 uur t/m vrijdag 31 mei 2:00 uur.","impact":{"value":2},"publicationSections":[{"section":{"stations":[{"coordinate":{"lat":52.5077781677246,"lng":5.47277784347534},"countryCode":"NL","name":"Lelystad Centrum","stationCode":"LLS","uicCode":"8400394"},{"coordinate":{"lat":52.5344,"lng":5.72089},"countryCode":"NL","name":"Dronten","stationCode":"DRON","uicCode":"8400198"},{"coordinate":{"lat":52.5331,"lng":5.91309},"countryCode":"NL","name":"Kampen Zuid","stationCode":"KPNZ","uicCode":"8400360"},{"coordinate":{"lat":52.5047225952148,"lng":6.09194421768188},"countryCode":"NL","name":"Zwolle","stationCode":"ZL","uicCode":"8400747"}],"direction":"ONE_WAY"},"consequence":{"section":{"stations":[{"coordinate":{"lat":52.5331,"lng":5.91309},"countryCode":"NL","name":"Kampen Zuid","stationCode":"KPNZ","uicCode":"8400360"},{"coordinate":{"lat":52.5047225952148,"lng":6.09194421768188},"countryCode":"NL","name":"Zwolle","stationCode":"ZL","uicCode":"8400747"}],"direction":"ONE_WAY"},"description":"een bus","level":"LESS_TRAINS"},"sectionType":"NL"}],"summaryAdditionalTravelTime":{"label":"De extra reistijd is ongeveer 15 minuten.","shortLabel":"extra reistijd 15 min.","minimumDurationInMinutes":15,"maximumDurationInMinutes":15},"timespans":[{"start":"2024-05-30T23:30:00+0200","end":"2024-05-31T02:00:00+0200","period":"Donderdag 30 mei 23:30 uur t/m vrijdag 31 mei 2:00 uur.","situation":{"label":"Door werkzaamheden: van Kampen Zuid naar Zwolle rijdt een bus."},"cause":{"label":"werkzaamheden"},"additionalTravelTime":{"label":"De extra reistijd is ongeveer 15 minuten.","shortLabel":"extra reistijd 15 min.","minimumDurationInMinutes":15,"maximumDurationInMinutes":15},"alternativeTransport":{"label":"er rijden stopbussen","shortLabel":"er rijden stopbussen"},"advices":[]}],"alternativeTransportTimespans":[{"start":"2024-05-30T23:40:00+0200","end":"2024-05-31T00:10:00+0200","alternativeTransport":{"location":[{"station":{"coordinate":{"lat":52.5331,"lng":5.91309},"countryCode":"NL","name":"Kampen Zuid","stationCode":"KPNZ","uicCode":"8400360"},"description":"vanaf de voorzijde van het station"},{"station":{"coordinate":{"lat":52.5047225952148,"lng":6.09194421768188},"countryCode":"NL","name":"Zwolle","stationCode":"ZL","uicCode":"8400747"},"description":"volg de aanwijzingen op het station"}],"label":"Er rijden stopbussen van Kampen Zuid naar Zwolle.","shortLabel":"er rijden stopbussen Kampen Zuid -> Zwolle"}}]},{"type":"MAINTENANCE","id":"7004937","title":"Arnhem - Zutphen.","isActive":false,"local":false,"titleSections":[[{"type":"STATION","value":"Arnhem C."},{"type":"ICON","value":"MAINTENANCE"},{"type":"STATION","value":"Zutphen"}]],"registrationTime":"2024-05-23T14:50:47+0200","start":"2024-05-31T04:00:00+0200","releaseTime":"2024-05-23T14:50:47+0200","end":"2024-06-03T02:00:00+0200","period":"Vrijdag 31 mei 4:00 uur t/m maandag 3 juni 2:00 uur.","impact":{"value":4},"publicationSections":[{"section":{"stations":[{"coordinate":{"lat":51.9850006103516,"lng":5.89916658401489},"countryCode":"NL","name":"Arnhem Centraal","stationCode":"AH","uicCode":"8400071"},{"coordinate":{"lat":51.985279083252,"lng":5.91944456100464},"countryCode":"NL","name":"Arnhem Velperpoort","stationCode":"AHP","uicCode":"8400072"},{"coordinate":{"lat":51.9880561828613,"lng":5.94388866424561},"countryCode":"NL","name":"Arnhem Presikhaaf","stationCode":"AHPR","uicCode":"8400075"},{"coordinate":{"lat":51.9947204589844,"lng":5.98027801513672},"countryCode":"NL","name":"Velp","stationCode":"VP","uicCode":"8400640"},{"coordinate":{"lat":52.0101,"lng":6.0314},"countryCode":"NL","name":"Rheden","stationCode":"RH","uicCode":"8400519"},{"coordinate":{"lat":52.0449981689453,"lng":6.10305547714233},"countryCode":"NL","name":"Dieren","stationCode":"DR","uicCode":"8400176"},{"coordinate":{"lat":52.0911102294922,"lng":6.14694452285767},"countryCode":"NL","name":"Brummen","stationCode":"BMN","uicCode":"8400136"},{"coordinate":{"lat":52.1452789306641,"lng":6.19416666030884},"countryCode":"NL","name":"Zutphen","stationCode":"ZP","uicCode":"8400744"}],"direction":"BOTH"},"consequence":{"section":{"stations":[{"coordinate":{"lat":51.9850006103516,"lng":5.89916658401489},"countryCode":"NL","name":"Arnhem Centraal","stationCode":"AH","uicCode":"8400071"},{"coordinate":{"lat":51.985279083252,"lng":5.91944456100464},"countryCode":"NL","name":"Arnhem Velperpoort","stationCode":"AHP","uicCode":"8400072"},{"coordinate":{"lat":51.9880561828613,"lng":5.94388866424561},"countryCode":"NL","name":"Arnhem Presikhaaf","stationCode":"AHPR","uicCode":"8400075"},{"coordinate":{"lat":51.9947204589844,"lng":5.98027801513672},"countryCode":"NL","name":"Velp","stationCode":"VP","uicCode":"8400640"},{"coordinate":{"lat":52.0101,"lng":6.0314},"countryCode":"NL","name":"Rheden","stationCode":"RH","uicCode":"8400519"},{"coordinate":{"lat":52.0449981689453,"lng":6.10305547714233},"countryCode":"NL","name":"Dieren","stationCode":"DR","uicCode":"8400176"},{"coordinate":{"lat":52.0911102294922,"lng":6.14694452285767},"countryCode":"NL","name":"Brummen","stationCode":"BMN","uicCode":"8400136"},{"coordinate":{"lat":52.1452789306641,"lng":6.19416666030884},"countryCode":"NL","name":"Zutphen","stationCode":"ZP","uicCode":"8400744"}],"direction":"ONE_WAY"},"description":"rijden bussen","level":"LESS_TRAINS"},"sectionType":"NL"}],"summaryAdditionalTravelTime":{"label":"De extra reistijd is ongeveer 30 minuten.","shortLabel":"extra reistijd 30 min.","minimumDurationInMinutes":30,"maximumDurationInMinutes":30},"timespans":[{"start":"2024-05-31T04:00:00+0200","end":"2024-06-03T02:00:00+0200","period":"Vrijdag 31 mei 4:00 uur t/m maandag 3 juni 2:00 uur.","situation":{"label":"Door werkzaamheden: tussen Arnhem Centraal en Zutphen rijden er bussen."},"cause":{"label":"werkzaamheden"},"additionalTravelTime":{"label":"De extra reistijd is ongeveer 30 minuten.","shortLabel":"extra reistijd 30 min.","minimumDurationInMinutes":30,"maximumDurationInMinutes":30},"alternativeTransport":{"label":"er rijden stop- en snelbussen","shortLabel":"er rijden stop- en snelbussen"},"advices":["Op vrijdag 31 mei verwacht NS drukte in de bussen. Mijd de spitsuren en ga eerder of later op reis.","tussen 's-Hertogenbosch en Deventer reis via Utrecht C."]}],"alternativeTransportTimespans":[{"start":"2024-05-31T04:00:00+0200","end":"2024-06-03T02:00:00+0200","alternativeTransport":{"location":[{"station":{"coordinate":{"lat":51.9850006103516,"lng":5.89916658401489},"countryCode":"NL","name":"Arnhem Centraal","stationCode":"AH","uicCode":"8400071"},"description":"vanaf bushalte L of H"},{"station":{"coordinate":{"lat":52.0449981689453,"lng":6.10305547714233},"countryCode":"NL","name":"Dieren","stationCode":"DR","uicCode":"8400176"},"description":"vanaf het OV-busstation"}],"label":"Er rijden snelbussen tussen Arnhem Centraal en Dieren.","shortLabel":"er rijden snelbussen Arnhem C. - Dieren"}},{"start":"2024-05-31T04:00:00+0200","end":"2024-06-03T02:00:00+0200","alternativeTransport":{"location":[{"station":{"coordinate":{"lat":51.9850006103516,"lng":5.89916658401489},"countryCode":"NL","name":"Arnhem Centraal","stationCode":"AH","uicCode":"8400071"},"description":"vanaf bushalte L of H"},{"station":{"coordinate":{"lat":52.1452789306641,"lng":6.19416666030884},"countryCode":"NL","name":"Zutphen","stationCode":"ZP","uicCode":"8400744"},"description":"vanaf de achterzijde van het station"}],"label":"Er rijden snelbussen tussen Arnhem Centraal en Zutphen.","shortLabel":"er rijden snelbussen Arnhem C. - Zutphen"}},{"start":"2024-05-31T04:00:00+0200","end":"2024-06-03T02:00:00+0200","alternativeTransport":{"location":[{"station":{"coordinate":{"lat":51.9850006103516,"lng":5.89916658401489},"countryCode":"NL","name":"Arnhem Centraal","stationCode":"AH","uicCode":"8400071"},"description":"vanaf bushalte L of H"},{"station":{"coordinate":{"lat":51.9880561828613,"lng":5.94388866424561},"countryCode":"NL","name":"Arnhem Presikhaaf","stationCode":"AHPR","uicCode":"8400075"},"description":"vanaf de NS Bushalte"},{"station":{"coordinate":{"lat":51.9947204589844,"lng":5.98027801513672},"countryCode":"NL","name":"Velp","stationCode":"VP","uicCode":"8400640"},"description":"vanaf de NS Bushalte"},{"station":{"coordinate":{"lat":52.0101,"lng":6.0314},"countryCode":"NL","name":"Rheden","stationCode":"RH","uicCode":"8400519"},"description":"vanaf de bushalte"},{"station":{"coordinate":{"lat":52.0449981689453,"lng":6.10305547714233},"countryCode":"NL","name":"Dieren","stationCode":"DR","uicCode":"8400176"},"description":"vanaf het OV-busstation"}],"label":"Er rijden stopbussen tussen Arnhem Centraal, Arnhem Presikhaaf, Velp, Rheden en Dieren.","shortLabel":"er rijden stopbussen Arnhem C. - Presikhaaf - Velp - Rheden - Dieren"}},{"start":"2024-05-31T04:00:00+0200","end":"2024-06-03T02:00:00+0200","alternativeTransport":{"location":[{"station":{"coordinate":{"lat":52.0449981689453,"lng":6.10305547714233},"countryCode":"NL","name":"Dieren","stationCode":"DR","uicCode":"8400176"},"description":"vanaf het OV-busstation"},{"station":{"coordinate":{"lat":52.0911102294922,"lng":6.14694452285767},"countryCode":"NL","name":"Brummen","stationCode":"BMN","uicCode":"8400136"},"description":"vanaf de NS Bushalte"},{"station":{"coordinate":{"lat":52.1452789306641,"lng":6.19416666030884},"countryCode":"NL","name":"Zutphen","stationCode":"ZP","uicCode":"8400744"},"description":"vanaf de achterzijde van het station"}],"label":"Er rijden stopbussen tussen Dieren, Brummen en Zutphen.","shortLabel":"er rijden stopbussen Dieren - Brummen - Zutphen"}}]},{"type":"MAINTENANCE","id":"7005025","title":"Amsterdam - Zaandam - Alkmaar.","isActive":false,"local":false,"titleSections":[[{"type":"STATION","value":"Amsterdam C."},{"type":"ICON","value":"MAINTENANCE"},{"type":"STATION","value":"Alkmaar"}]],"registrationTime":"2024-05-28T11:22:24+0200","start":"2024-05-31T14:30:00+0200","releaseTime":"2024-05-28T11:22:24+0200","end":"2024-05-31T20:00:00+0200","period":"Vrijdag 31 mei 14:30 uur t/m vrijdag 31 mei 20:00 uur.","impact":{"value":2},"publicationSections":[{"section":{"stations":[{"coordinate":{"lat":52.3788871765137,"lng":4.90027761459351},"countryCode":"NL","name":"Amsterdam Centraal","stationCode":"ASD","uicCode":"8400058"},{"coordinate":{"lat":52.3888893127441,"lng":4.83777761459351},"countryCode":"NL","name":"Amsterdam Sloterdijk","stationCode":"ASS","uicCode":"8400059"},{"coordinate":{"lat":52.4388885498047,"lng":4.81361103057861},"countryCode":"NL","name":"Zaandam","stationCode":"ZD","uicCode":"8400731"},{"coordinate":{"lat":52.458610534668,"lng":4.80555534362793},"countryCode":"NL","name":"Koog aan de Zaan","stationCode":"KZ","uicCode":"8400363"},{"coordinate":{"lat":52.469165802002,"lng":4.80499982833862},"countryCode":"NL","name":"Zaandijk Zaanse Schans","stationCode":"ZZS","uicCode":"8400364"},{"coordinate":{"lat":52.4891662597656,"lng":4.79222202301025},"countryCode":"NL","name":"Wormerveer","stationCode":"WM","uicCode":"8400707"},{"coordinate":{"lat":52.49511,"lng":4.75417},"countryCode":"NL","name":"Krommenie-Assendelft","stationCode":"KMA","uicCode":"8400368"},{"coordinate":{"lat":52.5216674804687,"lng":4.70166683197022},"countryCode":"NL","name":"Uitgeest","stationCode":"UTG","uicCode":"8400615"},{"coordinate":{"lat":52.5458335876465,"lng":4.65861129760742},"countryCode":"NL","name":"Castricum","stationCode":"CAS","uicCode":"8400151"},{"coordinate":{"lat":52.5994453430176,"lng":4.70055532455444},"countryCode":"NL","name":"Heiloo","stationCode":"HLO","uicCode":"8400309"},{"coordinate":{"lat":52.6377792358398,"lng":4.73972225189209},"countryCode":"NL","name":"Alkmaar","stationCode":"AMR","uicCode":"8400050"}],"direction":"BOTH"},"consequence":{"section":{"stations":[{"coordinate":{"lat":52.3788871765137,"lng":4.90027761459351},"countryCode":"NL","name":"Amsterdam Centraal","stationCode":"ASD","uicCode":"8400058"},{"coordinate":{"lat":52.3888893127441,"lng":4.83777761459351},"countryCode":"NL","name":"Amsterdam Sloterdijk","stationCode":"ASS","uicCode":"8400059"},{"coordinate":{"lat":52.4388885498047,"lng":4.81361103057861},"countryCode":"NL","name":"Zaandam","stationCode":"ZD","uicCode":"8400731"},{"coordinate":{"lat":52.458610534668,"lng":4.80555534362793},"countryCode":"NL","name":"Koog aan de Zaan","stationCode":"KZ","uicCode":"8400363"},{"coordinate":{"lat":52.469165802002,"lng":4.80499982833862},"countryCode":"NL","name":"Zaandijk Zaanse Schans","stationCode":"ZZS","uicCode":"8400364"},{"coordinate":{"lat":52.4891662597656,"lng":4.79222202301025},"countryCode":"NL","name":"Wormerveer","stationCode":"WM","uicCode":"8400707"},{"coordinate":{"lat":52.49511,"lng":4.75417},"countryCode":"NL","name":"Krommenie-Assendelft","stationCode":"KMA","uicCode":"8400368"},{"coordinate":{"lat":52.5216674804687,"lng":4.70166683197022},"countryCode":"NL","name":"Uitgeest","stationCode":"UTG","uicCode":"8400615"},{"coordinate":{"lat":52.5458335876465,"lng":4.65861129760742},"countryCode":"NL","name":"Castricum","stationCode":"CAS","uicCode":"8400151"},{"coordinate":{"lat":52.5994453430176,"lng":4.70055532455444},"countryCode":"NL","name":"Heiloo","stationCode":"HLO","uicCode":"8400309"},{"coordinate":{"lat":52.6377792358398,"lng":4.73972225189209},"countryCode":"NL","name":"Alkmaar","stationCode":"AMR","uicCode":"8400050"}],"direction":"ONE_WAY"},"description":"minder Intercity's","level":"LESS_TRAINS"},"sectionType":"NL"}],"summaryAdditionalTravelTime":{"label":"De extra reistijd is ongeveer 15 minuten.","shortLabel":"extra reistijd 15 min.","minimumDurationInMinutes":15,"maximumDurationInMinutes":15},"timespans":[{"start":"2024-05-31T14:30:00+0200","end":"2024-05-31T20:00:00+0200","period":"Vrijdag 31 mei 14:30 uur t/m vrijdag 31 mei 20:00 uur.","situation":{"label":"Door werkzaamheden: tussen Amsterdam Centraal en Alkmaar rijden er minder Intercity's."},"cause":{"label":"werkzaamheden"},"additionalTravelTime":{"label":"De extra reistijd is ongeveer 15 minuten.","shortLabel":"extra reistijd 15 min.","minimumDurationInMinutes":15,"maximumDurationInMinutes":15},"advices":[]}],"alternativeTransportTimespans":[]},{"type":"MAINTENANCE","id":"7004895","title":"Amsterdam - Haarlem.","isActive":false,"local":false,"titleSections":[[{"type":"STATION","value":"Amsterdam C."},{"type":"ICON","value":"MAINTENANCE"},{"type":"STATION","value":"Haarlem"}]],"registrationTime":"2024-04-24T12:25:21+0200","start":"2024-06-01T01:15:00+0200","releaseTime":"2024-04-24T12:25:21+0200","end":"2024-06-01T04:45:00+0200","period":"Zaterdag 1 juni 1:15 uur t/m zaterdag 1 juni 4:45 uur.","impact":{"value":3},"publicationSections":[{"section":{"stations":[{"coordinate":{"lat":52.3788871765137,"lng":4.90027761459351},"countryCode":"NL","name":"Amsterdam Centraal","stationCode":"ASD","uicCode":"8400058"},{"coordinate":{"lat":52.3888893127441,"lng":4.83777761459351},"countryCode":"NL","name":"Amsterdam Sloterdijk","stationCode":"ASS","uicCode":"8400059"},{"coordinate":{"lat":52.385935,"lng":4.747165},"countryCode":"NL","name":"Halfweg-Zwanenburg","stationCode":"HWZB","uicCode":"8400400"},{"coordinate":{"lat":52.3827781677246,"lng":4.67305564880371},"countryCode":"NL","name":"Haarlem Spaarnwoude","stationCode":"HLMS","uicCode":"8400270"},{"coordinate":{"lat":52.3877792358398,"lng":4.63833332061768},"countryCode":"NL","name":"Haarlem","stationCode":"HLM","uicCode":"8400285"}],"direction":"BOTH"},"consequence":{"section":{"stations":[{"coordinate":{"lat":52.3788871765137,"lng":4.90027761459351},"countryCode":"NL","name":"Amsterdam Centraal","stationCode":"ASD","uicCode":"8400058"},{"coordinate":{"lat":52.3888893127441,"lng":4.83777761459351},"countryCode":"NL","name":"Amsterdam Sloterdijk","stationCode":"ASS","uicCode":"8400059"},{"coordinate":{"lat":52.385935,"lng":4.747165},"countryCode":"NL","name":"Halfweg-Zwanenburg","stationCode":"HWZB","uicCode":"8400400"},{"coordinate":{"lat":52.3827781677246,"lng":4.67305564880371},"countryCode":"NL","name":"Haarlem Spaarnwoude","stationCode":"HLMS","uicCode":"8400270"},{"coordinate":{"lat":52.3877792358398,"lng":4.63833332061768},"countryCode":"NL","name":"Haarlem","stationCode":"HLM","uicCode":"8400285"}],"direction":"ONE_WAY"},"description":"rijden bussen","level":"LESS_TRAINS"},"sectionType":"NL"}],"summaryAdditionalTravelTime":{"label":"De extra reistijd is ongeveer 15 minuten.","shortLabel":"extra reistijd 15 min.","minimumDurationInMinutes":15,"maximumDurationInMinutes":15},"timespans":[{"start":"2024-06-01T01:15:00+0200","end":"2024-06-01T04:45:00+0200","period":"Zaterdag 1 juni 1:15 uur t/m zaterdag 1 juni 4:45 uur.","situation":{"label":"Door werkzaamheden: tussen Amsterdam Centraal en Haarlem rijden er bussen."},"cause":{"label":"werkzaamheden"},"additionalTravelTime":{"label":"De extra reistijd is ongeveer 15 minuten.","shortLabel":"extra reistijd 15 min.","minimumDurationInMinutes":15,"maximumDurationInMinutes":15},"alternativeTransport":{"label":"er rijden stop- en snelbussen","shortLabel":"er rijden stop- en snelbussen"},"advices":[]}],"alternativeTransportTimespans":[{"start":"2024-06-01T01:15:00+0200","end":"2024-06-01T02:25:00+0200","alternativeTransport":{"location":[{"station":{"coordinate":{"lat":52.3788871765137,"lng":4.90027761459351},"countryCode":"NL","name":"Amsterdam Centraal","stationCode":"ASD","uicCode":"8400058"},"description":"vanaf het busstation"},{"station":{"coordinate":{"lat":52.3888893127441,"lng":4.83777761459351},"countryCode":"NL","name":"Amsterdam Sloterdijk","stationCode":"ASS","uicCode":"8400059"},"description":"vanaf de voorzijde van het station"},{"station":{"coordinate":{"lat":52.385935,"lng":4.747165},"countryCode":"NL","name":"Halfweg-Zwanenburg","stationCode":"HWZB","uicCode":"8400400"},"description":"vanaf de bushalte"},{"station":{"coordinate":{"lat":52.3827781677246,"lng":4.67305564880371},"countryCode":"NL","name":"Haarlem Spaarnwoude","stationCode":"HLMS","uicCode":"8400270"},"description":"vanaf de bushalte"},{"station":{"coordinate":{"lat":52.3877792358398,"lng":4.63833332061768},"countryCode":"NL","name":"Haarlem","stationCode":"HLM","uicCode":"8400285"},"description":"volg de aanwijzingen op het station"}],"label":"Er rijden stopbussen van Amsterdam Centraal, Amsterdam Sloterdijk, Halfweg-Zwanenburg, Haarlem Spaarnwoude naar Haarlem.","shortLabel":"er rijden stopbussen Amsterdam C. -> Sloterdijk -> Halfweg-Zw. -> Spaarnwoude -> Haarlem"}},{"start":"2024-06-01T02:10:00+0200","end":"2024-06-01T04:45:00+0200","alternativeTransport":{"location":[{"station":{"coordinate":{"lat":52.3788871765137,"lng":4.90027761459351},"countryCode":"NL","name":"Amsterdam Centraal","stationCode":"ASD","uicCode":"8400058"},"description":"vanaf het busstation"},{"station":{"coordinate":{"lat":52.3877792358398,"lng":4.63833332061768},"countryCode":"NL","name":"Haarlem","stationCode":"HLM","uicCode":"8400285"},"description":"vanaf de Jansweg"}],"label":"Er rijden snelbussen tussen Amsterdam Centraal en Haarlem.","shortLabel":"er rijden snelbussen Amsterdam C. - Haarlem"}}]},{"type":"MAINTENANCE","id":"7004551","title":"Roosendaal - Antwerpen - Puurs.","isActive":false,"local":false,"titleSections":[[{"type":"STATION","value":"Roosendaal"},{"type":"STATION","value":"Kapellen"},{"type":"ICON","value":"MAINTENANCE"},{"type":"STATION","value":"Antwerpen-C."},{"type":"STATION","value":"Puurs"}]],"registrationTime":"2024-05-13T15:33:50+0200","start":"2024-06-01T04:00:00+0200","releaseTime":"2024-05-13T15:33:50+0200","end":"2024-06-03T02:00:00+0200","period":"Zaterdag 1 juni 4:00 uur t/m maandag 3 juni 2:00 uur.","impact":{"value":2},"publicationSections":[{"section":{"stations":[{"coordinate":{"lat":51.5402793884277,"lng":4.45833349227905},"countryCode":"NL","name":"Roosendaal","stationCode":"RSD","uicCode":"8400526"},{"coordinate":{"lat":51.46261,"lng":4.45129},"countryCode":"B","name":"Essen","stationCode":"ESN","uicCode":"8821402"},{"coordinate":{"lat":51.4277061,"lng":4.4633962},"countryCode":"B","name":"Wildert","stationCode":"GWD","uicCode":"8821436"},{"coordinate":{"lat":51.3909989,"lng":4.4668202},"countryCode":"B","name":"Kalmthout","stationCode":"FKTH","uicCode":"8821444"},{"coordinate":{"lat":51.37867,"lng":4.46722},"countryCode":"B","name":"Kijkuit","stationCode":"GKT","uicCode":"8821451"},{"coordinate":{"lat":51.364828,"lng":4.4604308},"countryCode":"B","name":"Heide (B)","stationCode":"MID","uicCode":"8821519"},{"coordinate":{"lat":51.31362,"lng":4.43262},"countryCode":"B","name":"Kapellen","stationCode":"LKP","uicCode":"8821535"},{"coordinate":{"lat":51.21686,"lng":4.421242},"countryCode":"B","name":"Antwerpen-Centraal","stationCode":"ATW","uicCode":"8821006"},{"coordinate":{"lat":51.07716,"lng":4.28273},"countryCode":"B","name":"Puurs","stationCode":"FRP","uicCode":"8822715"}],"direction":"BOTH"},"consequence":{"section":{"stations":[{"coordinate":{"lat":51.31362,"lng":4.43262},"countryCode":"B","name":"Kapellen","stationCode":"LKP","uicCode":"8821535"},{"coordinate":{"lat":51.21686,"lng":4.421242},"countryCode":"B","name":"Antwerpen-Centraal","stationCode":"ATW","uicCode":"8821006"}],"direction":"ONE_WAY"},"description":"aangepaste internationale dienstregeling","level":"LESS_TRAINS"},"sectionType":"NEIGHBORING_COUNTRY"}],"summaryAdditionalTravelTime":{"label":"De extra reistijd is ongeveer 30 minuten.","shortLabel":"extra reistijd 30 min.","minimumDurationInMinutes":30,"maximumDurationInMinutes":30},"timespans":[{"start":"2024-06-01T04:00:00+0200","end":"2024-06-03T02:00:00+0200","period":"Zaterdag 1 juni 4:00 uur t/m maandag 3 juni 2:00 uur.","situation":{"label":"Door werkzaamheden: tussen Kapellen en Antwerpen-Centraal is de internationale dienstregeling aangepast."},"cause":{"label":"werkzaamheden"},"additionalTravelTime":{"label":"De extra reistijd is ongeveer 30 minuten.","shortLabel":"extra reistijd 30 min.","minimumDurationInMinutes":30,"maximumDurationInMinutes":30},"alternativeTransport":{"label":"er rijden bussen","shortLabel":"er rijden bussen"},"advices":["Er rijden bussen tussen Kapellen en Antwerpen Noorderdokken. Treinen Roosendaal Antwerpen C rijden, stoppen echter niet in St-Mariaburg en Ekeren."]}],"alternativeTransportTimespans":[{"start":"2024-06-01T04:00:00+0200","end":"2024-06-03T02:00:00+0200","alternativeTransport":{"location":[{"station":{"coordinate":{"lat":51.31362,"lng":4.43262},"countryCode":"B","name":"Kapellen","stationCode":"LKP","uicCode":"8821535"},"description":"volg de aanwijzingen op het station"},{"station":{"coordinate":{"lat":51.29126,"lng":4.43495},"countryCode":"B","name":"Sint-Mariaburg","stationCode":"MARIA","uicCode":"8821543"},"description":"volg de aanwijzingen op het station"},{"station":{"coordinate":{"lat":51.2816099,"lng":4.4341227},"countryCode":"B","name":"Ekeren","stationCode":"LKR","uicCode":"8821071"},"description":"volg de aanwijzingen op het station"},{"station":{"coordinate":{"lat":51.261686,"lng":4.4274315},"countryCode":"B","name":"Antwerpen-Noorderdokken","stationCode":"ANDD","uicCode":"8821089"},"description":"volg de aanwijzingen op het station"}],"label":"Er rijden bussen tussen Kapellen, Sint-Mariaburg, Ekeren en Antwerpen-Noorderdokken.","shortLabel":"er rijden bussen Kapellen - Sint-Mariaburg - Ekeren - Antw-N'dokken"}}]},{"type":"MAINTENANCE","id":"7004901","title":"Amsterdam - Utrecht; Amsterdam - Zaandam - Alkmaar.","isActive":false,"local":false,"titleSections":[[{"type":"STATION","value":"Amsterdam C."},{"type":"ICON","value":"MAINTENANCE"},{"type":"STATION","value":"Alkmaar"}],[{"type":"STATION","value":"Amsterdam C."},{"type":"ICON","value":"MAINTENANCE"},{"type":"STATION","value":"Utrecht C."}]],"registrationTime":"2024-05-06T14:20:09+0200","start":"2024-06-01T04:00:00+0200","releaseTime":"2024-05-06T14:20:09+0200","end":"2024-06-03T02:00:00+0200","period":"Zaterdag 1 juni 4:00 uur t/m maandag 3 juni 2:00 uur.","impact":{"value":2},"publicationSections":[{"section":{"stations":[{"coordinate":{"lat":52.3788871765137,"lng":4.90027761459351},"countryCode":"NL","name":"Amsterdam Centraal","stationCode":"ASD","uicCode":"8400058"},{"coordinate":{"lat":52.3888893127441,"lng":4.83777761459351},"countryCode":"NL","name":"Amsterdam Sloterdijk","stationCode":"ASS","uicCode":"8400059"},{"coordinate":{"lat":52.4388885498047,"lng":4.81361103057861},"countryCode":"NL","name":"Zaandam","stationCode":"ZD","uicCode":"8400731"},{"coordinate":{"lat":52.458610534668,"lng":4.80555534362793},"countryCode":"NL","name":"Koog aan de Zaan","stationCode":"KZ","uicCode":"8400363"},{"coordinate":{"lat":52.469165802002,"lng":4.80499982833862},"countryCode":"NL","name":"Zaandijk Zaanse Schans","stationCode":"ZZS","uicCode":"8400364"},{"coordinate":{"lat":52.4891662597656,"lng":4.79222202301025},"countryCode":"NL","name":"Wormerveer","stationCode":"WM","uicCode":"8400707"},{"coordinate":{"lat":52.49511,"lng":4.75417},"countryCode":"NL","name":"Krommenie-Assendelft","stationCode":"KMA","uicCode":"8400368"},{"coordinate":{"lat":52.5216674804687,"lng":4.70166683197022},"countryCode":"NL","name":"Uitgeest","stationCode":"UTG","uicCode":"8400615"},{"coordinate":{"lat":52.5458335876465,"lng":4.65861129760742},"countryCode":"NL","name":"Castricum","stationCode":"CAS","uicCode":"8400151"},{"coordinate":{"lat":52.5994453430176,"lng":4.70055532455444},"countryCode":"NL","name":"Heiloo","stationCode":"HLO","uicCode":"8400309"},{"coordinate":{"lat":52.6377792358398,"lng":4.73972225189209},"countryCode":"NL","name":"Alkmaar","stationCode":"AMR","uicCode":"8400050"}],"direction":"BOTH"},"consequence":{"section":{"stations":[{"coordinate":{"lat":52.3788871765137,"lng":4.90027761459351},"countryCode":"NL","name":"Amsterdam Centraal","stationCode":"ASD","uicCode":"8400058"},{"coordinate":{"lat":52.3888893127441,"lng":4.83777761459351},"countryCode":"NL","name":"Amsterdam Sloterdijk","stationCode":"ASS","uicCode":"8400059"},{"coordinate":{"lat":52.4388885498047,"lng":4.81361103057861},"countryCode":"NL","name":"Zaandam","stationCode":"ZD","uicCode":"8400731"},{"coordinate":{"lat":52.458610534668,"lng":4.80555534362793},"countryCode":"NL","name":"Koog aan de Zaan","stationCode":"KZ","uicCode":"8400363"},{"coordinate":{"lat":52.469165802002,"lng":4.80499982833862},"countryCode":"NL","name":"Zaandijk Zaanse Schans","stationCode":"ZZS","uicCode":"8400364"},{"coordinate":{"lat":52.4891662597656,"lng":4.79222202301025},"countryCode":"NL","name":"Wormerveer","stationCode":"WM","uicCode":"8400707"},{"coordinate":{"lat":52.49511,"lng":4.75417},"countryCode":"NL","name":"Krommenie-Assendelft","stationCode":"KMA","uicCode":"8400368"},{"coordinate":{"lat":52.5216674804687,"lng":4.70166683197022},"countryCode":"NL","name":"Uitgeest","stationCode":"UTG","uicCode":"8400615"},{"coordinate":{"lat":52.5458335876465,"lng":4.65861129760742},"countryCode":"NL","name":"Castricum","stationCode":"CAS","uicCode":"8400151"},{"coordinate":{"lat":52.5994453430176,"lng":4.70055532455444},"countryCode":"NL","name":"Heiloo","stationCode":"HLO","uicCode":"8400309"},{"coordinate":{"lat":52.6377792358398,"lng":4.73972225189209},"countryCode":"NL","name":"Alkmaar","stationCode":"AMR","uicCode":"8400050"}],"direction":"ONE_WAY"},"description":"dienstregeling aangepast","level":"LESS_TRAINS"},"sectionType":"NL"},{"section":{"stations":[{"coordinate":{"lat":52.3788871765137,"lng":4.90027761459351},"countryCode":"NL","name":"Amsterdam Centraal","stationCode":"ASD","uicCode":"8400058"},{"coordinate":{"lat":52.3605537414551,"lng":4.93111133575439},"countryCode":"NL","name":"Amsterdam Muiderpoort","stationCode":"ASDM","uicCode":"8400060"},{"coordinate":{"lat":52.3466682434082,"lng":4.91777801513672},"countryCode":"NL","name":"Amsterdam Amstel","stationCode":"ASA","uicCode":"8400057"},{"coordinate":{"lat":52.3233337402344,"lng":4.93638896942139},"countryCode":"NL","name":"Duivendrecht","stationCode":"DVD","uicCode":"8400194"},{"coordinate":{"lat":52.3122215270996,"lng":4.94694423675537},"countryCode":"NL","name":"Amsterdam Bijlmer ArenA","stationCode":"ASB","uicCode":"8400074"},{"coordinate":{"lat":52.29844,"lng":4.95972},"countryCode":"NL","name":"Amsterdam Holendrecht","stationCode":"ASHD","uicCode":"8400231"},{"coordinate":{"lat":52.2785,"lng":4.977},"countryCode":"NL","name":"Abcoude","stationCode":"AC","uicCode":"8400047"},{"coordinate":{"lat":52.17149,"lng":4.9906},"countryCode":"NL","name":"Breukelen","stationCode":"BKL","uicCode":"8400133"},{"coordinate":{"lat":52.1352767944336,"lng":5.03361129760742},"countryCode":"NL","name":"Maarssen","stationCode":"MAS","uicCode":"8400419"},{"coordinate":{"lat":52.103055,"lng":5.09},"countryCode":"NL","name":"Utrecht Zuilen","stationCode":"UTZL","uicCode":"8400613"},{"coordinate":{"lat":52.0888900756836,"lng":5.11027765274048},"countryCode":"NL","name":"Utrecht Centraal","stationCode":"UT","uicCode":"8400621"}],"direction":"BOTH"},"consequence":{"section":{"stations":[{"coordinate":{"lat":52.3788871765137,"lng":4.90027761459351},"countryCode":"NL","name":"Amsterdam Centraal","stationCode":"ASD","uicCode":"8400058"},{"coordinate":{"lat":52.3605537414551,"lng":4.93111133575439},"countryCode":"NL","name":"Amsterdam Muiderpoort","stationCode":"ASDM","uicCode":"8400060"},{"coordinate":{"lat":52.3466682434082,"lng":4.91777801513672},"countryCode":"NL","name":"Amsterdam Amstel","stationCode":"ASA","uicCode":"8400057"},{"coordinate":{"lat":52.3233337402344,"lng":4.93638896942139},"countryCode":"NL","name":"Duivendrecht","stationCode":"DVD","uicCode":"8400194"},{"coordinate":{"lat":52.3122215270996,"lng":4.94694423675537},"countryCode":"NL","name":"Amsterdam Bijlmer ArenA","stationCode":"ASB","uicCode":"8400074"},{"coordinate":{"lat":52.29844,"lng":4.95972},"countryCode":"NL","name":"Amsterdam Holendrecht","stationCode":"ASHD","uicCode":"8400231"},{"coordinate":{"lat":52.2785,"lng":4.977},"countryCode":"NL","name":"Abcoude","stationCode":"AC","uicCode":"8400047"},{"coordinate":{"lat":52.17149,"lng":4.9906},"countryCode":"NL","name":"Breukelen","stationCode":"BKL","uicCode":"8400133"},{"coordinate":{"lat":52.1352767944336,"lng":5.03361129760742},"countryCode":"NL","name":"Maarssen","stationCode":"MAS","uicCode":"8400419"},{"coordinate":{"lat":52.103055,"lng":5.09},"countryCode":"NL","name":"Utrecht Zuilen","stationCode":"UTZL","uicCode":"8400613"},{"coordinate":{"lat":52.0888900756836,"lng":5.11027765274048},"countryCode":"NL","name":"Utrecht Centraal","stationCode":"UT","uicCode":"8400621"}],"direction":"ONE_WAY"},"description":"dienstregeling aangepast","level":"LESS_TRAINS"},"sectionType":"NL"}],"summaryAdditionalTravelTime":{"label":"De extra reistijd is ongeveer 0 minuten.","shortLabel":"extra reistijd 0 min.","minimumDurationInMinutes":0,"maximumDurationInMinutes":0},"timespans":[{"start":"2024-06-01T04:00:00+0200","end":"2024-06-03T02:00:00+0200","period":"Zaterdag 1 juni 4:00 uur t/m maandag 3 juni 2:00 uur.","situation":{"label":"Door werkzaamheden: tussen Amsterdam Centraal en Alkmaar is de dienstregeling aangepast en tussen Amsterdam Centraal en Utrecht Centraal is de dienstregeling aangepast."},"cause":{"label":"werkzaamheden"},"additionalTravelTime":{"label":"De extra reistijd is ongeveer 0 minuten.","shortLabel":"extra reistijd 0 min.","minimumDurationInMinutes":0,"maximumDurationInMinutes":0},"advices":["Afhankelijk van uw reis kunt u een extra overstap in Amsterdam Sloterdijk, Amsterdam Centraal of Utrecht Centraal verwachten."]}],"alternativeTransportTimespans":[]},{"type":"MAINTENANCE","id":"7004855","title":"Zwolle - Leeuwarden; Leeuwarden - Harlingen Haven; Leeuwarden - Stavoren.","isActive":false,"local":false,"titleSections":[[{"type":"STATION","value":"Zwolle"},{"type":"STATION","value":"Akkrum"},{"type":"ICON","value":"MAINTENANCE"},{"type":"STATION","value":"Leeuwarden"}],[{"type":"STATION","value":"Leeuwarden"},{"type":"ICON","value":"MAINTENANCE"},{"type":"STATION","value":"Stavoren"}],[{"type":"STATION","value":"Leeuwarden"},{"type":"ICON","value":"MAINTENANCE"},{"type":"STATION","value":"Harlingen Haven"}]],"registrationTime":"2024-05-21T13:46:37+0200","start":"2024-06-01T04:00:00+0200","releaseTime":"2024-05-21T13:46:37+0200","end":"2024-06-03T02:00:00+0200","period":"Zaterdag 1 juni 4:00 uur t/m maandag 3 juni 2:00 uur.","impact":{"value":4},"publicationSections":[{"section":{"stations":[{"coordinate":{"lat":52.5047225952148,"lng":6.09194421768188},"countryCode":"NL","name":"Zwolle","stationCode":"ZL","uicCode":"8400747"},{"coordinate":{"lat":52.6908340454102,"lng":6.19750022888184},"countryCode":"NL","name":"Meppel","stationCode":"MP","uicCode":"8400435"},{"coordinate":{"lat":52.7915109924316,"lng":6.11455576324463},"countryCode":"NL","name":"Steenwijk","stationCode":"SWK","uicCode":"8400578"},{"coordinate":{"lat":52.8808326721191,"lng":6.00361108779907},"countryCode":"NL","name":"Wolvega","stationCode":"WV","uicCode":"8400705"},{"coordinate":{"lat":52.9613876342773,"lng":5.91416645050049},"countryCode":"NL","name":"Heerenveen","stationCode":"HR","uicCode":"8400305"},{"coordinate":{"lat":53.0463905334473,"lng":5.84361124038696},"countryCode":"NL","name":"Akkrum","stationCode":"AKM","uicCode":"8400049"},{"coordinate":{"lat":53.0888900756836,"lng":5.82250022888184},"countryCode":"NL","name":"Grou-Jirnsum","stationCode":"GW","uicCode":"8400266"},{"coordinate":{"lat":53.1958351135254,"lng":5.79222202301025},"countryCode":"NL","name":"Leeuwarden","stationCode":"LW","uicCode":"8400387"}],"direction":"BOTH"},"consequence":{"section":{"stations":[{"coordinate":{"lat":53.0463905334473,"lng":5.84361124038696},"countryCode":"NL","name":"Akkrum","stationCode":"AKM","uicCode":"8400049"},{"coordinate":{"lat":53.0888900756836,"lng":5.82250022888184},"countryCode":"NL","name":"Grou-Jirnsum","stationCode":"GW","uicCode":"8400266"},{"coordinate":{"lat":53.1958351135254,"lng":5.79222202301025},"countryCode":"NL","name":"Leeuwarden","stationCode":"LW","uicCode":"8400387"}],"direction":"ONE_WAY"},"description":"rijden bussen","level":"LESS_TRAINS"},"sectionType":"NL"},{"section":{"stations":[{"coordinate":{"lat":53.1958351135254,"lng":5.79222202301025},"countryCode":"NL","name":"Leeuwarden","stationCode":"LW","uicCode":"8400387"},{"coordinate":{"lat":53.1296368,"lng":5.7131996},"countryCode":"NL","name":"Mantgum","stationCode":"MG","uicCode":"8400427"},{"coordinate":{"lat":53.0409319,"lng":5.6631808},"countryCode":"NL","name":"Sneek Noord","stationCode":"SKND","uicCode":"8400574"},{"coordinate":{"lat":53.0328688,"lng":5.6523969},"countryCode":"NL","name":"Sneek","stationCode":"SK","uicCode":"8400566"},{"coordinate":{"lat":53.0146614,"lng":5.6160801},"countryCode":"NL","name":"IJlst","stationCode":"IJT","uicCode":"8400722"},{"coordinate":{"lat":52.9724864,"lng":5.4564285},"countryCode":"NL","name":"Workum","stationCode":"WK","uicCode":"8400706"},{"coordinate":{"lat":52.9464903,"lng":5.423063},"countryCode":"NL","name":"Hindeloopen","stationCode":"HNP","uicCode":"8400323"},{"coordinate":{"lat":52.9028197,"lng":5.4106913},"countryCode":"NL","name":"Koudum-Molkwerum","stationCode":"KMW","uicCode":"8400366"},{"coordinate":{"lat":52.8865535,"lng":5.3600212},"countryCode":"NL","name":"Stavoren","stationCode":"STV","uicCode":"8400575"}],"direction":"BOTH"},"consequence":{"section":{"stations":[{"coordinate":{"lat":53.1958351135254,"lng":5.79222202301025},"countryCode":"NL","name":"Leeuwarden","stationCode":"LW","uicCode":"8400387"},{"coordinate":{"lat":53.1296368,"lng":5.7131996},"countryCode":"NL","name":"Mantgum","stationCode":"MG","uicCode":"8400427"},{"coordinate":{"lat":53.0409319,"lng":5.6631808},"countryCode":"NL","name":"Sneek Noord","stationCode":"SKND","uicCode":"8400574"},{"coordinate":{"lat":53.0328688,"lng":5.6523969},"countryCode":"NL","name":"Sneek","stationCode":"SK","uicCode":"8400566"},{"coordinate":{"lat":53.0146614,"lng":5.6160801},"countryCode":"NL","name":"IJlst","stationCode":"IJT","uicCode":"8400722"},{"coordinate":{"lat":52.9724864,"lng":5.4564285},"countryCode":"NL","name":"Workum","stationCode":"WK","uicCode":"8400706"},{"coordinate":{"lat":52.9464903,"lng":5.423063},"countryCode":"NL","name":"Hindeloopen","stationCode":"HNP","uicCode":"8400323"},{"coordinate":{"lat":52.9028197,"lng":5.4106913},"countryCode":"NL","name":"Koudum-Molkwerum","stationCode":"KMW","uicCode":"8400366"},{"coordinate":{"lat":52.8865535,"lng":5.3600212},"countryCode":"NL","name":"Stavoren","stationCode":"STV","uicCode":"8400575"}],"direction":"ONE_WAY"},"description":"rijden bussen","level":"LESS_TRAINS"},"sectionType":"NL"},{"section":{"stations":[{"coordinate":{"lat":53.1958351135254,"lng":5.79222202301025},"countryCode":"NL","name":"Leeuwarden","stationCode":"LW","uicCode":"8400387"},{"coordinate":{"lat":53.1888115,"lng":5.7281572},"countryCode":"NL","name":"Deinum","stationCode":"DEI","uicCode":"8400168"},{"coordinate":{"lat":53.1778086,"lng":5.6347411},"countryCode":"NL","name":"Dronryp","stationCode":"DRP","uicCode":"8400192"},{"coordinate":{"lat":53.1824488,"lng":5.5483094},"countryCode":"NL","name":"Franeker","stationCode":"FN","uicCode":"8400232"},{"coordinate":{"lat":53.1704205,"lng":5.4251932},"countryCode":"NL","name":"Harlingen","stationCode":"HLG","uicCode":"8400296"},{"coordinate":{"lat":53.174917,"lng":5.4112885},"countryCode":"NL","name":"Harlingen Haven","stationCode":"HLGH","uicCode":"8400298"}],"direction":"BOTH"},"consequence":{"section":{"stations":[{"coordinate":{"lat":53.1958351135254,"lng":5.79222202301025},"countryCode":"NL","name":"Leeuwarden","stationCode":"LW","uicCode":"8400387"},{"coordinate":{"lat":53.1888115,"lng":5.7281572},"countryCode":"NL","name":"Deinum","stationCode":"DEI","uicCode":"8400168"},{"coordinate":{"lat":53.1778086,"lng":5.6347411},"countryCode":"NL","name":"Dronryp","stationCode":"DRP","uicCode":"8400192"},{"coordinate":{"lat":53.1824488,"lng":5.5483094},"countryCode":"NL","name":"Franeker","stationCode":"FN","uicCode":"8400232"},{"coordinate":{"lat":53.1704205,"lng":5.4251932},"countryCode":"NL","name":"Harlingen","stationCode":"HLG","uicCode":"8400296"},{"coordinate":{"lat":53.174917,"lng":5.4112885},"countryCode":"NL","name":"Harlingen Haven","stationCode":"HLGH","uicCode":"8400298"}],"direction":"ONE_WAY"},"description":"rijden bussen","level":"LESS_TRAINS"},"sectionType":"NL"}],"summaryAdditionalTravelTime":{"label":"De extra reistijd ligt tussen 30 en 60 minuten.","shortLabel":"extra reistijd: 30 - 60 min.","minimumDurationInMinutes":30,"maximumDurationInMinutes":60},"timespans":[{"start":"2024-06-01T04:00:00+0200","end":"2024-06-03T02:00:00+0200","period":"Zaterdag 1 juni 4:00 uur t/m maandag 3 juni 2:00 uur.","situation":{"label":"Door werkzaamheden: tussen Akkrum en Leeuwarden rijden er bussen en tussen Leeuwarden en Stavoren rijden er bussen en tussen Leeuwarden en Harlingen Haven rijden er bussen."},"cause":{"label":"werkzaamheden"},"additionalTravelTime":{"label":"De extra reistijd ligt tussen 30 en 60 minuten.","shortLabel":"extra reistijd: 30 - 60 min.","minimumDurationInMinutes":30,"maximumDurationInMinutes":60},"alternativeTransport":{"label":"maak gebruik van het vervangende vervoer","shortLabel":"gebruik het vervangende vervoer"},"advices":[]}],"alternativeTransportTimespans":[{"start":"2024-06-01T04:00:00+0200","end":"2024-06-03T02:00:00+0200","alternativeTransport":{"location":[{"station":{"coordinate":{"lat":53.0463905334473,"lng":5.84361124038696},"countryCode":"NL","name":"Akkrum","stationCode":"AKM","uicCode":"8400049"},"description":"vanaf de voorzijde van het station"},{"station":{"coordinate":{"lat":53.1958351135254,"lng":5.79222202301025},"countryCode":"NL","name":"Leeuwarden","stationCode":"LW","uicCode":"8400387"},"description":"vanaf het busstation halte K, aan de voorzijde van het station"}],"label":"Er rijden snelbussen tussen Akkrum en Leeuwarden.","shortLabel":"er rijden snelbussen Akkrum - Leeuwarden"}},{"start":"2024-06-01T04:00:00+0200","end":"2024-06-03T02:00:00+0200","alternativeTransport":{"location":[{"station":{"coordinate":{"lat":53.0463905334473,"lng":5.84361124038696},"countryCode":"NL","name":"Akkrum","stationCode":"AKM","uicCode":"8400049"},"description":"vanaf de voorzijde van het station"},{"station":{"coordinate":{"lat":53.0888900756836,"lng":5.82250022888184},"countryCode":"NL","name":"Grou-Jirnsum","stationCode":"GW","uicCode":"8400266"},"description":"vanaf de voorzijde van het station"}],"label":"Er rijden stopbussen tussen Akkrum en Grou-Jirnsum.","shortLabel":"er rijden stopbussen Akkrum - Grou-Jirnsum"}},{"start":"2024-06-01T04:00:00+0200","end":"2024-06-03T02:00:00+0200","alternativeTransport":{"location":[{"station":{"coordinate":{"lat":53.0888900756836,"lng":5.82250022888184},"countryCode":"NL","name":"Grou-Jirnsum","stationCode":"GW","uicCode":"8400266"},"description":"vanaf de voorzijde van het station"},{"station":{"coordinate":{"lat":53.1958351135254,"lng":5.79222202301025},"countryCode":"NL","name":"Leeuwarden","stationCode":"LW","uicCode":"8400387"},"description":"vanaf het busstation halte K, aan de voorzijde van het station"}],"label":"Er rijden stopbussen tussen Grou-Jirnsum en Leeuwarden.","shortLabel":"er rijden stopbussen Grou-Jirnsum - Leeuwarden"}},{"start":"2024-06-01T04:00:00+0200","end":"2024-06-03T02:00:00+0200","alternativeTransport":{"location":[{"station":{"coordinate":{"lat":53.1958351135254,"lng":5.79222202301025},"countryCode":"NL","name":"Leeuwarden","stationCode":"LW","uicCode":"8400387"},"description":"vanaf het busstation halte O"},{"station":{"coordinate":{"lat":53.1296368,"lng":5.7131996},"countryCode":"NL","name":"Mantgum","stationCode":"MG","uicCode":"8400427"},"description":"vanaf de doorgaande weg"},{"station":{"coordinate":{"lat":53.0409319,"lng":5.6631808},"countryCode":"NL","name":"Sneek Noord","stationCode":"SKND","uicCode":"8400574"},"description":"vanaf de doorgaande weg"},{"station":{"coordinate":{"lat":53.0328688,"lng":5.6523969},"countryCode":"NL","name":"Sneek","stationCode":"SK","uicCode":"8400566"},"description":"vanaf het busstation"},{"station":{"coordinate":{"lat":52.9724864,"lng":5.4564285},"countryCode":"NL","name":"Workum","stationCode":"WK","uicCode":"8400706"},"description":"vanaf de bushalte"},{"station":{"coordinate":{"lat":52.9464903,"lng":5.423063},"countryCode":"NL","name":"Hindeloopen","stationCode":"HNP","uicCode":"8400323"},"description":"vanaf de doorgaande weg"},{"station":{"coordinate":{"lat":52.9028197,"lng":5.4106913},"countryCode":"NL","name":"Koudum-Molkwerum","stationCode":"KMW","uicCode":"8400366"},"description":"vanaf de doorgaande weg"},{"station":{"coordinate":{"lat":52.8865535,"lng":5.3600212},"countryCode":"NL","name":"Stavoren","stationCode":"STV","uicCode":"8400575"},"description":"vanaf de bushalte"}],"label":"Er rijden stopbussen tussen Leeuwarden, Mantgum, Sneek Noord, Sneek, Workum, Hindeloopen, Koudum-Molkwerum en Stavoren.","shortLabel":"er rijden stopbussen Leeuwarden - Mantgum - Sneek Noord - Sneek - Workum - Hindeloopen - Koudum-Molkwerum - Stavoren"}},{"start":"2024-06-01T04:00:00+0200","end":"2024-06-03T02:00:00+0200","alternativeTransport":{"location":[{"station":{"coordinate":{"lat":53.0328688,"lng":5.6523969},"countryCode":"NL","name":"Sneek","stationCode":"SK","uicCode":"8400566"},"description":"vanaf het busstation"},{"station":{"coordinate":{"lat":53.0146614,"lng":5.6160801},"countryCode":"NL","name":"IJlst","stationCode":"IJT","uicCode":"8400722"},"description":"vanaf de voorzijde van het station"}],"label":"Er rijden taxibusjes tussen Sneek en IJlst.","shortLabel":"er rijden taxibusjes Sneek - IJlst"}},{"start":"2024-06-01T04:00:00+0200","end":"2024-06-03T02:00:00+0200","alternativeTransport":{"location":[{"station":{"coordinate":{"lat":53.1958351135254,"lng":5.79222202301025},"countryCode":"NL","name":"Leeuwarden","stationCode":"LW","uicCode":"8400387"},"description":"vanaf het busstation halte O"},{"station":{"coordinate":{"lat":53.1888115,"lng":5.7281572},"countryCode":"NL","name":"Deinum","stationCode":"DEI","uicCode":"8400168"},"description":"vanaf de voorzijde van het station"},{"station":{"coordinate":{"lat":53.1778086,"lng":5.6347411},"countryCode":"NL","name":"Dronryp","stationCode":"DRP","uicCode":"8400192"},"description":"vanaf de doorgaande weg"},{"station":{"coordinate":{"lat":53.1824488,"lng":5.5483094},"countryCode":"NL","name":"Franeker","stationCode":"FN","uicCode":"8400232"},"description":"vanaf de bushalte"},{"station":{"coordinate":{"lat":53.1704205,"lng":5.4251932},"countryCode":"NL","name":"Harlingen","stationCode":"HLG","uicCode":"8400296"},"description":"vanaf de bushalte"},{"station":{"coordinate":{"lat":53.174917,"lng":5.4112885},"countryCode":"NL","name":"Harlingen Haven","stationCode":"HLGH","uicCode":"8400298"},"description":"bij de Willemshaven"}],"label":"Er rijden stopbussen tussen Leeuwarden, Deinum, Dronryp, Franeker, Harlingen en Harlingen Haven.","shortLabel":"er rijden stopbussen Leeuwarden - Deinum - Dronryp - Franeker - Harlingen - Harlingen Haven"}}]},{"type":"MAINTENANCE","id":"7004710","title":"Nijmegen - Venlo.","isActive":false,"local":false,"titleSections":[[{"type":"STATION","value":"Nijmegen"},{"type":"ICON","value":"MAINTENANCE"},{"type":"STATION","value":"Venlo"}],[{"type":"STATION","value":"Nijmegen"},{"type":"STATION","value":"Boxmeer"},{"type":"ICON","value":"MAINTENANCE"},{"type":"STATION","value":"Venlo"}]],"registrationTime":"2024-05-27T13:18:12+0200","start":"2024-06-01T04:00:00+0200","releaseTime":"2024-05-27T13:18:12+0200","end":"2024-06-10T02:00:00+0200","period":"Zaterdag 1 juni 4:00 uur t/m maandag 10 juni 2:00 uur.","impact":{"value":5},"publicationSections":[{"section":{"stations":[{"coordinate":{"lat":51.8436126708984,"lng":5.85222244262695},"countryCode":"NL","name":"Nijmegen","stationCode":"NM","uicCode":"8400470"},{"coordinate":{"lat":51.8269462585449,"lng":5.86749982833862},"countryCode":"NL","name":"Nijmegen Heyendaal","stationCode":"NMH","uicCode":"8400468"},{"coordinate":{"lat":51.766262,"lng":5.879133},"countryCode":"NL","name":"Mook-Molenhoek","stationCode":"MMLH","uicCode":"8400446"},{"coordinate":{"lat":51.7266825879048,"lng":5.87429523468017},"countryCode":"NL","name":"Cuijk","stationCode":"CK","uicCode":"8400155"},{"coordinate":{"lat":51.6445217676531,"lng":5.93903303146362},"countryCode":"NL","name":"Boxmeer","stationCode":"BMR","uicCode":"8400128"},{"coordinate":{"lat":51.59193,"lng":5.99714},"countryCode":"NL","name":"Vierlingsbeek","stationCode":"VLB","uicCode":"8400647"},{"coordinate":{"lat":51.526568099007,"lng":6.01417779922485},"countryCode":"NL","name":"Venray","stationCode":"VRY","uicCode":"8400646"},{"coordinate":{"lat":51.372501373291,"lng":6.15500020980835},"countryCode":"NL","name":"Blerick","stationCode":"BR","uicCode":"8400117"},{"coordinate":{"lat":51.3636093139648,"lng":6.17277765274048},"countryCode":"NL","name":"Venlo","stationCode":"VL","uicCode":"8400644"}],"direction":"BOTH"},"consequence":{"section":{"stations":[{"coordinate":{"lat":51.8436126708984,"lng":5.85222244262695},"countryCode":"NL","name":"Nijmegen","stationCode":"NM","uicCode":"8400470"},{"coordinate":{"lat":51.8269462585449,"lng":5.86749982833862},"countryCode":"NL","name":"Nijmegen Heyendaal","stationCode":"NMH","uicCode":"8400468"},{"coordinate":{"lat":51.766262,"lng":5.879133},"countryCode":"NL","name":"Mook-Molenhoek","stationCode":"MMLH","uicCode":"8400446"},{"coordinate":{"lat":51.7266825879048,"lng":5.87429523468017},"countryCode":"NL","name":"Cuijk","stationCode":"CK","uicCode":"8400155"},{"coordinate":{"lat":51.6445217676531,"lng":5.93903303146362},"countryCode":"NL","name":"Boxmeer","stationCode":"BMR","uicCode":"8400128"},{"coordinate":{"lat":51.59193,"lng":5.99714},"countryCode":"NL","name":"Vierlingsbeek","stationCode":"VLB","uicCode":"8400647"},{"coordinate":{"lat":51.526568099007,"lng":6.01417779922485},"countryCode":"NL","name":"Venray","stationCode":"VRY","uicCode":"8400646"},{"coordinate":{"lat":51.372501373291,"lng":6.15500020980835},"countryCode":"NL","name":"Blerick","stationCode":"BR","uicCode":"8400117"},{"coordinate":{"lat":51.3636093139648,"lng":6.17277765274048},"countryCode":"NL","name":"Venlo","stationCode":"VL","uicCode":"8400644"}],"direction":"ONE_WAY"},"description":"rijden bussen","level":"LESS_TRAINS"},"sectionType":"NL"},{"section":{"stations":[{"coordinate":{"lat":51.8436126708984,"lng":5.85222244262695},"countryCode":"NL","name":"Nijmegen","stationCode":"NM","uicCode":"8400470"},{"coordinate":{"lat":51.8269462585449,"lng":5.86749982833862},"countryCode":"NL","name":"Nijmegen Heyendaal","stationCode":"NMH","uicCode":"8400468"},{"coordinate":{"lat":51.766262,"lng":5.879133},