[{"id":"6022206","type":"DISRUPTION","registrationTime":"2023-03-24T14:31:02+0100","releaseTime":"2023-03-24T14:31:02+0100","local":false,"title":"Leeuwarden-Stavoren","titleSections":[[{"type":"STATION","value":"Leeuwarden"},{"type":"STATION","value":"Workum"},{"type":"ICON","value":"DISRUPTION"},{"type":"STATION","value":"Stavoren"}]],"topic":"disruption_6022206_nl","isActive":true,"start":"2023-03-13T16:02:35+0100","end":"2023-04-23T23:30:00+0200","phase":{"id":"3","label":"Vervangend vervoer"},"impact":{"value":3},"expectedDuration":{"description":"Dit duurt ten minste tot zondag 23 april 23:30 uur.","endTime":"2023-04-23T23:30:00+0200"},"publicationSections":[{"section":{"stations":[{"uicCode":"8400387","stationCode":"LW","name":"Leeuwarden","coordinate":{"lat":53.1958351135254,"lng":5.79222202301025},"countryCode":"NL"},{"uicCode":"8400427","stationCode":"MG","name":"Mantgum","coordinate":{"lat":53.1296368,"lng":5.7131996},"countryCode":"NL"},{"uicCode":"8400574","stationCode":"SKND","name":"Sneek Noord","coordinate":{"lat":53.0409319,"lng":5.6631808},"countryCode":"NL"},{"uicCode":"8400566","stationCode":"SK","name":"Sneek","coordinate":{"lat":53.0328688,"lng":5.6523969},"countryCode":"NL"},{"uicCode":"8400722","stationCode":"IJT","name":"IJlst","coordinate":{"lat":53.0146614,"lng":5.6160801},"countryCode":"NL"},{"uicCode":"8400706","stationCode":"WK","name":"Workum","coordinate":{"lat":52.9724864,"lng":5.4564285},"countryCode":"NL"},{"uicCode":"8400323","stationCode":"HNP","name":"Hindeloopen","coordinate":{"lat":52.9464903,"lng":5.423063},"countryCode":"NL"},{"uicCode":"8400366","stationCode":"KMW","name":"Koudum-Molkwerum","coordinate":{"lat":52.9028197,"lng":5.4106913},"countryCode":"NL"},{"uicCode":"8400575","stationCode":"STV","name":"Stavoren","coordinate":{"lat":52.8865535,"lng":5.3600212},"countryCode":"NL"}],"direction":"BOTH"},"consequence":{"section":{"stations":[{"uicCode":"8400706","stationCode":"WK","name":"Workum","coordinate":{"lat":52.9724864,"lng":5.4564285},"countryCode":"NL"},{"uicCode":"8400323","stationCode":"HNP","name":"Hindeloopen","coordinate":{"lat":52.9464903,"lng":5.423063},"countryCode":"NL"},{"uicCode":"8400366","stationCode":"KMW","name":"Koudum-Molkwerum","coordinate":{"lat":52.9028197,"lng":5.4106913},"countryCode":"NL"},{"uicCode":"8400575","stationCode":"STV","name":"Stavoren","coordinate":{"lat":52.8865535,"lng":5.3600212},"countryCode":"NL"}],"direction":"ONE_WAY"},"description":"geen treinen","level":"NO_OR_MUCH_LESS_TRAINS"},"sectionType":"NL"}],"timespans":[{"start":"2023-03-13T16:02:35+0100","end":"2023-04-23T23:30:00+0200","situation":{"label":"Tussen Workum en Stavoren rijden er geen treinen door een defect spoor."},"cause":{"label":"Defect spoor"},"alternativeTransport":{"label":"Er rijden stopbussen.","shortLabel":"Er rijden stopbussen"},"advices":["De reisplanner wordt per dag bijgewerkt. Plan uw reis kort voor vertrek"]}],"alternativeTransportTimespans":[{"start":"2023-03-13T16:02:35+0100","end":"2023-04-23T23:30:00+0200","alternativeTransport":{"location":[{"station":{"uicCode":"8400706","stationCode":"WK","name":"Workum","coordinate":{"lat":52.9724864,"lng":5.4564285},"countryCode":"NL"},"description":"vanaf de bushalte"},{"station":{"uicCode":"8400323","stationCode":"HNP","name":"Hindeloopen","coordinate":{"lat":52.9464903,"lng":5.423063},"countryCode":"NL"},"description":"vanaf de doorgaande weg"},{"station":{"uicCode":"8400366","stationCode":"KMW","name":"Koudum-Molkwerum","coordinate":{"lat":52.9028197,"lng":5.4106913},"countryCode":"NL"},"description":"vanaf de doorgaande weg"},{"station":{"uicCode":"8400575","stationCode":"STV","name":"Stavoren","coordinate":{"lat":52.8865535,"lng":5.3600212},"countryCode":"NL"},"description":"vanaf de bushalte"}],"label":"Er rijden stopbussen tussen Workum, Hindeloopen, Koudum-Molkwerum en Stavoren.","shortLabel":"Er rijden stopbussen: Workum, Hindeloopen, Koudum-Molkwerum, Stavoren"}}]},{"id":"6022375","type":"DISRUPTION","registrationTime":"2023-03-24T05:04:50+0100","releaseTime":"2023-03-24T05:04:50+0100","local":false,"title":"'s-Hertogenbosch-Eindhoven","titleSections":[[{"type":"STATION","value":"'s-Hertogenbosch"},{"type":"ICON","value":"DISRUPTION"},{"type":"STATION","value":"Boxtel"},{"type":"STATION","value":"Eindhoven C."}]],"topic":"disruption_6022375_nl","isActive":true,"start":"2023-03-21T12:57:21+0100","end":"2023-03-29T03:00:00+0200","phase":{"id":"3","label":"Vervangend vervoer"},"impact":{"value":4},"expectedDuration":{"description":"Dit duurt ten minste tot woensdag 29 maart 03:00 uur.","endTime":"2023-03-29T03:00:00+0200"},"publicationSections":[{"section":{"stations":[{"uicCode":"8400319","stationCode":"HT","name":"'s-Hertogenbosch","coordinate":{"lat":51.69048,"lng":5.29362},"countryCode":"NL"},{"uicCode":"8400667","stationCode":"VG","name":"Vught","coordinate":{"lat":51.6555557250977,"lng":5.29194450378418},"countryCode":"NL"},{"uicCode":"8400129","stationCode":"BTL","name":"Boxtel","coordinate":{"lat":51.58433,"lng":5.31912},"countryCode":"NL"},{"uicCode":"8400112","stationCode":"BET","name":"Best","coordinate":{"lat":51.5099983215332,"lng":5.38916683197022},"countryCode":"NL"},{"uicCode":"8400196","stationCode":"EHS","name":"Eindhoven Strijp-S","coordinate":{"lat":51.4511108398438,"lng":5.45583343505859},"countryCode":"NL"},{"uicCode":"8400206","stationCode":"EHV","name":"Eindhoven Centraal","coordinate":{"lat":51.4433326721191,"lng":5.48138904571533},"countryCode":"NL"}],"direction":"BOTH"},"consequence":{"section":{"stations":[{"uicCode":"8400319","stationCode":"HT","name":"'s-Hertogenbosch","coordinate":{"lat":51.69048,"lng":5.29362},"countryCode":"NL"},{"uicCode":"8400667","stationCode":"VG","name":"Vught","coordinate":{"lat":51.6555557250977,"lng":5.29194450378418},"countryCode":"NL"},{"uicCode":"8400129","stationCode":"BTL","name":"Boxtel","coordinate":{"lat":51.58433,"lng":5.31912},"countryCode":"NL"}],"direction":"ONE_WAY"},"description":"geen treinen","level":"NO_OR_MUCH_LESS_TRAINS"},"sectionType":"NL"}],"timespans":[{"start":"2023-03-21T12:57:21+0100","end":"2023-03-29T03:00:00+0200","situation":{"label":"Tussen 's-Hertogenbosch en Boxtel rijden er geen treinen door een defect spoor."},"cause":{"label":"Defect spoor"},"alternativeTransport":{"label":"Er rijden stopbussen.","shortLabel":"Er rijden stopbussen"},"advices":["Maak gebruik van de omreisroutes. De reisplanner wordt per dag bijgewerkt. Plan uw reis kort voor vertrek"]}],"alternativeTransportTimespans":[{"start":"2023-03-21T12:57:21+0100","end":"2023-03-29T03:00:00+0200","alternativeTransport":{"location":[{"station":{"uicCode":"8400319","stationCode":"HT","name":"'s-Hertogenbosch","coordinate":{"lat":51.69048,"lng":5.29362},"countryCode":"NL"},"description":"vanaf de speciale uitgang op het perron bij spoor 1"},{"station":{"uicCode":"8400667","stationCode":"VG","name":"Vught","coordinate":{"lat":51.6555557250977,"lng":5.29194450378418},"countryCode":"NL"},"description":"vanaf de voorzijde van het station"},{"station":{"uicCode":"8400129","stationCode":"BTL","name":"Boxtel","coordinate":{"lat":51.58433,"lng":5.31912},"countryCode":"NL"},"description":"vanaf het Q-park terrein"}],"label":"Er rijden stopbussen tussen 's-Hertogenbosch, Vught en Boxtel.","shortLabel":"Er rijden stopbussen: 's-Hertogenbosch, Vught, Boxtel"}}]},{"id":"6022456","type":"DISRUPTION","registrationTime":"2023-03-27T04:34:27+0200","releaseTime":"2023-03-27T04:34:27+0200","local":false,"title":"Hengelo-Bielefeld","titleSections":[[{"type":"STATION","value":"Hengelo"},{"type":"ICON","value":"DISRUPTION"},{"type":"STATION","value":"Bielefeld Hbf"}]],"topic":"disruption_6022456_nl","isActive":true,"start":"2023-03-26T16:56:07+0200","end":"2023-03-27T07:04:27+0200","phase":{"id":"3","label":"Vervangend vervoer"},"impact":{"value":1},"expectedDuration":{"description":"Dit duurt de rest van de dag."},"publicationSections":[{"section":{"stations":[{"uicCode":"8400316","stationCode":"HGL","name":"Hengelo","coordinate":{"lat":52.2616653442383,"lng":6.79388904571533},"countryCode":"NL"},{"uicCode":"8400312","stationCode":"HGLO","name":"Hengelo Oost","coordinate":{"lat":52.2688903808594,"lng":6.81944465637207},"countryCode":"NL"},{"uicCode":"8400483","stationCode":"ODZ","name":"Oldenzaal","coordinate":{"lat":52.3063888549805,"lng":6.93472242355347},"countryCode":"NL"},{"uicCode":"8021156","stationCode":"BH","name":"Bad Bentheim","coordinate":{"lat":52.309685595156,"lng":7.15853691101074},"countryCode":"D"},{"uicCode":"8021067","stationCode":"RHEINE","name":"Rheine","coordinate":{"lat":52.276299,"lng":7.434255},"countryCode":"D"},{"uicCode":"8021025","stationCode":"OSNH","name":"Osnabrück Hbf","coordinate":{"lat":52.272851,"lng":8.061781},"countryCode":"D"},{"uicCode":"8021173","stationCode":"BUENDE","name":"Bünde (Westf)","coordinate":{"lat":52.202075,"lng":8.573876},"countryCode":"D"},{"uicCode":"8013597","stationCode":"BIELEF","name":"Bielefeld Hbf","coordinate":{"lat":52.029261,"lng":8.532722},"countryCode":"D"}],"direction":"BOTH"},"consequence":{"section":{"stations":[{"uicCode":"8400316","stationCode":"HGL","name":"Hengelo","coordinate":{"lat":52.2616653442383,"lng":6.79388904571533},"countryCode":"NL"},{"uicCode":"8400312","stationCode":"HGLO","name":"Hengelo Oost","coordinate":{"lat":52.2688903808594,"lng":6.81944465637207},"countryCode":"NL"},{"uicCode":"8400483","stationCode":"ODZ","name":"Oldenzaal","coordinate":{"lat":52.3063888549805,"lng":6.93472242355347},"countryCode":"NL"},{"uicCode":"8021156","stationCode":"BH","name":"Bad Bentheim","coordinate":{"lat":52.309685595156,"lng":7.15853691101074},"countryCode":"D"},{"uicCode":"8021067","stationCode":"RHEINE","name":"Rheine","coordinate":{"lat":52.276299,"lng":7.434255},"countryCode":"D"},{"uicCode":"8021025","stationCode":"OSNH","name":"Osnabrück Hbf","coordinate":{"lat":52.272851,"lng":8.061781},"countryCode":"D"},{"uicCode":"8021173","stationCode":"BUENDE","name":"Bünde (Westf)","coordinate":{"lat":52.202075,"lng":8.573876},"countryCode":"D"},{"uicCode":"8013597","stationCode":"BIELEF","name":"Bielefeld Hbf","coordinate":{"lat":52.029261,"lng":8.532722},"countryCode":"D"}],"direction":"ONE_WAY"},"description":"geen internat. treinen","level":"LESS_TRAINS"},"sectionType":"NEIGHBORING_COUNTRY"}],"timespans":[{"start":"2023-03-26T16:56:07+0200","end":"2023-03-27T07:04:27+0200","situation":{"label":"Tussen Hengelo en Bielefeld Hbf rijden er geen internationale treinen door acties in het buitenland."},"cause":{"label":"Acties in het buitenland"},"alternativeTransport":{"label":"Er rijden stopbussen.","shortLabel":"Er rijden stopbussen"},"advices":[]}],"alternativeTransportTimespans":[{"start":"2023-03-26T16:56:07+0200","end":"2023-03-27T07:04:27+0200","alternativeTransport":{"location":[{"station":{"uicCode":"8400316","stationCode":"HGL","name":"Hengelo","coordinate":{"lat":52.2616653442383,"lng":6.79388904571533},"countryCode":"NL"},"description":"vanaf het busstation"},{"station":{"uicCode":"8400483","stationCode":"ODZ","name":"Oldenzaal","coordinate":{"lat":52.3063888549805,"lng":6.93472242355347},"countryCode":"NL"},"description":"vanaf de voorzijde van het station"}],"label":"Er rijden stopbussen tussen Hengelo, Oldenzaal en Bad Bentheim.","shortLabel":"Er rijden stopbussen: Hengelo, Oldenzaal, Bad Bentheim"}}]},{"id":"6022459","type":"DISRUPTION","registrationTime":"2023-03-27T04:33:39+0200","releaseTime":"2023-03-27T04:33:39+0200","local":false,"title":"Venlo-Mönchengladbach-Düsseldorf","titleSections":[[{"type":"STATION","value":"Venlo"},{"type":"ICON","value":"DISRUPTION"},{"type":"STATION","value":"Düsseldorf Hbf"}]],"topic":"disruption_6022459_nl","isActive":true,"start":"2023-03-26T17:12:14+0200","end":"2023-03-27T07:03:39+0200","phase":{"id":"2","label":"Impact bekend"},"impact":{"value":1},"expectedDuration":{"description":"Dit duurt de rest van de dag."},"publicationSections":[{"section":{"stations":[{"uicCode":"8400644","stationCode":"VL","name":"Venlo","coordinate":{"lat":51.3636093139648,"lng":6.17277765274048},"countryCode":"NL"},{"uicCode":"8015130","stationCode":"KN","name":"Kaldenkirchen","coordinate":{"lat":51.327184,"lng":6.203225},"countryCode":"D"},{"uicCode":"8015129","stationCode":"KBRY","name":"Breyell","coordinate":{"lat":51.294615,"lng":6.241174},"countryCode":"D"},{"uicCode":"8015128","stationCode":"KBOI","name":"Boisheim","coordinate":{"lat":51.274323,"lng":6.274591},"countryCode":"D"},{"uicCode":"8015125","stationCode":"KDUL","name":"Dülken","coordinate":{"lat":51.257149,"lng":6.33793},"countryCode":"D"},{"uicCode":"8015122","stationCode":"VIERS","name":"Viersen","coordinate":{"lat":51.25516,"lng":6.40388},"countryCode":"D"},{"uicCode":"8015165","stationCode":"MCGB","name":"Mönchengladbach Hbf","coordinate":{"lat":51.196583,"lng":6.446111},"countryCode":"D"},{"uicCode":"8015149","stationCode":"NEUSS","name":"Neuss Hbf","coordinate":{"lat":51.20444,"lng":6.68468},"countryCode":"D"},{"uicCode":"8008094","stationCode":"DUSSEL","name":"Düsseldorf Hbf","coordinate":{"lat":51.220146,"lng":6.793137},"countryCode":"D"}],"direction":"BOTH"},"consequence":{"section":{"stations":[{"uicCode":"8400644","stationCode":"VL","name":"Venlo","coordinate":{"lat":51.3636093139648,"lng":6.17277765274048},"countryCode":"NL"},{"uicCode":"8015130","stationCode":"KN","name":"Kaldenkirchen","coordinate":{"lat":51.327184,"lng":6.203225},"countryCode":"D"},{"uicCode":"8015129","stationCode":"KBRY","name":"Breyell","coordinate":{"lat":51.294615,"lng":6.241174},"countryCode":"D"},{"uicCode":"8015128","stationCode":"KBOI","name":"Boisheim","coordinate":{"lat":51.274323,"lng":6.274591},"countryCode":"D"},{"uicCode":"8015125","stationCode":"KDUL","name":"Dülken","coordinate":{"lat":51.257149,"lng":6.33793},"countryCode":"D"},{"uicCode":"8015122","stationCode":"VIERS","name":"Viersen","coordinate":{"lat":51.25516,"lng":6.40388},"countryCode":"D"},{"uicCode":"8015165","stationCode":"MCGB","name":"Mönchengladbach Hbf","coordinate":{"lat":51.196583,"lng":6.446111},"countryCode":"D"},{"uicCode":"8015149","stationCode":"NEUSS","name":"Neuss Hbf","coordinate":{"lat":51.20444,"lng":6.68468},"countryCode":"D"},{"uicCode":"8008094","stationCode":"DUSSEL","name":"Düsseldorf Hbf","coordinate":{"lat":51.220146,"lng":6.793137},"countryCode":"D"}],"direction":"ONE_WAY"},"description":"geen internat. treinen","level":"LESS_TRAINS"},"sectionType":"NEIGHBORING_COUNTRY"}],"timespans":[{"start":"2023-03-26T17:12:14+0200","end":"2023-03-27T07:03:39+0200","situation":{"label":"Tussen Venlo en Düsseldorf Hbf rijden er geen internationale treinen door acties in het buitenland."},"cause":{"label":"Acties in het buitenland"},"advices":[]}],"alternativeTransportTimespans":[]},{"id":"6022460","type":"DISRUPTION","registrationTime":"2023-03-27T04:32:53+0200","releaseTime":"2023-03-27T04:32:53+0200","local":false,"title":"Amsterdam-Köln-Basel SBB","titleSections":[[{"type":"STATION","value":"Amsterdam C."},{"type":"STATION","value":"Arnhem C."},{"type":"ICON","value":"DISRUPTION"},{"type":"STATION","value":"Emmerich"},{"type":"STATION","value":"Basel SBB"}]],"topic":"disruption_6022460_nl","isActive":true,"start":"2023-03-26T17:19:55+0200","end":"2023-03-27T07:02:53+0200","phase":{"id":"2","label":"Impact bekend"},"impact":{"value":1},"expectedDuration":{"description":"Dit duurt de rest van de dag."},"publicationSections":[{"section":{"stations":[{"uicCode":"8400058","stationCode":"ASD","name":"Amsterdam Centraal","coordinate":{"lat":52.3788871765137,"lng":4.90027761459351},"countryCode":"NL"},{"uicCode":"8400060","stationCode":"ASDM","name":"Amsterdam Muiderpoort","coordinate":{"lat":52.3605537414551,"lng":4.93111133575439},"countryCode":"NL"},{"uicCode":"8400057","stationCode":"ASA","name":"Amsterdam Amstel","coordinate":{"lat":52.3466682434082,"lng":4.91777801513672},"countryCode":"NL"},{"uicCode":"8400194","stationCode":"DVD","name":"Duivendrecht","coordinate":{"lat":52.3233337402344,"lng":4.93638896942139},"countryCode":"NL"},{"uicCode":"8400074","stationCode":"ASB","name":"Amsterdam Bijlmer ArenA","coordinate":{"lat":52.3122215270996,"lng":4.94694423675537},"countryCode":"NL"},{"uicCode":"8400231","stationCode":"ASHD","name":"Amsterdam Holendrecht","coordinate":{"lat":52.29844,"lng":4.95972},"countryCode":"NL"},{"uicCode":"8400047","stationCode":"AC","name":"Abcoude","coordinate":{"lat":52.2785,"lng":4.977},"countryCode":"NL"},{"uicCode":"8400133","stationCode":"BKL","name":"Breukelen","coordinate":{"lat":52.17149,"lng":4.9906},"countryCode":"NL"},{"uicCode":"8400419","stationCode":"MAS","name":"Maarssen","coordinate":{"lat":52.1352767944336,"lng":5.03361129760742},"countryCode":"NL"},{"uicCode":"8400613","stationCode":"UTZL","name":"Utrecht Zuilen","coordinate":{"lat":52.103055,"lng":5.09},"countryCode":"NL"},{"uicCode":"8400621","stationCode":"UT","name":"Utrecht Centraal","coordinate":{"lat":52.0888900756836,"lng":5.11027765274048},"countryCode":"NL"},{"uicCode":"8400606","stationCode":"UTVR","name":"Utrecht Vaartsche Rijn","coordinate":{"lat":52.078889,"lng":5.121667},"countryCode":"NL"},{"uicCode":"8400141","stationCode":"BNK","name":"Bunnik","coordinate":{"lat":52.0630569458008,"lng":5.19444465637207},"countryCode":"NL"},{"uicCode":"8400182","stationCode":"DB","name":"Driebergen-Zeist","coordinate":{"lat":52.0652770996094,"lng":5.25861120223999},"countryCode":"NL"},{"uicCode":"8400417","stationCode":"MRN","name":"Maarn","coordinate":{"lat":52.0641670227051,"lng":5.36999988555908},"countryCode":"NL"},{"uicCode":"8400637","stationCode":"KLP","name":"Veenendaal-De Klomp","coordinate":{"lat":52.0458335876465,"lng":5.57388877868652},"countryCode":"NL"},{"uicCode":"8400200","stationCode":"ED","name":"Ede-Wageningen","coordinate":{"lat":52.0277786254883,"lng":5.67305564880371},"countryCode":"NL"},{"uicCode":"8400704","stationCode":"WF","name":"Wolfheze","coordinate":{"lat":52.0055541992188,"lng":5.7936110496521},"countryCode":"NL"},{"uicCode":"8400489","stationCode":"OTB","name":"Oosterbeek","coordinate":{"lat":51.9949989318848,"lng":5.84000015258789},"countryCode":"NL"},{"uicCode":"8400071","stationCode":"AH","name":"Arnhem Centraal","coordinate":{"lat":51.9850006103516,"lng":5.89916658401489},"countryCode":"NL"},{"uicCode":"8400072","stationCode":"AHP","name":"Arnhem Velperpoort","coordinate":{"lat":51.985279083252,"lng":5.91944456100464},"countryCode":"NL"},{"uicCode":"8400688","stationCode":"WTV","name":"Westervoort","coordinate":{"lat":51.96286,"lng":5.9695},"countryCode":"NL"},{"uicCode":"8400193","stationCode":"DVN","name":"Duiven","coordinate":{"lat":51.9433326721191,"lng":6.01472234725952},"countryCode":"NL"},{"uicCode":"8400735","stationCode":"ZV","name":"Zevenaar","coordinate":{"lat":51.9230537414551,"lng":6.07194423675537},"countryCode":"NL"},{"uicCode":"8033415","stationCode":"EL","name":"Emmerich-Elten","coordinate":{"lat":51.8743,"lng":6.15417},"countryCode":"D"},{"uicCode":"8010288","stationCode":"EM","name":"Emmerich","coordinate":{"lat":51.834283,"lng":6.255718},"countryCode":"D"},{"uicCode":"8010263","stationCode":"OBERH","name":"Oberhausen Hbf","coordinate":{"lat":51.47512,"lng":6.852038},"countryCode":"D"},{"uicCode":"8010316","stationCode":"DUISB","name":"Duisburg Hbf","coordinate":{"lat":51.4297785713316,"lng":6.77590370178222},"countryCode":"D"},{"uicCode":"8008094","stationCode":"DUSSEL","name":"Düsseldorf Hbf","coordinate":{"lat":51.220146,"lng":6.793137},"countryCode":"D"},{"uicCode":"8015561","stationCode":"KKD","name":"Köln Messe/Deutz","coordinate":{"lat":50.940874,"lng":6.975001},"countryCode":"D"},{"uicCode":"8015458","stationCode":"KOLN","name":"Köln Hbf","coordinate":{"lat":50.9432158,"lng":6.9589214},"countryCode":"D"},{"uicCode":"8015588","stationCode":"KSB","name":"Siegburg/Bonn","coordinate":{"lat":50.7939411,"lng":7.2030017},"countryCode":"D"},{"uicCode":"8019585","stationCode":"KMB","name":"Montabaur","coordinate":{"lat":50.444834,"lng":7.825333},"countryCode":"D"},{"uicCode":"8032572","stationCode":"FLB","name":"Limburg Süd","coordinate":{"lat":50.382498,"lng":8.096112},"countryCode":"D"},{"uicCode":"8061676","stationCode":"FNAF","name":"Frankfurt Flughafen Fernb","coordinate":{"lat":50.0531710299286,"lng":8.570237159729},"countryCode":"D"},{"uicCode":"8011068","stationCode":"FFFM","name":"Frankfurt (M) Hbf","coordinate":{"lat":50.1071222,"lng":8.6638338},"countryCode":"D"},{"uicCode":"8014008","stationCode":"MANNHE","name":"Mannheim Hbf","coordinate":{"lat":49.479354,"lng":8.468921},"countryCode":"D"},{"uicCode":"8014228","stationCode":"KARLSR","name":"Karlsruhe Hbf","coordinate":{"lat":48.9936223,"lng":8.400743},"countryCode":"D"},{"uicCode":"8014309","stationCode":"RO","name":"Offenburg","coordinate":{"lat":48.476475,"lng":7.946723},"countryCode":"D"},{"uicCode":"8014350","stationCode":"RF","name":"Freiburg (Breisgau) Hbf","coordinate":{"lat":47.99789,"lng":7.84134},"countryCode":"D"},{"uicCode":"8014431","stationCode":"BASELB","name":"Basel Bad Bf","coordinate":{"lat":47.56815,"lng":7.6073},"countryCode":"D"},{"uicCode":"8500010","stationCode":"BASELS","name":"Basel SBB","coordinate":{"lat":47.5474,"lng":7.58956},"countryCode":"CH"}],"direction":"BOTH"},"consequence":{"section":{"stations":[{"uicCode":"8400071","stationCode":"AH","name":"Arnhem Centraal","coordinate":{"lat":51.9850006103516,"lng":5.89916658401489},"countryCode":"NL"},{"uicCode":"8400072","stationCode":"AHP","name":"Arnhem Velperpoort","coordinate":{"lat":51.985279083252,"lng":5.91944456100464},"countryCode":"NL"},{"uicCode":"8400688","stationCode":"WTV","name":"Westervoort","coordinate":{"lat":51.96286,"lng":5.9695},"countryCode":"NL"},{"uicCode":"8400193","stationCode":"DVN","name":"Duiven","coordinate":{"lat":51.9433326721191,"lng":6.01472234725952},"countryCode":"NL"},{"uicCode":"8400735","stationCode":"ZV","name":"Zevenaar","coordinate":{"lat":51.9230537414551,"lng":6.07194423675537},"countryCode":"NL"},{"uicCode":"8033415","stationCode":"EL","name":"Emmerich-Elten","coordinate":{"lat":51.8743,"lng":6.15417},"countryCode":"D"},{"uicCode":"8010288","stationCode":"EM","name":"Emmerich","coordinate":{"lat":51.834283,"lng":6.255718},"countryCode":"D"}],"direction":"ONE_WAY"},"description":"geen internat. treinen","level":"LESS_TRAINS"},"sectionType":"NEIGHBORING_COUNTRY"}],"timespans":[{"start":"2023-03-26T17:19:55+0200","end":"2023-03-27T07:02:53+0200","situation":{"label":"Tussen Arnhem Centraal en Emmerich rijden er geen internationale treinen door acties in het buitenland."},"cause":{"label":"Acties in het buitenland"},"advices":[]}],"alternativeTransportTimespans":[]},{"id":"6022463","type":"DISRUPTION","registrationTime":"2023-03-27T04:31:43+0200","releaseTime":"2023-03-27T04:31:43+0200","local":false,"title":"Heerlen-Aachen Hbf","titleSections":[[{"type":"STATION","value":"Heerlen"},{"type":"ICON","value":"DISRUPTION"},{"type":"STATION","value":"Herzogenrath"},{"type":"STATION","value":"Aachen Hbf"}]],"topic":"disruption_6022463_nl","isActive":true,"start":"2023-03-27T03:58:08+0200","end":"2023-03-27T07:01:43+0200","phase":{"id":"2","label":"Impact bekend"},"impact":{"value":1},"expectedDuration":{"description":"Dit duurt de rest van de dag."},"publicationSections":[{"section":{"stations":[{"uicCode":"8400307","stationCode":"HRL","name":"Heerlen","coordinate":{"lat":50.8908348083496,"lng":5.97499990463257},"countryCode":"NL"},{"uicCode":"8400548","stationCode":"LG","name":"Landgraaf","coordinate":{"lat":50.8963890075684,"lng":6.01916646957398},"countryCode":"NL"},{"uicCode":"8400234","stationCode":"EGHM","name":"Eygelshoven Markt","coordinate":{"lat":50.8960498196442,"lng":6.0602474212646396},"countryCode":"NL"},{"uicCode":"8015190","stationCode":"HZ","name":"Herzogenrath","coordinate":{"lat":50.870916,"lng":6.094486},"countryCode":"D"},{"uicCode":"8015345","stationCode":"AHBF","name":"Aachen Hbf","coordinate":{"lat":50.7678,"lng":6.091499},"countryCode":"D"}],"direction":"BOTH"},"consequence":{"section":{"stations":[{"uicCode":"8400307","stationCode":"HRL","name":"Heerlen","coordinate":{"lat":50.8908348083496,"lng":5.97499990463257},"countryCode":"NL"},{"uicCode":"8400548","stationCode":"LG","name":"Landgraaf","coordinate":{"lat":50.8963890075684,"lng":6.01916646957398},"countryCode":"NL"},{"uicCode":"8400234","stationCode":"EGHM","name":"Eygelshoven Markt","coordinate":{"lat":50.8960498196442,"lng":6.0602474212646396},"countryCode":"NL"},{"uicCode":"8015190","stationCode":"HZ","name":"Herzogenrath","coordinate":{"lat":50.870916,"lng":6.094486},"countryCode":"D"}],"direction":"ONE_WAY"},"description":"geen treinen","level":"NO_OR_MUCH_LESS_TRAINS"},"sectionType":"NEIGHBORING_COUNTRY"}],"timespans":[{"start":"2023-03-27T03:58:08+0200","end":"2023-03-27T07:01:43+0200","situation":{"label":"Tussen Heerlen en Herzogenrath rijden er geen treinen door acties in het buitenland."},"cause":{"label":"Acties in het buitenland"},"advices":[]}],"alternativeTransportTimespans":[]},{"id":"6022465","type":"DISRUPTION","registrationTime":"2023-03-27T05:27:14+0200","releaseTime":"2023-03-27T05:27:14+0200","local":false,"title":"Groningen-Leer","titleSections":[[{"type":"STATION","value":"Groningen"},{"type":"STATION","value":"Bad Nieuweschans"},{"type":"ICON","value":"DISRUPTION"},{"type":"STATION","value":"Weener"},{"type":"STATION","value":"Leer (Ostfr.)"}]],"topic":"disruption_6022465_nl","isActive":true,"start":"2023-03-27T05:23:46+0200","end":"2023-03-27T07:57:14+0200","phase":{"id":"2","label":"Impact bekend"},"impact":{"value":1},"expectedDuration":{"description":"Dit duurt de rest van de dag."},"publicationSections":[{"section":{"stations":[{"uicCode":"8400263","stationCode":"GN","name":"Groningen","coordinate":{"lat":53.2105560302734,"lng":6.56472206115723},"countryCode":"NL"},{"uicCode":"8400238","stationCode":"GERP","name":"Groningen Europapark","coordinate":{"lat":53.20480027,"lng":6.5854178},"countryCode":"NL"},{"uicCode":"8400369","stationCode":"KW","name":"Kropswolde","coordinate":{"lat":53.1617362,"lng":6.7220882},"countryCode":"NL"},{"uicCode":"8400430","stationCode":"MTH","name":"Martenshoek","coordinate":{"lat":53.1607232,"lng":6.7402989},"countryCode":"NL"},{"uicCode":"8400331","stationCode":"HGZ","name":"Hoogezand-Sappemeer","coordinate":{"lat":53.1598181316756,"lng":6.77075386047363},"countryCode":"NL"},{"uicCode":"8400742","stationCode":"ZB","name":"Zuidbroek","coordinate":{"lat":53.1596122800056,"lng":6.8679141998291},"countryCode":"NL"},{"uicCode":"8400551","stationCode":"SDA","name":"Scheemda","coordinate":{"lat":53.1655362,"lng":6.9777775},"countryCode":"NL"},{"uicCode":"8400696","stationCode":"WS","name":"Winschoten","coordinate":{"lat":53.1392377,"lng":7.035101},"countryCode":"NL"},{"uicCode":"8400457","stationCode":"NSCH","name":"Bad Nieuweschans","coordinate":{"lat":53.1844,"lng":7.19937},"countryCode":"NL"},{"uicCode":"8021239","stationCode":"WR","name":"Weener","coordinate":{"lat":53.16311,"lng":7.3442},"countryCode":"D"},{"uicCode":"8021091","stationCode":"LEER","name":"Leer (Ostfriesl)","coordinate":{"lat":53.23165,"lng":7.465283},"countryCode":"D"}],"direction":"BOTH"},"consequence":{"section":{"stations":[{"uicCode":"8400457","stationCode":"NSCH","name":"Bad Nieuweschans","coordinate":{"lat":53.1844,"lng":7.19937},"countryCode":"NL"},{"uicCode":"8021239","stationCode":"WR","name":"Weener","coordinate":{"lat":53.16311,"lng":7.3442},"countryCode":"D"}],"direction":"ONE_WAY"},"description":"geen treinen","level":"NO_OR_MUCH_LESS_TRAINS"},"sectionType":"NEIGHBORING_COUNTRY"}],"timespans":[{"start":"2023-03-27T05:23:46+0200","end":"2023-03-27T07:57:14+0200","situation":{"label":"Tussen Bad Nieuweschans en Weener rijden er geen treinen door acties in het buitenland."},"cause":{"label":"Acties in het buitenland"},"advices":[]}],"alternativeTransportTimespans":[]},{"id":"6022466","type":"DISRUPTION","registrationTime":"2023-03-27T07:45:24+0200","releaseTime":"2023-03-27T07:45:24+0200","local":false,"title":"Amsterdam-Rotterdam-Breda (HSL)","titleSections":[[{"type":"STATION","value":"Amsterdam C."},{"type":"ICON","value":"DISRUPTION"},{"type":"STATION","value":"Breda"}]],"topic":"disruption_6022466_nl","isActive":true,"start":"2023-03-27T07:43:23+0200","end":"2023-03-27T10:15:24+0200","phase":{"id":"2","label":"Impact bekend"},"impact":{"value":2},"expectedDuration":{"description":"Dit duurt de rest van de dag."},"publicationSections":[{"section":{"stations":[{"uicCode":"8400058","stationCode":"ASD","name":"Amsterdam Centraal","coordinate":{"lat":52.3788871765137,"lng":4.90027761459351},"countryCode":"NL"},{"uicCode":"8400059","stationCode":"ASS","name":"Amsterdam Sloterdijk","coordinate":{"lat":52.3888893127441,"lng":4.83777761459351},"countryCode":"NL"},{"uicCode":"8400079","stationCode":"ASDL","name":"Amsterdam Lelylaan","coordinate":{"lat":52.3577766418457,"lng":4.83388900756836},"countryCode":"NL"},{"uicCode":"8400561","stationCode":"SHL","name":"Schiphol Airport","coordinate":{"lat":52.3094444274902,"lng":4.76194429397583},"countryCode":"NL"},{"uicCode":"8400332","stationCode":"HFD","name":"Hoofddorp","coordinate":{"lat":52.2933349609375,"lng":4.70055532455444},"countryCode":"NL"},{"uicCode":"8400530","stationCode":"RTD","name":"Rotterdam Centraal","coordinate":{"lat":51.9249992370605,"lng":4.46888875961304},"countryCode":"NL"},{"uicCode":"8400529","stationCode":"RTB","name":"Rotterdam Blaak","coordinate":{"lat":51.9202766418457,"lng":4.48888874053955},"countryCode":"NL"},{"uicCode":"8400533","stationCode":"RTZ","name":"Rotterdam Zuid","coordinate":{"lat":51.9044456481934,"lng":4.51027774810791},"countryCode":"NL"},{"uicCode":"8400542","stationCode":"RLB","name":"Rotterdam Lombardijen","coordinate":{"lat":51.8800010681152,"lng":4.53138875961304},"countryCode":"NL"},{"uicCode":"8400132","stationCode":"BDPB","name":"Breda-Prinsenbeek","coordinate":{"lat":51.606388092041,"lng":4.72083330154419},"countryCode":"NL"},{"uicCode":"8400131","stationCode":"BD","name":"Breda","coordinate":{"lat":51.5955543518066,"lng":4.78000020980835},"countryCode":"NL"}],"direction":"BOTH"},"consequence":{"section":{"stations":[{"uicCode":"8400058","stationCode":"ASD","name":"Amsterdam Centraal","coordinate":{"lat":52.3788871765137,"lng":4.90027761459351},"countryCode":"NL"},{"uicCode":"8400059","stationCode":"ASS","name":"Amsterdam Sloterdijk","coordinate":{"lat":52.3888893127441,"lng":4.83777761459351},"countryCode":"NL"},{"uicCode":"8400079","stationCode":"ASDL","name":"Amsterdam Lelylaan","coordinate":{"lat":52.3577766418457,"lng":4.83388900756836},"countryCode":"NL"},{"uicCode":"8400561","stationCode":"SHL","name":"Schiphol Airport","coordinate":{"lat":52.3094444274902,"lng":4.76194429397583},"countryCode":"NL"},{"uicCode":"8400332","stationCode":"HFD","name":"Hoofddorp","coordinate":{"lat":52.2933349609375,"lng":4.70055532455444},"countryCode":"NL"},{"uicCode":"8400530","stationCode":"RTD","name":"Rotterdam Centraal","coordinate":{"lat":51.9249992370605,"lng":4.46888875961304},"countryCode":"NL"},{"uicCode":"8400529","stationCode":"RTB","name":"Rotterdam Blaak","coordinate":{"lat":51.9202766418457,"lng":4.48888874053955},"countryCode":"NL"},{"uicCode":"8400533","stationCode":"RTZ","name":"Rotterdam Zuid","coordinate":{"lat":51.9044456481934,"lng":4.51027774810791},"countryCode":"NL"},{"uicCode":"8400542","stationCode":"RLB","name":"Rotterdam Lombardijen","coordinate":{"lat":51.8800010681152,"lng":4.53138875961304},"countryCode":"NL"},{"uicCode":"8400132","stationCode":"BDPB","name":"Breda-Prinsenbeek","coordinate":{"lat":51.606388092041,"lng":4.72083330154419},"countryCode":"NL"},{"uicCode":"8400131","stationCode":"BD","name":"Breda","coordinate":{"lat":51.5955543518066,"lng":4.78000020980835},"countryCode":"NL"}],"direction":"ONE_WAY"},"description":"minder IC direct treinen","level":"LESS_TRAINS"},"sectionType":"HSL"}],"timespans":[{"start":"2023-03-27T07:43:23+0200","end":"2023-03-27T10:15:24+0200","situation":{"label":"Tussen Amsterdam Centraal en Breda rijden er minder Intercity direct treinen door beperkingen in de materieelinzet."},"cause":{"label":"Beperkingen materieel"},"advices":[]}],"alternativeTransportTimespans":[]},{"id":"f590942f-5073-4e37-a8c8-9647c0e67c89","title":"Staking in Duitsland","topic":"disruption_f590942f-5073-4e37-a8c8-9647c0e67c89_nl","description":"Vandaag zijn er stakingen aangekondigd in het openbaar vervoer in Duitsland. Intercity Berlijn, ICE International en Nightjet rijden niet. Houd ook op andere trajecten rekening met uitval van treinen.\r\n\r\nKijk voor meer informatie op de website van NS International.","priority":"PRIO_3","lastUpdated":"2023-03-26T19:57:00+0200","bodyItems":[],"buttons":{"position":["BOTTOM"],"items":[{"label":"NS International","type":"EXTERNAL","accessibilityLabel":"Meer iinfo","url":"https://www.nsinternational.com/nl/actuele-reisinformatie#Staking_Duitsland_27_maart"}]},"url":"https://www.ns.nl/reisinformatie/calamiteiten/maandag-27-maart-staking-in-duitsland.html","type":"CALAMITY","isActive":true},{"id":"7003415","type":"MAINTENANCE","registrationTime":"2023-03-20T15:44:42+0100","releaseTime":"2023-03-20T15:44:42+0100","local":false,"title":"Amsterdam - Hannover - Berlin","titleSections":[[{"type":"STATION","value":"Amsterdam C."},{"type":"STATION","value":"Bad Bentheim"},{"type":"ICON","value":"MAINTENANCE"},{"type":"STATION","value":"Berlin Hbf"}]],"isActive":true,"start":"2023-03-27T04:00:00+0200","end":"2023-04-01T02:00:00+0200","period":"Maandag 27-03-2023 04:00 uur t/m zaterdag 01-04-2023 02:00 uur.","impact":{"value":2},"summaryAdditionalTravelTime":{"label":"U heeft geen langere reistijd.","shortLabel":"Geen extra reistijd"},"publicationSections":[{"section":{"stations":[{"uicCode":"8400058","stationCode":"ASD","name":"Amsterdam Centraal","coordinate":{"lat":52.3788871765137,"lng":4.90027761459351},"countryCode":"NL"},{"uicCode":"8400060","stationCode":"ASDM","name":"Amsterdam Muiderpoort","coordinate":{"lat":52.3605537414551,"lng":4.93111133575439},"countryCode":"NL"},{"uicCode":"8400235","stationCode":"ASSP","name":"Amsterdam Science Park","coordinate":{"lat":52.35526,"lng":4.94651},"countryCode":"NL"},{"uicCode":"8400165","stationCode":"DMN","name":"Diemen","coordinate":{"lat":52.34515,"lng":4.967566},"countryCode":"NL"},{"uicCode":"8400685","stationCode":"WP","name":"Weesp","coordinate":{"lat":52.3127784729004,"lng":5.04305553436279},"countryCode":"NL"},{"uicCode":"8400452","stationCode":"NDB","name":"Naarden-Bussum","coordinate":{"lat":52.2802772521973,"lng":5.15694427490234},"countryCode":"NL"},{"uicCode":"8400145","stationCode":"BSMZ","name":"Bussum Zuid","coordinate":{"lat":52.2658348083496,"lng":5.16305541992188},"countryCode":"NL"},{"uicCode":"8400324","stationCode":"HVSM","name":"Hilversum Media Park","coordinate":{"lat":52.2380561828613,"lng":5.17388868331909},"countryCode":"NL"},{"uicCode":"8400322","stationCode":"HVS","name":"Hilversum","coordinate":{"lat":52.2258338928223,"lng":5.18194437026978},"countryCode":"NL"},{"uicCode":"8400086","stationCode":"BRN","name":"Baarn","coordinate":{"lat":52.2083320617676,"lng":5.28083324432373},"countryCode":"NL"},{"uicCode":"8400055","stationCode":"AMF","name":"Amersfoort Centraal","coordinate":{"lat":52.1538887023926,"lng":5.37055540084839},"countryCode":"NL"},{"uicCode":"8400490","stationCode":"HVL","name":"Hoevelaken","coordinate":{"lat":52.16652,"lng":5.45718},"countryCode":"NL"},{"uicCode":"8400066","stationCode":"APD","name":"Apeldoorn","coordinate":{"lat":52.2091674804687,"lng":5.97027778625488},"countryCode":"NL"},{"uicCode":"8400229","stationCode":"APDO","name":"Apeldoorn Osseveld","coordinate":{"lat":52.2152786254883,"lng":6.00444459915161},"countryCode":"NL"},{"uicCode":"8400599","stationCode":"TWL","name":"Twello","coordinate":{"lat":52.2377777099609,"lng":6.09861087799072},"countryCode":"NL"},{"uicCode":"8400173","stationCode":"DV","name":"Deventer","coordinate":{"lat":52.2574996948242,"lng":6.16055536270142},"countryCode":"NL"},{"uicCode":"8400185","stationCode":"DVC","name":"Deventer Colmschate","coordinate":{"lat":52.2502784729004,"lng":6.21444463729858},"countryCode":"NL"},{"uicCode":"8400328","stationCode":"HON","name":"Holten","coordinate":{"lat":52.2838897705078,"lng":6.42027759552002},"countryCode":"NL"},{"uicCode":"8400538","stationCode":"RSN","name":"Rijssen","coordinate":{"lat":52.3122215270996,"lng":6.52027797698975},"countryCode":"NL"},{"uicCode":"8400691","stationCode":"WDN","name":"Wierden","coordinate":{"lat":52.3613891601562,"lng":6.59166669845581},"countryCode":"NL"},{"uicCode":"8400051","stationCode":"AML","name":"Almelo","coordinate":{"lat":52.3580551147461,"lng":6.65388870239258},"countryCode":"NL"},{"uicCode":"8400520","stationCode":"AMRI","name":"Almelo de Riet","coordinate":{"lat":52.3419456481934,"lng":6.66666650772095},"countryCode":"NL"},{"uicCode":"8400124","stationCode":"BN","name":"Borne","coordinate":{"lat":52.2988891601562,"lng":6.74805545806885},"countryCode":"NL"},{"uicCode":"8400316","stationCode":"HGL","name":"Hengelo","coordinate":{"lat":52.2616653442383,"lng":6.79388904571533},"countryCode":"NL"},{"uicCode":"8400312","stationCode":"HGLO","name":"Hengelo Oost","coordinate":{"lat":52.2688903808594,"lng":6.81944465637207},"countryCode":"NL"},{"uicCode":"8400483","stationCode":"ODZ","name":"Oldenzaal","coordinate":{"lat":52.3063888549805,"lng":6.93472242355347},"countryCode":"NL"},{"uicCode":"8021156","stationCode":"BH","name":"Bad Bentheim","coordinate":{"lat":52.309685595156,"lng":7.15853691101074},"countryCode":"D"},{"uicCode":"8021067","stationCode":"RHEINE","name":"Rheine","coordinate":{"lat":52.276299,"lng":7.434255},"countryCode":"D"},{"uicCode":"8021025","stationCode":"OSNH","name":"Osnabrück Hbf","coordinate":{"lat":52.272851,"lng":8.061781},"countryCode":"D"},{"uicCode":"8013552","stationCode":"HANN","name":"Hannover Hbf","coordinate":{"lat":52.3770401,"lng":9.7416759},"countryCode":"D"},{"uicCode":"8065969","stationCode":"BERHBL","name":"Berlin Hbf","coordinate":{"lat":52.52503,"lng":13.36946},"countryCode":"D"}],"direction":"BOTH"},"consequence":{"section":{"stations":[{"uicCode":"8021156","stationCode":"BH","name":"Bad Bentheim","coordinate":{"lat":52.309685595156,"lng":7.15853691101074},"countryCode":"D"},{"uicCode":"8021067","stationCode":"RHEINE","name":"Rheine","coordinate":{"lat":52.276299,"lng":7.434255},"countryCode":"D"},{"uicCode":"8021025","stationCode":"OSNH","name":"Osnabrück Hbf","coordinate":{"lat":52.272851,"lng":8.061781},"countryCode":"D"},{"uicCode":"8013552","stationCode":"HANN","name":"Hannover Hbf","coordinate":{"lat":52.3770401,"lng":9.7416759},"countryCode":"D"},{"uicCode":"8065969","stationCode":"BERHBL","name":"Berlin Hbf","coordinate":{"lat":52.52503,"lng":13.36946},"countryCode":"D"}],"direction":"ONE_WAY"},"description":"aangepaste internationale dienstregeling","level":"LESS_TRAINS"},"sectionType":"NEIGHBORING_COUNTRY"}],"timespans":[{"start":"2023-03-27T04:00:00+0200","end":"2023-04-01T02:00:00+0200","period":"Maandag 27-03-2023 04:00 uur t/m zaterdag 01-04-2023 02:00 uur.","situation":{"label":"Door werkzaamheden: tussen Bad Bentheim en Berlin Hbf is de internationale dienstregeling aangepast."},"cause":{"label":"Werkzaamheden"},"additionalTravelTime":{"label":"U heeft geen langere reistijd.","shortLabel":"Geen extra reistijd"},"advices":["Dit kan gevolgen hebben voor uw reis. Plan uw reis in de (Internationale) app."]}],"alternativeTransportTimespans":[]},{"id":"7003347","type":"MAINTENANCE","registrationTime":"2023-03-04T10:21:49+0100","releaseTime":"2023-03-04T10:21:49+0100","local":false,"title":"Venlo - Mönchengladbach - Düsseldorf","titleSections":[[{"type":"STATION","value":"Venlo"},{"type":"STATION","value":"Mönchengladbach"},{"type":"ICON","value":"MAINTENANCE"},{"type":"STATION","value":"Düsseldorf Hbf"}]],"isActive":false,"start":"2023-03-29T21:00:00+0200","end":"2023-04-01T22:00:00+0200","period":"Woensdag 29-03-2023 21:00 uur t/m zaterdag 01-04-2023 22:00 uur.","impact":{"value":2},"summaryAdditionalTravelTime":{"label":"U heeft geen langere reistijd.","shortLabel":"Geen extra reistijd"},"publicationSections":[{"section":{"stations":[{"uicCode":"8400644","stationCode":"VL","name":"Venlo","coordinate":{"lat":51.3636093139648,"lng":6.17277765274048},"countryCode":"NL"},{"uicCode":"8015130","stationCode":"KN","name":"Kaldenkirchen","coordinate":{"lat":51.327184,"lng":6.203225},"countryCode":"D"},{"uicCode":"8015129","stationCode":"KBRY","name":"Breyell","coordinate":{"lat":51.294615,"lng":6.241174},"countryCode":"D"},{"uicCode":"8015128","stationCode":"KBOI","name":"Boisheim","coordinate":{"lat":51.274323,"lng":6.274591},"countryCode":"D"},{"uicCode":"8015125","stationCode":"KDUL","name":"Dülken","coordinate":{"lat":51.257149,"lng":6.33793},"countryCode":"D"},{"uicCode":"8015122","stationCode":"VIERS","name":"Viersen","coordinate":{"lat":51.25516,"lng":6.40388},"countryCode":"D"},{"uicCode":"8015165","stationCode":"MCGB","name":"Mönchengladbach Hbf","coordinate":{"lat":51.196583,"lng":6.446111},"countryCode":"D"},{"uicCode":"8015149","stationCode":"NEUSS","name":"Neuss Hbf","coordinate":{"lat":51.20444,"lng":6.68468},"countryCode":"D"},{"uicCode":"8008094","stationCode":"DUSSEL","name":"Düsseldorf Hbf","coordinate":{"lat":51.220146,"lng":6.793137},"countryCode":"D"}],"direction":"BOTH"},"consequence":{"section":{"stations":[{"uicCode":"8015165","stationCode":"MCGB","name":"Mönchengladbach Hbf","coordinate":{"lat":51.196583,"lng":6.446111},"countryCode":"D"},{"uicCode":"8015149","stationCode":"NEUSS","name":"Neuss Hbf","coordinate":{"lat":51.20444,"lng":6.68468},"countryCode":"D"},{"uicCode":"8008094","stationCode":"DUSSEL","name":"Düsseldorf Hbf","coordinate":{"lat":51.220146,"lng":6.793137},"countryCode":"D"}],"direction":"ONE_WAY"},"description":"aangepaste internationale dienstregeling","level":"LESS_TRAINS"},"sectionType":"NEIGHBORING_COUNTRY"}],"timespans":[{"start":"2023-03-29T21:00:00+0200","end":"2023-04-01T22:00:00+0200","period":"Woensdag 29-03-2023 21:00 uur t/m zaterdag 01-04-2023 22:00 uur.","situation":{"label":"Door werkzaamheden: tussen Mönchengladbach Hbf en Düsseldorf Hbf is de internationale dienstregeling aangepast."},"cause":{"label":"Werkzaamheden"},"additionalTravelTime":{"label":"U heeft geen langere reistijd.","shortLabel":"Geen extra reistijd"},"advices":[]}],"alternativeTransportTimespans":[]},{"id":"7003329","type":"MAINTENANCE","registrationTime":"2023-02-20T10:44:01+0100","releaseTime":"2023-02-20T10:44:01+0100","local":false,"title":"Amersfoort - Ede-Wageningen","titleSections":[[{"type":"STATION","value":"Amersfoort C."},{"type":"STATION","value":"Barneveld Zuid"},{"type":"ICON","value":"MAINTENANCE"},{"type":"STATION","value":"Ede-Wageningen"}]],"isActive":false,"start":"2023-03-31T04:00:00+0200","end":"2023-04-04T02:00:00+0200","period":"Vrijdag 31-03-2023 04:00 uur t/m dinsdag 04-04-2023 02:00 uur.","impact":{"value":5},"summaryAdditionalTravelTime":{"label":"De extra reistijd kan oplopen tot 30 minuten.","shortLabel":"Extra reistijd tot 30 min.","maximumDurationInMinutes":30},"publicationSections":[{"section":{"stations":[{"uicCode":"8400055","stationCode":"AMF","name":"Amersfoort Centraal","coordinate":{"lat":52.1538887023926,"lng":5.37055540084839},"countryCode":"NL"},{"uicCode":"8400490","stationCode":"HVL","name":"Hoevelaken","coordinate":{"lat":52.16652,"lng":5.45718},"countryCode":"NL"},{"uicCode":"8400092","stationCode":"BNN","name":"Barneveld Noord","coordinate":{"lat":52.1613883972168,"lng":5.59805536270142},"countryCode":"NL"},{"uicCode":"8400091","stationCode":"BNC","name":"Barneveld Centrum","coordinate":{"lat":52.1399993896484,"lng":5.59027767181396},"countryCode":"NL"},{"uicCode":"8400115","stationCode":"BNZ","name":"Barneveld Zuid","coordinate":{"lat":52.128853,"lng":5.60246},"countryCode":"NL"},{"uicCode":"8400405","stationCode":"LTN","name":"Lunteren","coordinate":{"lat":52.085277557373,"lng":5.62444448471069},"countryCode":"NL"},{"uicCode":"8400201","stationCode":"EDC","name":"Ede Centrum","coordinate":{"lat":52.0436096191406,"lng":5.66833353042603},"countryCode":"NL"},{"uicCode":"8400200","stationCode":"ED","name":"Ede-Wageningen","coordinate":{"lat":52.0277786254883,"lng":5.67305564880371},"countryCode":"NL"}],"direction":"BOTH"},"consequence":{"section":{"stations":[{"uicCode":"8400115","stationCode":"BNZ","name":"Barneveld Zuid","coordinate":{"lat":52.128853,"lng":5.60246},"countryCode":"NL"},{"uicCode":"8400405","stationCode":"LTN","name":"Lunteren","coordinate":{"lat":52.085277557373,"lng":5.62444448471069},"countryCode":"NL"},{"uicCode":"8400201","stationCode":"EDC","name":"Ede Centrum","coordinate":{"lat":52.0436096191406,"lng":5.66833353042603},"countryCode":"NL"},{"uicCode":"8400200","stationCode":"ED","name":"Ede-Wageningen","coordinate":{"lat":52.0277786254883,"lng":5.67305564880371},"countryCode":"NL"}],"direction":"ONE_WAY"},"description":"rijden bussen","level":"NO_OR_MUCH_LESS_TRAINS"},"sectionType":"NL"}],"timespans":[{"start":"2023-03-31T04:00:00+0200","end":"2023-04-04T02:00:00+0200","period":"Vrijdag 31-03-2023 04:00 uur t/m dinsdag 04-04-2023 02:00 uur.","situation":{"label":"Door werkzaamheden: tussen Barneveld Zuid en Ede-Wageningen rijden er bussen."},"cause":{"label":"Werkzaamheden"},"additionalTravelTime":{"label":"De extra reistijd kan oplopen tot 30 minuten.","shortLabel":"Extra reistijd tot 30 min.","maximumDurationInMinutes":30},"alternativeTransport":{"label":"Er rijden bussen.","shortLabel":"er rijden bussen"},"advices":[]}],"alternativeTransportTimespans":[{"start":"2023-03-31T04:00:00+0200","end":"2023-04-04T02:00:00+0200","alternativeTransport":{"location":[{"station":{"uicCode":"8400115","stationCode":"BNZ","name":"Barneveld Zuid","coordinate":{"lat":52.128853,"lng":5.60246},"countryCode":"NL"},"description":"vanaf het Stationsplein"},{"station":{"uicCode":"8400405","stationCode":"LTN","name":"Lunteren","coordinate":{"lat":52.085277557373,"lng":5.62444448471069},"countryCode":"NL"},"description":"vanaf het Stationsplein"},{"station":{"uicCode":"8400201","stationCode":"EDC","name":"Ede Centrum","coordinate":{"lat":52.0436096191406,"lng":5.66833353042603},"countryCode":"NL"},"description":"vanaf de bushalte aan de Telefoonweg"},{"station":{"uicCode":"8400200","stationCode":"ED","name":"Ede-Wageningen","coordinate":{"lat":52.0277786254883,"lng":5.67305564880371},"countryCode":"NL"},"description":"vanaf het Noordplein"}],"label":"Er rijden bussen tussen Barneveld Zuid, Lunteren, Ede Centrum en Ede-Wageningen.","shortLabel":"Er rijden bussen Barneveld Zuid - Lunteren - Ede C. - Ede-Wageningen"}},{"start":"2023-03-31T05:00:00+0200","end":"2023-03-31T06:00:00+0200","alternativeTransport":{"location":[{"station":{"uicCode":"8400055","stationCode":"AMF","name":"Amersfoort Centraal","coordinate":{"lat":52.1538887023926,"lng":5.37055540084839},"countryCode":"NL"},"description":"vanaf het busstation, centrumzijde"},{"station":{"uicCode":"8400490","stationCode":"HVL","name":"Hoevelaken","coordinate":{"lat":52.16652,"lng":5.45718},"countryCode":"NL"},"description":"vanaf de bushalte aan de Stoutenburg"},{"station":{"uicCode":"8400092","stationCode":"BNN","name":"Barneveld Noord","coordinate":{"lat":52.1613883972168,"lng":5.59805536270142},"countryCode":"NL"},"description":"vanaf het Stationsplein"},{"station":{"uicCode":"8400091","stationCode":"BNC","name":"Barneveld Centrum","coordinate":{"lat":52.1399993896484,"lng":5.59027767181396},"countryCode":"NL"},"description":"vanaf de bushalte aan de overzijde"},{"station":{"uicCode":"8400115","stationCode":"BNZ","name":"Barneveld Zuid","coordinate":{"lat":52.128853,"lng":5.60246},"countryCode":"NL"},"description":"vanaf het Stationsplein"}],"label":"Er rijden bussen van Amersfoort Centraal, Hoevelaken, Barneveld Noord, Barneveld Centrum naar Barneveld Zuid.","shortLabel":"Er rijden bussen Amersfoort C. -> Hoevelaken -> Barneveld Noord -> Barneveld C. -> Barneveld Zuid"}},{"start":"2023-04-01T01:00:00+0200","end":"2023-04-01T02:30:00+0200","alternativeTransport":{"location":[{"station":{"uicCode":"8400115","stationCode":"BNZ","name":"Barneveld Zuid","coordinate":{"lat":52.128853,"lng":5.60246},"countryCode":"NL"},"description":"vanaf het Stationsplein"},{"station":{"uicCode":"8400091","stationCode":"BNC","name":"Barneveld Centrum","coordinate":{"lat":52.1399993896484,"lng":5.59027767181396},"countryCode":"NL"},"description":"vanaf de bushalte aan de overzijde"},{"station":{"uicCode":"8400092","stationCode":"BNN","name":"Barneveld Noord","coordinate":{"lat":52.1613883972168,"lng":5.59805536270142},"countryCode":"NL"},"description":"vanaf het Stationsplein"},{"station":{"uicCode":"8400490","stationCode":"HVL","name":"Hoevelaken","coordinate":{"lat":52.16652,"lng":5.45718},"countryCode":"NL"},"description":"vanaf de bushalte aan de Stoutenburg"},{"station":{"uicCode":"8400055","stationCode":"AMF","name":"Amersfoort Centraal","coordinate":{"lat":52.1538887023926,"lng":5.37055540084839},"countryCode":"NL"},"description":"vanaf het busstation, centrumzijde"}],"label":"Er rijden bussen van Barneveld Zuid, Barneveld Centrum, Barneveld Noord, Hoevelaken naar Amersfoort Centraal.","shortLabel":"Er rijden bussen Barneveld Zuid -> Barneveld C. -> Barneveld Noord -> Hoevelaken -> Amersfoort C."}},{"start":"2023-04-01T05:30:00+0200","end":"2023-04-01T06:30:00+0200","alternativeTransport":{"location":[{"station":{"uicCode":"8400055","stationCode":"AMF","name":"Amersfoort Centraal","coordinate":{"lat":52.1538887023926,"lng":5.37055540084839},"countryCode":"NL"},"description":"vanaf het busstation, centrumzijde"},{"station":{"uicCode":"8400490","stationCode":"HVL","name":"Hoevelaken","coordinate":{"lat":52.16652,"lng":5.45718},"countryCode":"NL"},"description":"vanaf de bushalte aan de Stoutenburg"},{"station":{"uicCode":"8400092","stationCode":"BNN","name":"Barneveld Noord","coordinate":{"lat":52.1613883972168,"lng":5.59805536270142},"countryCode":"NL"},"description":"vanaf het Stationsplein"},{"station":{"uicCode":"8400091","stationCode":"BNC","name":"Barneveld Centrum","coordinate":{"lat":52.1399993896484,"lng":5.59027767181396},"countryCode":"NL"},"description":"vanaf de bushalte aan de overzijde"},{"station":{"uicCode":"8400115","stationCode":"BNZ","name":"Barneveld Zuid","coordinate":{"lat":52.128853,"lng":5.60246},"countryCode":"NL"},"description":"vanaf het Stationsplein"}],"label":"Er rijden bussen van Amersfoort Centraal, Hoevelaken, Barneveld Noord, Barneveld Centrum naar Barneveld Zuid.","shortLabel":"Er rijden bussen Amersfoort C. -> Hoevelaken -> Barneveld Noord -> Barneveld C. -> Barneveld Zuid"}},{"start":"2023-04-02T02:00:00+0200","end":"2023-04-02T03:30:00+0200","alternativeTransport":{"location":[{"station":{"uicCode":"8400115","stationCode":"BNZ","name":"Barneveld Zuid","coordinate":{"lat":52.128853,"lng":5.60246},"countryCode":"NL"},"description":"vanaf het Stationsplein"},{"station":{"uicCode":"8400091","stationCode":"BNC","name":"Barneveld Centrum","coordinate":{"lat":52.1399993896484,"lng":5.59027767181396},"countryCode":"NL"},"description":"vanaf de bushalte aan de overzijde"},{"station":{"uicCode":"8400092","stationCode":"BNN","name":"Barneveld Noord","coordinate":{"lat":52.1613883972168,"lng":5.59805536270142},"countryCode":"NL"},"description":"vanaf het Stationsplein"},{"station":{"uicCode":"8400490","stationCode":"HVL","name":"Hoevelaken","coordinate":{"lat":52.16652,"lng":5.45718},"countryCode":"NL"},"description":"vanaf de bushalte aan de Stoutenburg"},{"station":{"uicCode":"8400055","stationCode":"AMF","name":"Amersfoort Centraal","coordinate":{"lat":52.1538887023926,"lng":5.37055540084839},"countryCode":"NL"},"description":"vanaf het busstation, centrumzijde"}],"label":"Er rijden bussen van Barneveld Zuid, Barneveld Centrum, Barneveld Noord, Hoevelaken naar Amersfoort Centraal.","shortLabel":"Er rijden bussen Barneveld Zuid -> Barneveld C. -> Barneveld Noord -> Hoevelaken -> Amersfoort C."}},{"start":"2023-04-02T07:00:00+0200","end":"2023-04-02T08:00:00+0200","alternativeTransport":{"location":[{"station":{"uicCode":"8400055","stationCode":"AMF","name":"Amersfoort Centraal","coordinate":{"lat":52.1538887023926,"lng":5.37055540084839},"countryCode":"NL"},"description":"vanaf het busstation, centrumzijde"},{"station":{"uicCode":"8400490","stationCode":"HVL","name":"Hoevelaken","coordinate":{"lat":52.16652,"lng":5.45718},"countryCode":"NL"},"description":"vanaf de bushalte aan de Stoutenburg"},{"station":{"uicCode":"8400092","stationCode":"BNN","name":"Barneveld Noord","coordinate":{"lat":52.1613883972168,"lng":5.59805536270142},"countryCode":"NL"},"description":"vanaf het Stationsplein"},{"station":{"uicCode":"8400091","stationCode":"BNC","name":"Barneveld Centrum","coordinate":{"lat":52.1399993896484,"lng":5.59027767181396},"countryCode":"NL"},"description":"vanaf de bushalte aan de overzijde"},{"station":{"uicCode":"8400115","stationCode":"BNZ","name":"Barneveld Zuid","coordinate":{"lat":52.128853,"lng":5.60246},"countryCode":"NL"},"description":"vanaf het Stationsplein"}],"label":"Er rijden bussen van Amersfoort Centraal, Hoevelaken, Barneveld Noord, Barneveld Centrum naar Barneveld Zuid.","shortLabel":"Er rijden bussen Amersfoort C. -> Hoevelaken -> Barneveld Noord -> Barneveld C. -> Barneveld Zuid"}},{"start":"2023-04-03T00:30:00+0200","end":"2023-04-03T02:00:00+0200","alternativeTransport":{"location":[{"station":{"uicCode":"8400115","stationCode":"BNZ","name":"Barneveld Zuid","coordinate":{"lat":52.128853,"lng":5.60246},"countryCode":"NL"},"description":"vanaf het Stationsplein"},{"station":{"uicCode":"8400091","stationCode":"BNC","name":"Barneveld Centrum","coordinate":{"lat":52.1399993896484,"lng":5.59027767181396},"countryCode":"NL"},"description":"vanaf de bushalte aan de overzijde"},{"station":{"uicCode":"8400092","stationCode":"BNN","name":"Barneveld Noord","coordinate":{"lat":52.1613883972168,"lng":5.59805536270142},"countryCode":"NL"},"description":"vanaf het Stationsplein"},{"station":{"uicCode":"8400490","stationCode":"HVL","name":"Hoevelaken","coordinate":{"lat":52.16652,"lng":5.45718},"countryCode":"NL"},"description":"vanaf de bushalte aan de Stoutenburg"},{"station":{"uicCode":"8400055","stationCode":"AMF","name":"Amersfoort Centraal","coordinate":{"lat":52.1538887023926,"lng":5.37055540084839},"countryCode":"NL"},"description":"vanaf het busstation, centrumzijde"}],"label":"Er rijden bussen van Barneveld Zuid, Barneveld Centrum, Barneveld Noord, Hoevelaken naar Amersfoort Centraal.","shortLabel":"Er rijden bussen Barneveld Zuid -> Barneveld C. -> Barneveld Noord -> Hoevelaken -> Amersfoort C."}},{"start":"2023-04-03T05:00:00+0200","end":"2023-04-03T06:00:00+0200","alternativeTransport":{"location":[{"station":{"uicCode":"8400055","stationCode":"AMF","name":"Amersfoort Centraal","coordinate":{"lat":52.1538887023926,"lng":5.37055540084839},"countryCode":"NL"},"description":"vanaf het busstation, centrumzijde"},{"station":{"uicCode":"8400490","stationCode":"HVL","name":"Hoevelaken","coordinate":{"lat":52.16652,"lng":5.45718},"countryCode":"NL"},"description":"vanaf de bushalte aan de Stoutenburg"},{"station":{"uicCode":"8400092","stationCode":"BNN","name":"Barneveld Noord","coordinate":{"lat":52.1613883972168,"lng":5.59805536270142},"countryCode":"NL"},"description":"vanaf het Stationsplein"},{"station":{"uicCode":"8400091","stationCode":"BNC","name":"Barneveld Centrum","coordinate":{"lat":52.1399993896484,"lng":5.59027767181396},"countryCode":"NL"},"description":"vanaf de bushalte aan de overzijde"},{"station":{"uicCode":"8400115","stationCode":"BNZ","name":"Barneveld Zuid","coordinate":{"lat":52.128853,"lng":5.60246},"countryCode":"NL"},"description":"vanaf het Stationsplein"}],"label":"Er rijden bussen van Amersfoort Centraal, Hoevelaken, Barneveld Noord, Barneveld Centrum naar Barneveld Zuid.","shortLabel":"Er rijden bussen Amersfoort C. -> Hoevelaken -> Barneveld Noord -> Barneveld C. -> Barneveld Zuid"}},{"start":"2023-04-04T01:00:00+0200","end":"2023-04-04T02:00:00+0200","alternativeTransport":{"location":[{"station":{"uicCode":"8400115","stationCode":"BNZ","name":"Barneveld Zuid","coordinate":{"lat":52.128853,"lng":5.60246},"countryCode":"NL"},"description":"vanaf het Stationsplein"},{"station":{"uicCode":"8400091","stationCode":"BNC","name":"Barneveld Centrum","coordinate":{"lat":52.1399993896484,"lng":5.59027767181396},"countryCode":"NL"},"description":"vanaf de bushalte aan de overzijde"},{"station":{"uicCode":"8400092","stationCode":"BNN","name":"Barneveld Noord","coordinate":{"lat":52.1613883972168,"lng":5.59805536270142},"countryCode":"NL"},"description":"vanaf het Stationsplein"},{"station":{"uicCode":"8400490","stationCode":"HVL","name":"Hoevelaken","coordinate":{"lat":52.16652,"lng":5.45718},"countryCode":"NL"},"description":"vanaf de bushalte aan de Stoutenburg"},{"station":{"uicCode":"8400055","stationCode":"AMF","name":"Amersfoort Centraal","coordinate":{"lat":52.1538887023926,"lng":5.37055540084839},"countryCode":"NL"},"description":"vanaf het busstation, centrumzijde"}],"label":"Er rijden bussen van Barneveld Zuid, Barneveld Centrum, Barneveld Noord, Hoevelaken naar Amersfoort Centraal.","shortLabel":"Er rijden bussen Barneveld Zuid -> Barneveld C. -> Barneveld Noord -> Hoevelaken -> Amersfoort C."}}]},{"id":"7003345","type":"MAINTENANCE","registrationTime":"2023-03-04T09:40:00+0100","releaseTime":"2023-03-04T09:40:00+0100","local":false,"title":"Utrecht - Arnhem","titleSections":[[{"type":"STATION","value":"Utrecht C."},{"type":"STATION","value":"Driebergen-Zeist"},{"type":"ICON","value":"MAINTENANCE"},{"type":"STATION","value":"Arnhem C."}]],"isActive":false,"start":"2023-03-31T04:00:00+0200","end":"2023-04-04T02:01:00+0200","period":"Vrijdag 31-03-2023 04:00 uur t/m dinsdag 04-04-2023 02:01 uur.","impact":{"value":5},"summaryAdditionalTravelTime":{"label":"De extra reistijd kan oplopen tot 30 minuten.","shortLabel":"Extra reistijd tot 30 min.","maximumDurationInMinutes":30},"publicationSections":[{"section":{"stations":[{"uicCode":"8400621","stationCode":"UT","name":"Utrecht Centraal","coordinate":{"lat":52.0888900756836,"lng":5.11027765274048},"countryCode":"NL"},{"uicCode":"8400606","stationCode":"UTVR","name":"Utrecht Vaartsche Rijn","coordinate":{"lat":52.078889,"lng":5.121667},"countryCode":"NL"},{"uicCode":"8400141","stationCode":"BNK","name":"Bunnik","coordinate":{"lat":52.0630569458008,"lng":5.19444465637207},"countryCode":"NL"},{"uicCode":"8400182","stationCode":"DB","name":"Driebergen-Zeist","coordinate":{"lat":52.0652770996094,"lng":5.25861120223999},"countryCode":"NL"},{"uicCode":"8400417","stationCode":"MRN","name":"Maarn","coordinate":{"lat":52.0641670227051,"lng":5.36999988555908},"countryCode":"NL"},{"uicCode":"8400637","stationCode":"KLP","name":"Veenendaal-De Klomp","coordinate":{"lat":52.0458335876465,"lng":5.57388877868652},"countryCode":"NL"},{"uicCode":"8400200","stationCode":"ED","name":"Ede-Wageningen","coordinate":{"lat":52.0277786254883,"lng":5.67305564880371},"countryCode":"NL"},{"uicCode":"8400704","stationCode":"WF","name":"Wolfheze","coordinate":{"lat":52.0055541992188,"lng":5.7936110496521},"countryCode":"NL"},{"uicCode":"8400489","stationCode":"OTB","name":"Oosterbeek","coordinate":{"lat":51.9949989318848,"lng":5.84000015258789},"countryCode":"NL"},{"uicCode":"8400071","stationCode":"AH","name":"Arnhem Centraal","coordinate":{"lat":51.9850006103516,"lng":5.89916658401489},"countryCode":"NL"}],"direction":"BOTH"},"consequence":{"section":{"stations":[{"uicCode":"8400182","stationCode":"DB","name":"Driebergen-Zeist","coordinate":{"lat":52.0652770996094,"lng":5.25861120223999},"countryCode":"NL"},{"uicCode":"8400417","stationCode":"MRN","name":"Maarn","coordinate":{"lat":52.0641670227051,"lng":5.36999988555908},"countryCode":"NL"},{"uicCode":"8400637","stationCode":"KLP","name":"Veenendaal-De Klomp","coordinate":{"lat":52.0458335876465,"lng":5.57388877868652},"countryCode":"NL"},{"uicCode":"8400200","stationCode":"ED","name":"Ede-Wageningen","coordinate":{"lat":52.0277786254883,"lng":5.67305564880371},"countryCode":"NL"},{"uicCode":"8400704","stationCode":"WF","name":"Wolfheze","coordinate":{"lat":52.0055541992188,"lng":5.7936110496521},"countryCode":"NL"},{"uicCode":"8400489","stationCode":"OTB","name":"Oosterbeek","coordinate":{"lat":51.9949989318848,"lng":5.84000015258789},"countryCode":"NL"},{"uicCode":"8400071","stationCode":"AH","name":"Arnhem Centraal","coordinate":{"lat":51.9850006103516,"lng":5.89916658401489},"countryCode":"NL"}],"direction":"ONE_WAY"},"description":"rijden bussen","level":"LESS_TRAINS"},"sectionType":"NL"}],"timespans":[{"start":"2023-03-31T04:00:00+0200","end":"2023-04-04T02:01:00+0200","period":"Vrijdag 31-03-2023 04:00 uur t/m dinsdag 04-04-2023 02:01 uur.","situation":{"label":"Door werkzaamheden: tussen Driebergen-Zeist en Arnhem Centraal rijden er bussen."},"cause":{"label":"Werkzaamheden"},"additionalTravelTime":{"label":"De extra reistijd kan oplopen tot 30 minuten.","shortLabel":"Extra reistijd tot 30 min.","maximumDurationInMinutes":30},"alternativeTransport":{"label":"Er rijden stop- en snelbussen.","shortLabel":"er rijden stop- en snelbussen"},"advices":["Tussen Utrecht C. en Nijmegen reist u via 's-Hertogenbosch"]}],"alternativeTransportTimespans":[{"start":"2023-03-31T04:00:00+0200","end":"2023-04-01T01:00:00+0200","alternativeTransport":{"location":[{"station":{"uicCode":"8400182","stationCode":"DB","name":"Driebergen-Zeist","coordinate":{"lat":52.0652770996094,"lng":5.25861120223999},"countryCode":"NL"},"description":"vanaf het busstation"},{"station":{"uicCode":"8400637","stationCode":"KLP","name":"Veenendaal-De Klomp","coordinate":{"lat":52.0458335876465,"lng":5.57388877868652},"countryCode":"NL"},"description":"vanaf het busstation"},{"station":{"uicCode":"8400200","stationCode":"ED","name":"Ede-Wageningen","coordinate":{"lat":52.0277786254883,"lng":5.67305564880371},"countryCode":"NL"},"description":"vanaf het Noordplein"},{"station":{"uicCode":"8400071","stationCode":"AH","name":"Arnhem Centraal","coordinate":{"lat":51.9850006103516,"lng":5.89916658401489},"countryCode":"NL"},"description":"vanaf de bus-terminal"}],"label":"Er rijden snelbussen tussen Driebergen-Zeist, Veenendaal-De Klomp, Ede-Wageningen en Arnhem Centraal.","shortLabel":"Er rijden snelbussen Driebergen-Zeist - De Klomp - Ede-Wageningen - Arnhem C."}},{"start":"2023-03-31T04:00:00+0200","end":"2023-04-01T01:00:00+0200","alternativeTransport":{"location":[{"station":{"uicCode":"8400182","stationCode":"DB","name":"Driebergen-Zeist","coordinate":{"lat":52.0652770996094,"lng":5.25861120223999},"countryCode":"NL"},"description":"vanaf het busstation"},{"station":{"uicCode":"8400071","stationCode":"AH","name":"Arnhem Centraal","coordinate":{"lat":51.9850006103516,"lng":5.89916658401489},"countryCode":"NL"},"description":"vanaf de bus-terminal"}],"label":"Er rijden snelbussen tussen Driebergen-Zeist en Arnhem Centraal.","shortLabel":"Er rijden snelbussen Driebergen-Zeist - Arnhem C."}},{"start":"2023-03-31T04:00:00+0200","end":"2023-04-01T01:00:00+0200","alternativeTransport":{"location":[{"station":{"uicCode":"8400200","stationCode":"ED","name":"Ede-Wageningen","coordinate":{"lat":52.0277786254883,"lng":5.67305564880371},"countryCode":"NL"},"description":"vanaf het Noordplein"},{"station":{"uicCode":"8400704","stationCode":"WF","name":"Wolfheze","coordinate":{"lat":52.0055541992188,"lng":5.7936110496521},"countryCode":"NL"},"description":"vanaf de voorzijde van het station"}],"label":"Er rijden stopbussen tussen Ede-Wageningen en Wolfheze.","shortLabel":"Er rijden stopbussen Ede-Wageningen - Wolfheze"}},{"start":"2023-04-01T01:00:00+0200","end":"2023-04-01T03:30:00+0200","alternativeTransport":{"location":[{"station":{"uicCode":"8400071","stationCode":"AH","name":"Arnhem Centraal","coordinate":{"lat":51.9850006103516,"lng":5.89916658401489},"countryCode":"NL"},"description":"vanaf de bus-terminal"},{"station":{"uicCode":"8400200","stationCode":"ED","name":"Ede-Wageningen","coordinate":{"lat":52.0277786254883,"lng":5.67305564880371},"countryCode":"NL"},"description":"vanaf het Noordplein"},{"station":{"uicCode":"8400637","stationCode":"KLP","name":"Veenendaal-De Klomp","coordinate":{"lat":52.0458335876465,"lng":5.57388877868652},"countryCode":"NL"},"description":"vanaf het busstation"},{"station":{"uicCode":"8400182","stationCode":"DB","name":"Driebergen-Zeist","coordinate":{"lat":52.0652770996094,"lng":5.25861120223999},"countryCode":"NL"},"description":"vanaf het busstation"},{"station":{"uicCode":"8400621","stationCode":"UT","name":"Utrecht Centraal","coordinate":{"lat":52.0888900756836,"lng":5.11027765274048},"countryCode":"NL"},"description":"vanaf de Jaarbeurszijde"}],"label":"Er rijden snelbussen van Arnhem Centraal, Ede-Wageningen, Veenendaal-De Klomp, Driebergen-Zeist naar Utrecht Centraal.","shortLabel":"Er rijden snelbussen Arnhem C. -> Ede-Wageningen -> De Klomp -> Driebergen-Zeist -> Utrecht C."}},{"start":"2023-04-01T01:50:00+0200","end":"2023-04-01T03:10:00+0200","alternativeTransport":{"location":[{"station":{"uicCode":"8400621","stationCode":"UT","name":"Utrecht Centraal","coordinate":{"lat":52.0888900756836,"lng":5.11027765274048},"countryCode":"NL"},"description":"vanaf de Jaarbeurszijde"},{"station":{"uicCode":"8400182","stationCode":"DB","name":"Driebergen-Zeist","coordinate":{"lat":52.0652770996094,"lng":5.25861120223999},"countryCode":"NL"},"description":"vanaf het busstation"},{"station":{"uicCode":"8400637","stationCode":"KLP","name":"Veenendaal-De Klomp","coordinate":{"lat":52.0458335876465,"lng":5.57388877868652},"countryCode":"NL"},"description":"vanaf het busstation"},{"station":{"uicCode":"8400200","stationCode":"ED","name":"Ede-Wageningen","coordinate":{"lat":52.0277786254883,"lng":5.67305564880371},"countryCode":"NL"},"description":"vanaf het Noordplein"},{"station":{"uicCode":"8400071","stationCode":"AH","name":"Arnhem Centraal","coordinate":{"lat":51.9850006103516,"lng":5.89916658401489},"countryCode":"NL"},"description":"vanaf de bus-terminal"}],"label":"Er rijden snelbussen van Utrecht Centraal, Driebergen-Zeist, Veenendaal-De Klomp, Ede-Wageningen naar Arnhem Centraal.","shortLabel":"Er rijden snelbussen Utrecht C. -> Driebergen-Zeist -> De Klomp -> Ede-Wageningen -> Arnhem C."}},{"start":"2023-04-01T04:00:00+0200","end":"2023-04-04T02:00:00+0200","alternativeTransport":{"location":[{"station":{"uicCode":"8400182","stationCode":"DB","name":"Driebergen-Zeist","coordinate":{"lat":52.0652770996094,"lng":5.25861120223999},"countryCode":"NL"},"description":"vanaf het busstation"},{"station":{"uicCode":"8400637","stationCode":"KLP","name":"Veenendaal-De Klomp","coordinate":{"lat":52.0458335876465,"lng":5.57388877868652},"countryCode":"NL"},"description":"vanaf het busstation"},{"station":{"uicCode":"8400200","stationCode":"ED","name":"Ede-Wageningen","coordinate":{"lat":52.0277786254883,"lng":5.67305564880371},"countryCode":"NL"},"description":"vanaf het Noordplein"},{"station":{"uicCode":"8400071","stationCode":"AH","name":"Arnhem Centraal","coordinate":{"lat":51.9850006103516,"lng":5.89916658401489},"countryCode":"NL"},"description":"vanaf de bus-terminal"}],"label":"Er rijden snelbussen tussen Driebergen-Zeist, Veenendaal-De Klomp, Ede-Wageningen en Arnhem Centraal.","shortLabel":"Er rijden snelbussen Driebergen-Zeist - De Klomp - Ede-Wageningen - Arnhem C."}},{"start":"2023-04-01T04:00:00+0200","end":"2023-04-04T02:00:00+0200","alternativeTransport":{"location":[{"station":{"uicCode":"8400182","stationCode":"DB","name":"Driebergen-Zeist","coordinate":{"lat":52.0652770996094,"lng":5.25861120223999},"countryCode":"NL"},"description":"vanaf het busstation"},{"station":{"uicCode":"8400071","stationCode":"AH","name":"Arnhem Centraal","coordinate":{"lat":51.9850006103516,"lng":5.89916658401489},"countryCode":"NL"},"description":"vanaf de bus-terminal"}],"label":"Er rijden snelbussen tussen Driebergen-Zeist en Arnhem Centraal.","shortLabel":"Er rijden snelbussen Driebergen-Zeist - Arnhem C."}},{"start":"2023-04-01T04:00:00+0200","end":"2023-04-04T02:00:00+0200","alternativeTransport":{"location":[{"station":{"uicCode":"8400200","stationCode":"ED","name":"Ede-Wageningen","coordinate":{"lat":52.0277786254883,"lng":5.67305564880371},"countryCode":"NL"},"description":"vanaf het Noordplein"},{"station":{"uicCode":"8400704","stationCode":"WF","name":"Wolfheze","coordinate":{"lat":52.0055541992188,"lng":5.7936110496521},"countryCode":"NL"},"description":"vanaf de voorzijde van het station"}],"label":"Er rijden stopbussen tussen Ede-Wageningen en Wolfheze.","shortLabel":"Er rijden stopbussen Ede-Wageningen - Wolfheze"}},{"start":"2023-04-02T01:00:00+0200","end":"2023-04-02T03:30:00+0200","alternativeTransport":{"location":[{"station":{"uicCode":"8400071","stationCode":"AH","name":"Arnhem Centraal","coordinate":{"lat":51.9850006103516,"lng":5.89916658401489},"countryCode":"NL"},"description":"vanaf de bus-terminal"},{"station":{"uicCode":"8400200","stationCode":"ED","name":"Ede-Wageningen","coordinate":{"lat":52.0277786254883,"lng":5.67305564880371},"countryCode":"NL"},"description":"vanaf het Noordplein"},{"station":{"uicCode":"8400637","stationCode":"KLP","name":"Veenendaal-De Klomp","coordinate":{"lat":52.0458335876465,"lng":5.57388877868652},"countryCode":"NL"},"description":"vanaf het busstation"},{"station":{"uicCode":"8400182","stationCode":"DB","name":"Driebergen-Zeist","coordinate":{"lat":52.0652770996094,"lng":5.25861120223999},"countryCode":"NL"},"description":"vanaf het busstation"},{"station":{"uicCode":"8400621","stationCode":"UT","name":"Utrecht Centraal","coordinate":{"lat":52.0888900756836,"lng":5.11027765274048},"countryCode":"NL"},"description":"vanaf de Jaarbeurszijde"}],"label":"Er rijden snelbussen van Arnhem Centraal, Ede-Wageningen, Veenendaal-De Klomp, Driebergen-Zeist naar Utrecht Centraal.","shortLabel":"Er rijden snelbussen Arnhem C. -> Ede-Wageningen -> De Klomp -> Driebergen-Zeist -> Utrecht C."}},{"start":"2023-04-02T01:50:00+0200","end":"2023-04-02T03:10:00+0200","alternativeTransport":{"location":[{"station":{"uicCode":"8400621","stationCode":"UT","name":"Utrecht Centraal","coordinate":{"lat":52.0888900756836,"lng":5.11027765274048},"countryCode":"NL"},"description":"vanaf de Jaarbeurszijde"},{"station":{"uicCode":"8400182","stationCode":"DB","name":"Driebergen-Zeist","coordinate":{"lat":52.0652770996094,"lng":5.25861120223999},"countryCode":"NL"},"description":"vanaf het busstation"},{"station":{"uicCode":"8400637","stationCode":"KLP","name":"Veenendaal-De Klomp","coordinate":{"lat":52.0458335876465,"lng":5.57388877868652},"countryCode":"NL"},"description":"vanaf het busstation"},{"station":{"uicCode":"8400200","stationCode":"ED","name":"Ede-Wageningen","coordinate":{"lat":52.0277786254883,"lng":5.67305564880371},"countryCode":"NL"},"description":"vanaf het Noordplein"},{"station":{"uicCode":"8400071","stationCode":"AH","name":"Arnhem Centraal","coordinate":{"lat":51.9850006103516,"lng":5.89916658401489},"countryCode":"NL"},"description":"vanaf de bus-terminal"}],"label":"Er rijden snelbussen van Utrecht Centraal, Driebergen-Zeist, Veenendaal-De Klomp, Ede-Wageningen naar Arnhem Centraal.","shortLabel":"Er rijden snelbussen Utrecht C. -> Driebergen-Zeist -> De Klomp -> Ede-Wageningen -> Arnhem C."}}]},{"id":"7003336","type":"MAINTENANCE","registrationTime":"2023-02-27T12:53:30+0100","releaseTime":"2023-02-27T12:53:30+0100","local":false,"title":"Arnhem - Duisburg - Düsseldorf","titleSections":[[{"type":"STATION","value":"Arnhem C."},{"type":"STATION","value":"Zevenaar"},{"type":"ICON","value":"MAINTENANCE"},{"type":"STATION","value":"Oberhausen Hbf"},{"type":"STATION","value":"Düsseldorf Hbf"}]],"isActive":false,"start":"2023-03-31T20:00:00+0200","end":"2023-04-17T00:00:00+0200","period":"Vrijdag 31-03-2023 20:00 uur t/m maandag 17-04-2023 00:00 uur.","impact":{"value":2},"summaryAdditionalTravelTime":{"label":"De extra reistijd is meer dan 30 minuten.","shortLabel":"Extra reistijd meer dan 30 min.","minimumDurationInMinutes":30},"publicationSections":[{"section":{"stations":[{"uicCode":"8400071","stationCode":"AH","name":"Arnhem Centraal","coordinate":{"lat":51.9850006103516,"lng":5.89916658401489},"countryCode":"NL"},{"uicCode":"8400072","stationCode":"AHP","name":"Arnhem Velperpoort","coordinate":{"lat":51.985279083252,"lng":5.91944456100464},"countryCode":"NL"},{"uicCode":"8400688","stationCode":"WTV","name":"Westervoort","coordinate":{"lat":51.96286,"lng":5.9695},"countryCode":"NL"},{"uicCode":"8400193","stationCode":"DVN","name":"Duiven","coordinate":{"lat":51.9433326721191,"lng":6.01472234725952},"countryCode":"NL"},{"uicCode":"8400735","stationCode":"ZV","name":"Zevenaar","coordinate":{"lat":51.9230537414551,"lng":6.07194423675537},"countryCode":"NL"},{"uicCode":"8033415","stationCode":"EL","name":"Emmerich-Elten","coordinate":{"lat":51.8743,"lng":6.15417},"countryCode":"D"},{"uicCode":"8010288","stationCode":"EM","name":"Emmerich","coordinate":{"lat":51.834283,"lng":6.255718},"countryCode":"D"},{"uicCode":"8010275","stationCode":"WESEL","name":"Wesel","coordinate":{"lat":51.655833,"lng":6.627222},"countryCode":"D"},{"uicCode":"8010263","stationCode":"OBERH","name":"Oberhausen Hbf","coordinate":{"lat":51.47512,"lng":6.852038},"countryCode":"D"},{"uicCode":"8010316","stationCode":"DUISB","name":"Duisburg Hbf","coordinate":{"lat":51.4297785713316,"lng":6.77590370178222},"countryCode":"D"},{"uicCode":"8039904","stationCode":"KDFFH","name":"Düsseldorf Flughafen","coordinate":{"lat":51.292009,"lng":6.786836},"countryCode":"D"},{"uicCode":"8008094","stationCode":"DUSSEL","name":"Düsseldorf Hbf","coordinate":{"lat":51.220146,"lng":6.793137},"countryCode":"D"}],"direction":"BOTH"},"consequence":{"section":{"stations":[{"uicCode":"8400735","stationCode":"ZV","name":"Zevenaar","coordinate":{"lat":51.9230537414551,"lng":6.07194423675537},"countryCode":"NL"},{"uicCode":"8033415","stationCode":"EL","name":"Emmerich-Elten","coordinate":{"lat":51.8743,"lng":6.15417},"countryCode":"D"},{"uicCode":"8010288","stationCode":"EM","name":"Emmerich","coordinate":{"lat":51.834283,"lng":6.255718},"countryCode":"D"},{"uicCode":"8010275","stationCode":"WESEL","name":"Wesel","coordinate":{"lat":51.655833,"lng":6.627222},"countryCode":"D"},{"uicCode":"8010263","stationCode":"OBERH","name":"Oberhausen Hbf","coordinate":{"lat":51.47512,"lng":6.852038},"countryCode":"D"}],"direction":"ONE_WAY"},"description":"rijden bussen","level":"LESS_TRAINS"},"sectionType":"NEIGHBORING_COUNTRY"}],"timespans":[{"start":"2023-03-31T20:00:00+0200","end":"2023-04-17T00:00:00+0200","period":"Vrijdag 31-03-2023 20:00 uur t/m maandag 17-04-2023 00:00 uur.","situation":{"label":"Door werkzaamheden: tussen Zevenaar en Oberhausen Hbf rijden er bussen."},"cause":{"label":"Werkzaamheden"},"additionalTravelTime":{"label":"De extra reistijd is meer dan 30 minuten.","shortLabel":"Extra reistijd meer dan 30 min.","minimumDurationInMinutes":30},"alternativeTransport":{"label":"Er rijden snelbussen.","shortLabel":"er rijden snelbussen"},"advices":["Tussen Emmerich, Wesel en Oberhausen Hbf rijden ook stopbussen."]}],"alternativeTransportTimespans":[{"start":"2023-03-31T20:00:00+0200","end":"2023-04-17T00:00:00+0200","alternativeTransport":{"location":[{"station":{"uicCode":"8400071","stationCode":"AH","name":"Arnhem Centraal","coordinate":{"lat":51.9850006103516,"lng":5.89916658401489},"countryCode":"NL"},"description":"vanaf het streekbusstation"},{"station":{"uicCode":"8400735","stationCode":"ZV","name":"Zevenaar","coordinate":{"lat":51.9230537414551,"lng":6.07194423675537},"countryCode":"NL"},"description":"vanaf het stationsplein bij de Kiss & Ride plaatsen, aan beide zijden van de weg"}],"label":"Er rijden snelbussen tussen Arnhem Centraal, Zevenaar, Emmerich-Elten, Emmerich, Wesel en Oberhausen Hbf.","shortLabel":"Er rijden snelbussen Arnhem C. - Zevenaar - Emmerich-Elten - Emmerich - Wesel - Oberhausen Hbf"}}]},{"id":"7003313","type":"MAINTENANCE","registrationTime":"2023-02-14T12:08:17+0100","releaseTime":"2023-02-14T12:08:17+0100","local":false,"title":"Groningen - Delfzijl; Groningen - Eemshaven","titleSections":[[{"type":"STATION","value":"Groningen"},{"type":"ICON","value":"MAINTENANCE"},{"type":"STATION","value":"Roodeschool"},{"type":"STATION","value":"Eemshaven"}],[{"type":"STATION","value":"Groningen"},{"type":"ICON","value":"MAINTENANCE"},{"type":"STATION","value":"Delfzijl"}]],"isActive":false,"start":"2023-04-01T00:20:00+0200","end":"2023-04-03T02:00:00+0200","period":"Zaterdag 01-04-2023 00:20 uur t/m maandag 03-04-2023 02:00 uur.","impact":{"value":4},"summaryAdditionalTravelTime":{"label":"De extra reistijd kan oplopen tot 30 minuten.","shortLabel":"Extra reistijd tot 30 min.","maximumDurationInMinutes":30},"publicationSections":[{"section":{"stations":[{"uicCode":"8400263","stationCode":"GN","name":"Groningen","coordinate":{"lat":53.2105560302734,"lng":6.56472206115723},"countryCode":"NL"},{"uicCode":"8400264","stationCode":"GNN","name":"Groningen Noord","coordinate":{"lat":53.2301469,"lng":6.5563172},"countryCode":"NL"},{"uicCode":"8400547","stationCode":"SWD","name":"Sauwerd","coordinate":{"lat":53.29113,"lng":6.5404},"countryCode":"NL"},{"uicCode":"8400697","stationCode":"WSM","name":"Winsum","coordinate":{"lat":53.3300994,"lng":6.5202905},"countryCode":"NL"},{"uicCode":"8400089","stationCode":"BF","name":"Baflo","coordinate":{"lat":53.3608969,"lng":6.5185581},"countryCode":"NL"},{"uicCode":"8400679","stationCode":"WFM","name":"Warffum","coordinate":{"lat":53.3908431,"lng":6.5671364},"countryCode":"NL"},{"uicCode":"8400619","stationCode":"UST","name":"Usquert","coordinate":{"lat":53.4014742,"lng":6.6093776},"countryCode":"NL"},{"uicCode":"8400617","stationCode":"UHZ","name":"Uithuizen","coordinate":{"lat":53.4099568,"lng":6.6748869},"countryCode":"NL"},{"uicCode":"8400618","stationCode":"UHM","name":"Uithuizermeeden","coordinate":{"lat":53.4145845,"lng":6.7202975},"countryCode":"NL"},{"uicCode":"8400525","stationCode":"RD","name":"Roodeschool","coordinate":{"lat":53.421262,"lng":6.7587},"countryCode":"NL"},{"uicCode":"8400202","stationCode":"EEM","name":"Eemshaven","coordinate":{"lat":53.458419,"lng":6.832},"countryCode":"NL"}],"direction":"BOTH"},"consequence":{"section":{"stations":[{"uicCode":"8400263","stationCode":"GN","name":"Groningen","coordinate":{"lat":53.2105560302734,"lng":6.56472206115723},"countryCode":"NL"},{"uicCode":"8400264","stationCode":"GNN","name":"Groningen Noord","coordinate":{"lat":53.2301469,"lng":6.5563172},"countryCode":"NL"},{"uicCode":"8400547","stationCode":"SWD","name":"Sauwerd","coordinate":{"lat":53.29113,"lng":6.5404},"countryCode":"NL"},{"uicCode":"8400697","stationCode":"WSM","name":"Winsum","coordinate":{"lat":53.3300994,"lng":6.5202905},"countryCode":"NL"},{"uicCode":"8400089","stationCode":"BF","name":"Baflo","coordinate":{"lat":53.3608969,"lng":6.5185581},"countryCode":"NL"},{"uicCode":"8400679","stationCode":"WFM","name":"Warffum","coordinate":{"lat":53.3908431,"lng":6.5671364},"countryCode":"NL"},{"uicCode":"8400619","stationCode":"UST","name":"Usquert","coordinate":{"lat":53.4014742,"lng":6.6093776},"countryCode":"NL"},{"uicCode":"8400617","stationCode":"UHZ","name":"Uithuizen","coordinate":{"lat":53.4099568,"lng":6.6748869},"countryCode":"NL"},{"uicCode":"8400618","stationCode":"UHM","name":"Uithuizermeeden","coordinate":{"lat":53.4145845,"lng":6.7202975},"countryCode":"NL"},{"uicCode":"8400525","stationCode":"RD","name":"Roodeschool","coordinate":{"lat":53.421262,"lng":6.7587},"countryCode":"NL"}],"direction":"ONE_WAY"},"description":"rijden bussen","level":"NO_OR_MUCH_LESS_TRAINS"},"sectionType":"NL"},{"section":{"stations":[{"uicCode":"8400263","stationCode":"GN","name":"Groningen","coordinate":{"lat":53.2105560302734,"lng":6.56472206115723},"countryCode":"NL"},{"uicCode":"8400264","stationCode":"GNN","name":"Groningen Noord","coordinate":{"lat":53.2301469,"lng":6.5563172},"countryCode":"NL"},{"uicCode":"8400547","stationCode":"SWD","name":"Sauwerd","coordinate":{"lat":53.29113,"lng":6.5404},"countryCode":"NL"},{"uicCode":"8400094","stationCode":"BDM","name":"Bedum","coordinate":{"lat":53.3068857,"lng":6.593054},"countryCode":"NL"},{"uicCode":"8400576","stationCode":"STM","name":"Stedum","coordinate":{"lat":53.3262092,"lng":6.6875551},"countryCode":"NL"},{"uicCode":"8400403","stationCode":"LP","name":"Loppersum","coordinate":{"lat":53.3347145,"lng":6.7472625},"countryCode":"NL"},{"uicCode":"8400067","stationCode":"APG","name":"Appingedam","coordinate":{"lat":53.3258135,"lng":6.8619577},"countryCode":"NL"},{"uicCode":"8400175","stationCode":"DZW","name":"Delfzijl West","coordinate":{"lat":53.3320834,"lng":6.9069092},"countryCode":"NL"},{"uicCode":"8400171","stationCode":"DZ","name":"Delfzijl","coordinate":{"lat":53.3336625,"lng":6.9240797},"countryCode":"NL"}],"direction":"BOTH"},"consequence":{"section":{"stations":[{"uicCode":"8400263","stationCode":"GN","name":"Groningen","coordinate":{"lat":53.2105560302734,"lng":6.56472206115723},"countryCode":"NL"},{"uicCode":"8400264","stationCode":"GNN","name":"Groningen Noord","coordinate":{"lat":53.2301469,"lng":6.5563172},"countryCode":"NL"},{"uicCode":"8400547","stationCode":"SWD","name":"Sauwerd","coordinate":{"lat":53.29113,"lng":6.5404},"countryCode":"NL"},{"uicCode":"8400094","stationCode":"BDM","name":"Bedum","coordinate":{"lat":53.3068857,"lng":6.593054},"countryCode":"NL"},{"uicCode":"8400576","stationCode":"STM","name":"Stedum","coordinate":{"lat":53.3262092,"lng":6.6875551},"countryCode":"NL"},{"uicCode":"8400403","stationCode":"LP","name":"Loppersum","coordinate":{"lat":53.3347145,"lng":6.7472625},"countryCode":"NL"},{"uicCode":"8400067","stationCode":"APG","name":"Appingedam","coordinate":{"lat":53.3258135,"lng":6.8619577},"countryCode":"NL"},{"uicCode":"8400175","stationCode":"DZW","name":"Delfzijl West","coordinate":{"lat":53.3320834,"lng":6.9069092},"countryCode":"NL"},{"uicCode":"8400171","stationCode":"DZ","name":"Delfzijl","coordinate":{"lat":53.3336625,"lng":6.9240797},"countryCode":"NL"}],"direction":"ONE_WAY"},"description":"rijden bussen","level":"NO_OR_MUCH_LESS_TRAINS"},"sectionType":"NL"}],"timespans":[{"start":"2023-04-01T00:20:00+0200","end":"2023-04-03T02:00:00+0200","period":"Zaterdag 01-04-2023 00:20 uur t/m maandag 03-04-2023 02:00 uur.","situation":{"label":"Door werkzaamheden: tussen Groningen en Roodeschool rijden er bussen en tussen Groningen en Delfzijl rijden er bussen."},"cause":{"label":"Werkzaamheden"},"additionalTravelTime":{"label":"De extra reistijd kan oplopen tot 30 minuten.","shortLabel":"Extra reistijd tot 30 min.","maximumDurationInMinutes":30},"alternativeTransport":{"label":"Er rijden bussen.","shortLabel":"er rijden bussen"},"advices":[]}],"alternativeTransportTimespans":[{"start":"2023-04-01T00:20:00+0200","end":"2023-04-03T02:00:00+0200","alternativeTransport":{"location":[{"station":{"uicCode":"8400263","stationCode":"GN","name":"Groningen","coordinate":{"lat":53.2105560302734,"lng":6.56472206115723},"countryCode":"NL"},"description":"vanaf het busstation"},{"station":{"uicCode":"8400264","stationCode":"GNN","name":"Groningen Noord","coordinate":{"lat":53.2301469,"lng":6.5563172},"countryCode":"NL"},"description":"vanaf de bushalte"},{"station":{"uicCode":"8400547","stationCode":"SWD","name":"Sauwerd","coordinate":{"lat":53.29113,"lng":6.5404},"countryCode":"NL"},"description":"vanaf de voorzijde van het station"},{"station":{"uicCode":"8400697","stationCode":"WSM","name":"Winsum","coordinate":{"lat":53.3300994,"lng":6.5202905},"countryCode":"NL"},"description":"vanaf het busstation"},{"station":{"uicCode":"8400089","stationCode":"BF","name":"Baflo","coordinate":{"lat":53.3608969,"lng":6.5185581},"countryCode":"NL"},"description":"vanaf de voorzijde van het station"},{"station":{"uicCode":"8400679","stationCode":"WFM","name":"Warffum","coordinate":{"lat":53.3908431,"lng":6.5671364},"countryCode":"NL"},"description":"vanaf het Stationsplein"},{"station":{"uicCode":"8400619","stationCode":"UST","name":"Usquert","coordinate":{"lat":53.4014742,"lng":6.6093776},"countryCode":"NL"},"description":"vanaf het Stationsplein"},{"station":{"uicCode":"8400617","stationCode":"UHZ","name":"Uithuizen","coordinate":{"lat":53.4099568,"lng":6.6748869},"countryCode":"NL"},"description":"vanaf de voorzijde van het station"},{"station":{"uicCode":"8400618","stationCode":"UHM","name":"Uithuizermeeden","coordinate":{"lat":53.4145845,"lng":6.7202975},"countryCode":"NL"},"description":"vanaf de parkeerplaats"},{"station":{"uicCode":"8400525","stationCode":"RD","name":"Roodeschool","coordinate":{"lat":53.421262,"lng":6.7587},"countryCode":"NL"},"description":"vanaf het Stationsplein"},{"station":{"uicCode":"8400202","stationCode":"EEM","name":"Eemshaven","coordinate":{"lat":53.458419,"lng":6.832},"countryCode":"NL"},"description":"vanaf de voorzijde van het station"}],"label":"Er rijden bussen tussen Groningen, Groningen Noord, Sauwerd, Winsum, Baflo, Warffum, Usquert, Uithuizen, Uithuizermeeden, Roodeschool en Eemshaven.","shortLabel":"Er rijden bussen Groningen - Groningen Noord - Sauwerd - Winsum - Baflo - Warffum - Usquert - Uithuizen - Uithuizermeeden - Roodeschool - Eemshaven"}},{"start":"2023-04-01T00:20:00+0200","end":"2023-04-03T02:00:00+0200","alternativeTransport":{"location":[{"station":{"uicCode":"8400263","stationCode":"GN","name":"Groningen","coordinate":{"lat":53.2105560302734,"lng":6.56472206115723},"countryCode":"NL"},"description":"vanaf het busstation halte AB"},{"station":{"uicCode":"8400264","stationCode":"GNN","name":"Groningen Noord","coordinate":{"lat":53.2301469,"lng":6.5563172},"countryCode":"NL"},"description":"vanaf de bushalte"},{"station":{"uicCode":"8400094","stationCode":"BDM","name":"Bedum","coordinate":{"lat":53.3068857,"lng":6.593054},"countryCode":"NL"},"description":"vanaf de voorzijde van het station"},{"station":{"uicCode":"8400576","stationCode":"STM","name":"Stedum","coordinate":{"lat":53.3262092,"lng":6.6875551},"countryCode":"NL"},"description":"vanaf de voorzijde van het station"},{"station":{"uicCode":"8400403","stationCode":"LP","name":"Loppersum","coordinate":{"lat":53.3347145,"lng":6.7472625},"countryCode":"NL"},"description":"vanaf het busstation"},{"station":{"uicCode":"8400067","stationCode":"APG","name":"Appingedam","coordinate":{"lat":53.3258135,"lng":6.8619577},"countryCode":"NL"},"description":"vanaf het busstation"},{"station":{"uicCode":"8400175","stationCode":"DZW","name":"Delfzijl West","coordinate":{"lat":53.3320834,"lng":6.9069092},"countryCode":"NL"},"description":"vanaf de bushalte"},{"station":{"uicCode":"8400171","stationCode":"DZ","name":"Delfzijl","coordinate":{"lat":53.3336625,"lng":6.9240797},"countryCode":"NL"},"description":"vanaf het busstation"}],"label":"Er rijden bussen tussen Groningen, Groningen Noord, Bedum, Stedum, Loppersum, Appingedam, Delfzijl West en Delfzijl.","shortLabel":"Er rijden bussen Groningen - Groningen Noord - Bedum - Stedum - Loppersum - Appingedam - Delfzijl West - Delfzijl"}}]},{"id":"7003343","type":"MAINTENANCE","registrationTime":"2023-03-06T09:21:13+0100","releaseTime":"2023-03-06T09:21:13+0100","local":false,"title":"Amersfoort - Zwolle; Lelystad - Zwolle","titleSections":[[{"type":"STATION","value":"Amersfoort C."},{"type":"STATION","value":"'t Harde"},{"type":"ICON","value":"MAINTENANCE"},{"type":"STATION","value":"Zwolle"}],[{"type":"STATION","value":"Lelystad C."},{"type":"STATION","value":"Kampen Zuid"},{"type":"ICON","value":"MAINTENANCE"},{"type":"STATION","value":"Zwolle"}]],"isActive":false,"start":"2023-04-01T01:00:00+0200","end":"2023-04-03T02:00:00+0200","period":"Zaterdag 01-04-2023 01:00 uur t/m maandag 03-04-2023 02:00 uur.","impact":{"value":4},"summaryAdditionalTravelTime":{"label":"De extra reistijd kan oplopen tot 30 minuten.","shortLabel":"Extra reistijd tot 30 min.","maximumDurationInMinutes":30},"publicationSections":[{"section":{"stations":[{"uicCode":"8400055","stationCode":"AMF","name":"Amersfoort Centraal","coordinate":{"lat":52.1538887023926,"lng":5.37055540084839},"countryCode":"NL"},{"uicCode":"8400054","stationCode":"AMFS","name":"Amersfoort Schothorst","coordinate":{"lat":52.1748221374512,"lng":5.40388870239258},"countryCode":"NL"},{"uicCode":"8400228","stationCode":"AVAT","name":"Amersfoort Vathorst","coordinate":{"lat":52.1927795410156,"lng":5.43388891220093},"countryCode":"NL"},{"uicCode":"8400469","stationCode":"NKK","name":"Nijkerk","coordinate":{"lat":52.2222213745117,"lng":5.49388885498047},"countryCode":"NL"},{"uicCode":"8400509","stationCode":"PT","name":"Putten","coordinate":{"lat":52.2649993896484,"lng":5.57527780532837},"countryCode":"NL"},{"uicCode":"8400216","stationCode":"EML","name":"Ermelo","coordinate":{"lat":52.3016662597656,"lng":5.61472225189209},"countryCode":"NL"},{"uicCode":"8400294","stationCode":"HD","name":"Harderwijk","coordinate":{"lat":52.3375015258789,"lng":5.61972236633301},"countryCode":"NL"},{"uicCode":"8400466","stationCode":"NS","name":"Nunspeet","coordinate":{"lat":52.3708343505859,"lng":5.78527784347534},"countryCode":"NL"},{"uicCode":"8400388","stationCode":"HDE","name":"'t Harde","coordinate":{"lat":52.4091682,"lng":5.893611},"countryCode":"NL"},{"uicCode":"8400690","stationCode":"WZ","name":"Wezep","coordinate":{"lat":52.4541664123535,"lng":6.00250005722046},"countryCode":"NL"},{"uicCode":"8400747","stationCode":"ZL","name":"Zwolle","coordinate":{"lat":52.5047225952148,"lng":6.09194421768188},"countryCode":"NL"}],"direction":"BOTH"},"consequence":{"section":{"stations":[{"uicCode":"8400388","stationCode":"HDE","name":"'t Harde","coordinate":{"lat":52.4091682,"lng":5.893611},"countryCode":"NL"},{"uicCode":"8400690","stationCode":"WZ","name":"Wezep","coordinate":{"lat":52.4541664123535,"lng":6.00250005722046},"countryCode":"NL"},{"uicCode":"8400747","stationCode":"ZL","name":"Zwolle","coordinate":{"lat":52.5047225952148,"lng":6.09194421768188},"countryCode":"NL"}],"direction":"ONE_WAY"},"description":"rijden bussen","level":"LESS_TRAINS"},"sectionType":"NL"},{"section":{"stations":[{"uicCode":"8400394","stationCode":"LLS","name":"Lelystad Centrum","coordinate":{"lat":52.5077781677246,"lng":5.47277784347534},"countryCode":"NL"},{"uicCode":"8400198","stationCode":"DRON","name":"Dronten","coordinate":{"lat":52.5344,"lng":5.72089},"countryCode":"NL"},{"uicCode":"8400360","stationCode":"KPNZ","name":"Kampen Zuid","coordinate":{"lat":52.5331,"lng":5.91309},"countryCode":"NL"},{"uicCode":"8400747","stationCode":"ZL","name":"Zwolle","coordinate":{"lat":52.5047225952148,"lng":6.09194421768188},"countryCode":"NL"}],"direction":"BOTH"},"consequence":{"section":{"stations":[{"uicCode":"8400360","stationCode":"KPNZ","name":"Kampen Zuid","coordinate":{"lat":52.5331,"lng":5.91309},"countryCode":"NL"},{"uicCode":"8400747","stationCode":"ZL","name":"Zwolle","coordinate":{"lat":52.5047225952148,"lng":6.09194421768188},"countryCode":"NL"}],"direction":"ONE_WAY"},"description":"rijden bussen","level":"LESS_TRAINS"},"sectionType":"NL"}],"timespans":[{"start":"2023-04-01T01:00:00+0200","end":"2023-04-03T02:00:00+0200","period":"Zaterdag 01-04-2023 01:00 uur t/m maandag 03-04-2023 02:00 uur.","situation":{"label":"Door werkzaamheden: tussen 't Harde en Zwolle rijden er bussen en tussen Kampen Zuid en Zwolle rijden er bussen."},"cause":{"label":"Werkzaamheden"},"additionalTravelTime":{"label":"De extra reistijd kan oplopen tot 30 minuten.","shortLabel":"Extra reistijd tot 30 min.","maximumDurationInMinutes":30},"alternativeTransport":{"label":"Er rijden stop- en snelbussen.","shortLabel":"er rijden stop- en snelbussen"},"advices":[]}],"alternativeTransportTimespans":[{"start":"2023-04-01T01:00:00+0200","end":"2023-04-03T02:00:00+0200","alternativeTransport":{"location":[{"station":{"uicCode":"8400360","stationCode":"KPNZ","name":"Kampen Zuid","coordinate":{"lat":52.5331,"lng":5.91309},"countryCode":"NL"},"description":"vanaf de voorzijde van het station"},{"station":{"uicCode":"8400747","stationCode":"ZL","name":"Zwolle","coordinate":{"lat":52.5047225952148,"lng":6.09194421768188},"countryCode":"NL"},"description":"vanaf de Hanzelaan, aan de zuidzijde van het station"}],"label":"Er rijden snelbussen tussen Kampen Zuid en Zwolle.","shortLabel":"Er rijden snelbussen Kampen Zuid - Zwolle"}},{"start":"2023-04-01T01:00:00+0200","end":"2023-04-03T02:00:00+0200","alternativeTransport":{"location":[{"station":{"uicCode":"8400466","stationCode":"NS","name":"Nunspeet","coordinate":{"lat":52.3708343505859,"lng":5.78527784347534},"countryCode":"NL"},"description":"vanaf het P+R-terrein Nunspeet Natuurtransferium"},{"station":{"uicCode":"8400747","stationCode":"ZL","name":"Zwolle","coordinate":{"lat":52.5047225952148,"lng":6.09194421768188},"countryCode":"NL"},"description":"vanaf de Hanzelaan, aan de zuidzijde van het station"}],"label":"Er rijden snelbussen tussen Nunspeet en Zwolle.","shortLabel":"Er rijden snelbussen Nunspeet - Zwolle"}},{"start":"2023-04-01T01:00:00+0200","end":"2023-04-03T02:00:00+0200","alternativeTransport":{"location":[{"station":{"uicCode":"8400388","stationCode":"HDE","name":"'t Harde","coordinate":{"lat":52.4091682,"lng":5.893611},"countryCode":"NL"},"description":"vanaf de achterzijde van het station"},{"station":{"uicCode":"8400690","stationCode":"WZ","name":"Wezep","coordinate":{"lat":52.4541664123535,"lng":6.00250005722046},"countryCode":"NL"},"description":"vanaf het busstation"},{"station":{"uicCode":"8400747","stationCode":"ZL","name":"Zwolle","coordinate":{"lat":52.5047225952148,"lng":6.09194421768188},"countryCode":"NL"},"description":"vanaf de Hanzelaan, aan de zuidzijde van het station"}],"label":"Er rijden stopbussen tussen 't Harde, Wezep en Zwolle.","shortLabel":"Er rijden stopbussen 't Harde - Wezep - Zwolle"}}]},{"id":"7003340","type":"MAINTENANCE","registrationTime":"2023-03-02T11:52:54+0100","releaseTime":"2023-03-02T11:52:54+0100","local":false,"title":"Zwolle - Kampen","titleSections":[[{"type":"STATION","value":"Zwolle"},{"type":"ICON","value":"MAINTENANCE"},{"type":"STATION","value":"Kampen"}]],"isActive":false,"start":"2023-04-01T04:00:00+0200","end":"2023-04-03T02:00:00+0200","period":"Zaterdag 01-04-2023 04:00 uur t/m maandag 03-04-2023 02:00 uur.","impact":{"value":3},"summaryAdditionalTravelTime":{"label":"De extra reistijd kan oplopen tot 30 minuten.","shortLabel":"Extra reistijd tot 30 min.","maximumDurationInMinutes":30},"publicationSections":[{"section":{"stations":[{"uicCode":"8400747","stationCode":"ZL","name":"Zwolle","coordinate":{"lat":52.5047225952148,"lng":6.09194421768188},"countryCode":"NL"},{"uicCode":"8400746","stationCode":"ZLSH","name":"Zwolle Stadshagen","coordinate":{"lat":52.52764,"lng":6.05146},"countryCode":"NL"},{"uicCode":"8400353","stationCode":"KPN","name":"Kampen","coordinate":{"lat":52.5597229003906,"lng":5.92166662216186},"countryCode":"NL"}],"direction":"BOTH"},"consequence":{"section":{"stations":[{"uicCode":"8400747","stationCode":"ZL","name":"Zwolle","coordinate":{"lat":52.5047225952148,"lng":6.09194421768188},"countryCode":"NL"},{"uicCode":"8400746","stationCode":"ZLSH","name":"Zwolle Stadshagen","coordinate":{"lat":52.52764,"lng":6.05146},"countryCode":"NL"},{"uicCode":"8400353","stationCode":"KPN","name":"Kampen","coordinate":{"lat":52.5597229003906,"lng":5.92166662216186},"countryCode":"NL"}],"direction":"ONE_WAY"},"description":"rijden bussen","level":"LESS_TRAINS"},"sectionType":"NL"}],"timespans":[{"start":"2023-04-01T04:00:00+0200","end":"2023-04-03T02:00:00+0200","period":"Zaterdag 01-04-2023 04:00 uur t/m maandag 03-04-2023 02:00 uur.","situation":{"label":"Door werkzaamheden: tussen Zwolle en Kampen rijden er bussen."},"cause":{"label":"Werkzaamheden"},"additionalTravelTime":{"label":"De extra reistijd kan oplopen tot 30 minuten.","shortLabel":"Extra reistijd tot 30 min.","maximumDurationInMinutes":30},"alternativeTransport":{"label":"Er rijden bussen.","shortLabel":"er rijden bussen"},"advices":[]}],"alternativeTransportTimespans":[{"start":"2023-04-01T04:00:00+0200","end":"2023-04-03T02:00:00+0200","alternativeTransport":{"location":[{"station":{"uicCode":"8400747","stationCode":"ZL","name":"Zwolle","coordinate":{"lat":52.5047225952148,"lng":6.09194421768188},"countryCode":"NL"},"description":"vanaf de Hanzelaan, aan de zuidzijde van het station"},{"station":{"uicCode":"8400746","stationCode":"ZLSH","name":"Zwolle Stadshagen","coordinate":{"lat":52.52764,"lng":6.05146},"countryCode":"NL"},"description":"vanaf de haltes aan de Hasselterweg"},{"station":{"uicCode":"8400353","stationCode":"KPN","name":"Kampen","coordinate":{"lat":52.5597229003906,"lng":5.92166662216186},"countryCode":"NL"},"description":"vanaf de voorzijde van het station"}],"label":"Er rijden bussen tussen Zwolle, Zwolle Stadshagen en Kampen.","shortLabel":"Er rijden bussen Zwolle - Stadshagen - Kampen"}}]},{"id":"7003389","type":"MAINTENANCE","registrationTime":"2023-03-13T12:06:26+0100","releaseTime":"2023-03-13T12:06:26+0100","local":false,"title":"Amsterdam - Hannover - Berlin","titleSections":[[{"type":"STATION","value":"Amsterdam C."},{"type":"ICON","value":"MAINTENANCE"},{"type":"STATION","value":"Amersfoort C."},{"type":"STATION","value":"Berlin Hbf"}]],"isActive":false,"start":"2023-04-01T14:50:00+0200","end":"2023-04-01T22:30:00+0200","period":"Zaterdag 01-04-2023 14:50 uur t/m zaterdag 01-04-2023 22:30 uur.","impact":{"value":2},"summaryAdditionalTravelTime":{"label":"U heeft geen langere reistijd.","shortLabel":"Geen extra reistijd"},"publicationSections":[{"section":{"stations":[{"uicCode":"8400058","stationCode":"ASD","name":"Amsterdam Centraal","coordinate":{"lat":52.3788871765137,"lng":4.90027761459351},"countryCode":"NL"},{"uicCode":"8400060","stationCode":"ASDM","name":"Amsterdam Muiderpoort","coordinate":{"lat":52.3605537414551,"lng":4.93111133575439},"countryCode":"NL"},{"uicCode":"8400235","stationCode":"ASSP","name":"Amsterdam Science Park","coordinate":{"lat":52.35526,"lng":4.94651},"countryCode":"NL"},{"uicCode":"8400165","stationCode":"DMN","name":"Diemen","coordinate":{"lat":52.34515,"lng":4.967566},"countryCode":"NL"},{"uicCode":"8400685","stationCode":"WP","name":"Weesp","coordinate":{"lat":52.3127784729004,"lng":5.04305553436279},"countryCode":"NL"},{"uicCode":"8400452","stationCode":"NDB","name":"Naarden-Bussum","coordinate":{"lat":52.2802772521973,"lng":5.15694427490234},"countryCode":"NL"},{"uicCode":"8400145","stationCode":"BSMZ","name":"Bussum Zuid","coordinate":{"lat":52.2658348083496,"lng":5.16305541992188},"countryCode":"NL"},{"uicCode":"8400324","stationCode":"HVSM","name":"Hilversum Media Park","coordinate":{"lat":52.2380561828613,"lng":5.17388868331909},"countryCode":"NL"},{"uicCode":"8400322","stationCode":"HVS","name":"Hilversum","coordinate":{"lat":52.2258338928223,"lng":5.18194437026978},"countryCode":"NL"},{"uicCode":"8400086","stationCode":"BRN","name":"Baarn","coordinate":{"lat":52.2083320617676,"lng":5.28083324432373},"countryCode":"NL"},{"uicCode":"8400055","stationCode":"AMF","name":"Amersfoort Centraal","coordinate":{"lat":52.1538887023926,"lng":5.37055540084839},"countryCode":"NL"},{"uicCode":"8400490","stationCode":"HVL","name":"Hoevelaken","coordinate":{"lat":52.16652,"lng":5.45718},"countryCode":"NL"},{"uicCode":"8400066","stationCode":"APD","name":"Apeldoorn","coordinate":{"lat":52.2091674804687,"lng":5.97027778625488},"countryCode":"NL"},{"uicCode":"8400229","stationCode":"APDO","name":"Apeldoorn Osseveld","coordinate":{"lat":52.2152786254883,"lng":6.00444459915161},"countryCode":"NL"},{"uicCode":"8400599","stationCode":"TWL","name":"Twello","coordinate":{"lat":52.2377777099609,"lng":6.09861087799072},"countryCode":"NL"},{"uicCode":"8400173","stationCode":"DV","name":"Deventer","coordinate":{"lat":52.2574996948242,"lng":6.16055536270142},"countryCode":"NL"},